{"id":null,"anchorname":"YBOR CITY DIALYSIS LLC","address":"4204 N MACDILL AVE, TAMPA, FL, 33607","bldgnbr":"4204","predir":"N","streetname":"MACDILL","streettype":"AVE","suffdir":"0","city":"TAMPA","state_code":"FL","zip5":"33607","latitude":"27.9777670000000000","longitude":"-82.493103000000000","publicwifi":"U","url":"0","broadband_type_id":6}
{"id":null,"anchorname":"FLORIDA SECOND DISTRICT COURT OF APPEAL","address":"1700 N TAMPA ST, TAMPA, FL 33602","bldgnbr":"1700","predir":null,"streetname":"TAMPA","streettype":"ST","suffdir":null,"city":"TAMPA","state_code":"FL","zip5":"33602","latitude":"27.9584371200000000","longitude":"-82.461000290000000","publicwifi":"Y","url":"0","broadband_type_id":6}
{"id":null,"anchorname":"ILLINOIS FINANCE AUTHORITY","address":"180 NORTH STETSON","bldgnbr":"180","predir":"N","streetname":"STETSON","streettype":null,"suffdir":null,"city":"CHICAGO","state_code":"IL","zip5":"60601","latitude":"41.8852840000000000","longitude":"-87.622360000000000","publicwifi":"U","url":null,"broadband_type_id":6}
{"id":null,"anchorname":"ILLINOIS DEPT OF CHILDREN AND FAMILY SERVICES - NETWORK(POS)","address":"8 SOUTH MICHIGAN  AVENUE","bldgnbr":"8","predir":"S","streetname":"MICHIGAN","streettype":"AVE","suffdir":null,"city":"CHICAGO","state_code":"IL","zip5":"60603","latitude":"41.8819990000000000","longitude":"-87.624548000000000","publicwifi":"U","url":null,"broadband_type_id":6}
{"id":null,"anchorname":"ILLINOIS DEPT OF EMPLOYMENT SECURITY","address":"33 SOUTH STATE","bldgnbr":"33","predir":"S","streetname":"STATE","streettype":null,"suffdir":null,"city":"CHICAGO","state_code":"IL","zip5":"60603","latitude":"41.8810710000000000","longitude":"-87.627723000000000","publicwifi":"U","url":null,"broadband_type_id":6}
{"id":null,"anchorname":"INSTITUTE FOR PSYCHOANALYSIS","address":"122 S. MICHIGAN AVENUE, SUITE 1300","bldgnbr":"122","predir":"S","streetname":"MICHIGAN","streettype":"AVE","suffdir":null,"city":"CHICAGO","state_code":"IL","zip5":"60603","latitude":"41.8805290000000000","longitude":"-87.624531000000000","publicwifi":"U","url":null,"broadband_type_id":6}
{"id":null,"anchorname":"ILLINOIS DEPT OF CENTRAL MANAGEMENT SERVICES","address":"122 SOUTH MICHIGAN  AVENUE","bldgnbr":"122","predir":"S","streetname":"MICHIGAN","streettype":"AVE","suffdir":null,"city":"CHICAGO","state_code":"IL","zip5":"60601","latitude":"41.8805290000000000","longitude":"-87.624531000000000","publicwifi":"U","url":null,"broadband_type_id":6}
{"id":null,"anchorname":"ILLINOIS DEPT OF PROFESSIONAL REGULATION","address":"122 SOUTH MICHIGAN AVENUE","bldgnbr":"122","predir":"S","streetname":"MICHIGAN","streettype":"AVE","suffdir":null,"city":"CHICAGO","state_code":"IL","zip5":"60603","latitude":"41.8805290000000000","longitude":"-87.624531000000000","publicwifi":"U","url":null,"broadband_type_id":6}
{"id":null,"anchorname":"ILLINOIS THIRD PARTY NETWORKS","address":"60 EAST VAN BUREN","bldgnbr":"60","predir":"E","streetname":"VAN BUREN","streettype":"ST","suffdir":null,"city":"CHICAGO","state_code":"IL","zip5":"60605","latitude":"41.8770320000000000","longitude":"-87.625673000000000","publicwifi":"U","url":null,"broadband_type_id":6}
{"id":null,"anchorname":"YOUTH GUIDANCE","address":"122 SOUTH MICHIGAN","bldgnbr":"122","predir":"S","streetname":"MICHIGAN","streettype":null,"suffdir":null,"city":"CHICAGO","state_code":"IL","zip5":"60601","latitude":"41.8805290000000000","longitude":"-87.624531000000000","publicwifi":"U","url":null,"broadband_type_id":null}
{"id":null,"anchorname":"YOUTH GUIDANCE","address":"122 SOUTH MICHIGAN  AVENUE","bldgnbr":"122","predir":"S","streetname":"MICHIGAN","streettype":"AVE","suffdir":null,"city":"CHICAGO","state_code":"IL","zip5":"60603","latitude":"41.8805290000000000","longitude":"-87.624531000000000","publicwifi":"U","url":null,"broadband_type_id":null}
{"id":null,"anchorname":"CHICAGO ARCHITECTURE FOUNDATION","address":"224 SOUTH MICHIGAN   AVENUE","bldgnbr":"224","predir":"S","streetname":"MICHIGAN","streettype":"AVE","suffdir":null,"city":"CHICAGO","state_code":"IL","zip5":"60604","latitude":"41.8785990000000000","longitude":"-87.624447000000000","publicwifi":"U","url":null,"broadband_type_id":null}
{"id":null,"anchorname":"CHICAGO YOUTH CENTERS","address":"218 SOUTH WABASH  AVENUE","bldgnbr":"218","predir":"S","streetname":"WABASH","streettype":"AVE","suffdir":null,"city":"CHICAGO","state_code":"IL","zip5":"60603","latitude":"41.8788890000000000","longitude":"-87.626107000000000","publicwifi":"U","url":null,"broadband_type_id":null}
{"id":null,"anchorname":"CABET","address":"28 EAST JACKSON BOULEVARD","bldgnbr":"28","predir":"E","streetname":"JACKSON","streettype":"BLVD","suffdir":null,"city":"CHICAGO","state_code":"IL","zip5":"60601","latitude":"41.8782830000000000","longitude":"-87.626767000000000","publicwifi":"U","url":null,"broadband_type_id":null}
{"id":null,"anchorname":"UNIVERSITY CLUB OF CHICAGO LIBRARY","address":"76 EAST MONROE","bldgnbr":"76","predir":"E","streetname":"MONROE","streettype":null,"suffdir":null,"city":"CHICAGO","state_code":"IL","zip5":"60603","latitude":"41.8808370000000000","longitude":"-87.624991000000000","publicwifi":"Y","url":"http://www.ucco.com/Default.aspx?p=DynamicModule\u0026pageid=333901\u0026ssid=231325\u0026vnf=1","broadband_type_id":6}
{"id":null,"anchorname":"SCHOOL OF THE ART INSTITUTE OF CHICAGO- JOHN M FLAXMAN LIBRARY","address":"37 SOUTH WABASH AVENUE","bldgnbr":"37","predir":"S","streetname":"WABASH","streettype":"AVE","suffdir":null,"city":"CHICAGO","state_code":"IL","zip5":"60603","latitude":"41.8809820000000000","longitude":"-87.626113000000000","publicwifi":"Y","url":"http://www.saic.edu/academics/librariesandspecialcollections/johnmflaxmanlibrary/","broadband_type_id":6}
{"id":null,"anchorname":"SCHOOL OF THE ART INST. CHICAGO","address":"37 S WABASH","bldgnbr":"37","predir":"S","streetname":"WABASH","streettype":null,"suffdir":null,"city":"CHICAGO","state_code":"IL","zip5":"60603","latitude":"41.8809820000000000","longitude":"-87.626113000000000","publicwifi":"U","url":null,"broadband_type_id":6}
{"id":null,"anchorname":"MACCORMAC COLLEGE LIBRARY","address":"29 EAST MADISON ST","bldgnbr":"29","predir":"E","streetname":"MADISON","streettype":"ST","suffdir":null,"city":"CHICAGO","state_code":"IL","zip5":"60602","latitude":"41.8820130000000000","longitude":"-87.626848000000000","publicwifi":"Y","url":"http://www.maccormac.edu/page.cfm?pageid=25\u0026pagecategory=3","broadband_type_id":6}
{"id":null,"anchorname":"MACCORMAC COLLEGE","address":"29 E. MADISON","bldgnbr":"29","predir":"E","streetname":"MADISON","streettype":null,"suffdir":null,"city":"CHICAGO","state_code":"IL","zip5":"60602","latitude":"41.8820130000000000","longitude":"-87.626848000000000","publicwifi":"U","url":null,"broadband_type_id":6}
{"id":null,"anchorname":"SARGENT AND LUNDY TECHNICAL LIBRARY","address":"55 EAST MONROE ST, SUITE 24F60","bldgnbr":"55","predir":"E","streetname":"MONROE","streettype":"ST","suffdir":null,"city":"CHICAGO","state_code":"IL","zip5":"60603","latitude":"41.8807630000000000","longitude":"-87.625650000000000","publicwifi":"N","url":null,"broadband_type_id":6}
{"id":null,"anchorname":"ILLINOIS STATE POLICE  NETWORK (LOC)","address":"55 EAST MONROE","bldgnbr":"55","predir":"E","streetname":"MONROE","streettype":null,"suffdir":null,"city":"CHICAGO","state_code":"IL","zip5":"60603","latitude":"41.8807630000000000","longitude":"-87.625650000000000","publicwifi":"U","url":null,"broadband_type_id":4}
{"id":null,"anchorname":"NATIONAL-LOUIS UNIVERSITY","address":"122 S MICHIGAN AVE","bldgnbr":"122","predir":"S","streetname":"MICHIGAN","streettype":"AVE","suffdir":null,"city":"CHICAGO","state_code":"IL","zip5":"60603","latitude":"41.8805290000000000","longitude":"-87.624531000000000","publicwifi":"U","url":null,"broadband_type_id":6}
{"id":null,"anchorname":"ILLINOIS DEPT OF PUBLIC HEALTH","address":"122 SOUTH MICHIGAN  AVENUE","bldgnbr":"122","predir":"S","streetname":"MICHIGAN","streettype":"AVE","suffdir":null,"city":"CHICAGO","state_code":"IL","zip5":"60601","latitude":"41.8805290000000000","longitude":"-87.624531000000000","publicwifi":"U","url":null,"broadband_type_id":3}
{"id":null,"anchorname":"IHSCA CHARTER HIGH SCHOOL","address":"122 SOUTH MICHIGAN AVE","bldgnbr":"122","predir":"\u003cNull\u003e","streetname":"SOUTH MICHIGAN AVE","streettype":null,"suffdir":null,"city":"CHICAGO","state_code":"IL","zip5":"60603","latitude":"41.8805530000000000","longitude":"-87.624504000000000","publicwifi":"U","url":null,"broadband_type_id":6}
{"id":null,"anchorname":"METROPOLITAN LIBRARY SYSTEM - CHICAGO OFFICE","address":"224 SOUTH MICHIGAN AVENUE , SUITE 680","bldgnbr":"224","predir":"S","streetname":"MICHIGAN","streettype":"AVE","suffdir":null,"city":"CHICAGO","state_code":"IL","zip5":"60604","latitude":"41.8785990000000000","longitude":"-87.624447000000000","publicwifi":"Y","url":null,"broadband_type_id":6}
{"id":null,"anchorname":"SKIDMORE, OWINGS, AND MERRILL LIBRARY","address":"224 SOUTH MICHIGAN AVENUE, SUITE 1000","bldgnbr":"224","predir":"S","streetname":"MICHIGAN","streettype":"AVE","suffdir":null,"city":"CHICAGO","state_code":"IL","zip5":"60604","latitude":"41.8785990000000000","longitude":"-87.624447000000000","publicwifi":"N","url":null,"broadband_type_id":6}
{"id":null,"anchorname":"COMPASS LEXECON LIBRARY","address":"332 SOUTH MICHIGAN AVENUE","bldgnbr":"332","predir":"S","streetname":"MICHIGAN","streettype":"AVE","suffdir":null,"city":"CHICAGO","state_code":"IL","zip5":"60604","latitude":"41.8771900000000000","longitude":"-87.624417000000000","publicwifi":"N","url":"http://www.compasslexecon.com/Pages/default.aspx","broadband_type_id":6}
{"id":null,"anchorname":"ILLINOIS STATE POLICE  NETWORK (LOC)","address":"333 SOUTH WABASH AVENUE","bldgnbr":"333","predir":"S","streetname":"WABASH","streettype":"AVE","suffdir":null,"city":"CHICAGO","state_code":"IL","zip5":"60604","latitude":"41.8774120000000000","longitude":"-87.625972000000000","publicwifi":"U","url":null,"broadband_type_id":4}
{"id":null,"anchorname":"DEPAUL UNIVERSITY","address":"55 E JACKSON","bldgnbr":"55","predir":"E","streetname":"JACKSON","streettype":null,"suffdir":null,"city":"CHICAGO","state_code":"IL","zip5":"60604","latitude":"41.8782330000000000","longitude":"-87.625390000000000","publicwifi":"U","url":null,"broadband_type_id":6}
{"id":null,"anchorname":"ROOSEVELT UNIVERSITY- MURRAY-GREEN LIBRARY","address":"430 SOUTH MICHIGAN AVENUE","bldgnbr":"430","predir":"S","streetname":"MICHIGAN","streettype":"AVE","suffdir":null,"city":"CHICAGO","state_code":"IL","zip5":"60605","latitude":"41.8766070000000000","longitude":"-87.624444000000000","publicwifi":"Y","url":"http://www.roosevelt.edu/Library/Locations/AuditoriumLibrary.aspx","broadband_type_id":6}
{"id":null,"anchorname":"ROOSEVELT UNIVERSITY","address":"430 S MICHIGAN AVE","bldgnbr":"430","predir":"S","streetname":"MICHIGAN","streettype":"AVE","suffdir":null,"city":"CHICAGO","state_code":"IL","zip5":"60605","latitude":"41.8766070000000000","longitude":"-87.624444000000000","publicwifi":"U","url":null,"broadband_type_id":6}
{"id":null,"anchorname":"DEPAUL UNIVERSITY - RINN LAW LIBRARY","address":"25 EAST JACKSON  BOULEVARD","bldgnbr":"25","predir":"E","streetname":"JACKSON","streettype":"BLVD","suffdir":null,"city":"CHICAGO","state_code":"IL","zip5":"60604","latitude":"41.8781710000000000","longitude":"-87.626864000000000","publicwifi":"Y","url":"http://library.depaul.edu/About/locations.aspx","broadband_type_id":6}
{"id":null,"anchorname":"DEPAUL UNIVERSITY COLLEGE OF LAW- RINN LAW LIBRARY","address":"25 EAST JACKSON BOULEVARD, 5TH FLOOR","bldgnbr":"25","predir":"E","streetname":"JACKSON","streettype":"BLVD","suffdir":null,"city":"CHICAGO","state_code":"IL","zip5":"60604","latitude":"41.8781710000000000","longitude":"-87.626864000000000","publicwifi":"Y","url":"http://library.depaul.edu/About/locations.aspx","broadband_type_id":6}
{"id":null,"anchorname":"SPORTS AND ORTHOPEDIC REHABILITATION SERVICES","address":"2727 W. DR. MARTIN LUTHER KING BOULEVARD, TAMPA, FL, 33607","bldgnbr":"2727","predir":"W.","streetname":"DR. MARTIN LUTHER KING","streettype":"BOULEVARD","suffdir":"0","city":"TAMPA","state_code":"FL","zip5":"33607","latitude":"27.9813680000000000","longitude":"-82.487315000000000","publicwifi":"U","url":"0","broadband_type_id":6}
{"id":null,"anchorname":"YMCA TRAINING ALLIANCE OF CHICAGO","address":"11 EAST ADAMS, SUITE 300","bldgnbr":"11","predir":"E","streetname":"ADAMS,","streettype":null,"suffdir":null,"city":"CHICAGO","state_code":"IL","zip5":"60601","latitude":"41.8794430000000000","longitude":"-87.627340000000000","publicwifi":"U","url":null,"broadband_type_id":null}
{"id":null,"anchorname":"BAY AREA SLEEP ASSOCIATES LLC","address":"4231 N HABANA AVE, TAMPA, FL, 33607","bldgnbr":"4231","predir":"N","streetname":"HABANA","streettype":"AVE","suffdir":"0","city":"TAMPA","state_code":"FL","zip5":"33607","latitude":"27.9792020000000000","longitude":"-82.488788000000000","publicwifi":"U","url":"0","broadband_type_id":6}
{"id":null,"anchorname":"SAGO PALM EDUCATIONAL ACADEMY INC.","address":"3411 N 29TH STREET, TAMPA, FL 33605","bldgnbr":"3411","predir":null,"streetname":"29TH","streettype":"ST","suffdir":null,"city":"TAMPA","state_code":"FL","zip5":"33605","latitude":"27.9748675500000000","longitude":"-82.428056120000000","publicwifi":"U","url":"0","broadband_type_id":6}
{"id":null,"anchorname":"LOOP LEARNING CENTER","address":"2001 S MICHIGAN AVE","bldgnbr":"2001","predir":"\u003cNull\u003e","streetname":"MICHIGAN AVE","streettype":null,"suffdir":null,"city":"CHICAGO","state_code":"IL","zip5":"60616","latitude":"41.8554407560000000","longitude":"-87.623800047000000","publicwifi":"U","url":null,"broadband_type_id":6}
{"id":null,"anchorname":"ADA A MC KINLEY COMMUNITY","address":"1863 S WABASH AVE","bldgnbr":"1863","predir":"S","streetname":"WABASH","streettype":"AVE","suffdir":null,"city":"CHICAGO","state_code":"IL","zip5":"60605","latitude":"41.8570710000000000","longitude":"-87.625505000000000","publicwifi":"U","url":null,"broadband_type_id":1}
{"id":null,"anchorname":"ILLINOIS DEPT OF HUMAN SERVICES","address":"2036 SOUTH MICHIGAN  AVENUE","bldgnbr":"2036","predir":"S","streetname":"MICHIGAN","streettype":"AVE","suffdir":null,"city":"CHICAGO","state_code":"IL","zip5":"60616","latitude":"41.8550200000000000","longitude":"-87.623936000000000","publicwifi":"U","url":null,"broadband_type_id":6}
{"id":null,"anchorname":"ILLINOIS SPORTS FACILITIES AUTHORITY","address":"333 WEST 35TH  ST","bldgnbr":"333","predir":"W","streetname":"35TH","streettype":"ST","suffdir":null,"city":"CHICAGO","state_code":"IL","zip5":"60616","latitude":"41.8308350000000000","longitude":"-87.635132000000000","publicwifi":"U","url":null,"broadband_type_id":6}
{"id":null,"anchorname":"WILLIAMS MIDDLE PREP ACADEMY","address":"2710 SOUTH DEARBORN ST","bldgnbr":"2710","predir":"\u003cNull\u003e","streetname":"SOUTH DEARBORN ST","streettype":null,"suffdir":null,"city":"CHICAGO","state_code":"IL","zip5":"60616","latitude":"41.8435080000000000","longitude":"-87.628454000000000","publicwifi":"U","url":null,"broadband_type_id":6}
{"id":null,"anchorname":"PERSHING ELEM HUMANITIES MAGNET","address":"3113 SOUTH RHODES AVE","bldgnbr":"3113","predir":"S","streetname":"RHODES","streettype":"AVE","suffdir":null,"city":"CHICAGO","state_code":"IL","zip5":"60616","latitude":"41.8381070000000000","longitude":"-87.613392000000000","publicwifi":"U","url":null,"broadband_type_id":6}
{"id":null,"anchorname":"DE LA SALLE INSTITUTE - INSTITUTE CAMPUS","address":"3455 S WABASH AVE","bldgnbr":"3455","predir":"\u003cNull\u003e","streetname":"WABASH","streettype":null,"suffdir":null,"city":"CHICAGO","state_code":"IL","zip5":"60616","latitude":"41.8308311150000000","longitude":"-87.624422702000000","publicwifi":"U","url":null,"broadband_type_id":6}
{"id":null,"anchorname":"ACADEMY OF THE HOLY ANGELS","address":"315 Hillside Ave Demarest, NJ 07627-2709 United States","bldgnbr":"315","predir":null,"streetname":"Hillside Ave Demarest","streettype":null,"suffdir":null,"city":"Demarest","state_code":"NJ","zip5":"07627","latitude":"40.9423710000000000","longitude":"-73.943428000000000","publicwifi":"U","url":null,"broadband_type_id":6}
{"id":null,"anchorname":"New Mexico State South Complex - Wendell Chino Building","address":"1220 South Saint Francis Drive","bldgnbr":"1220","predir":"S","streetname":"SAINT FRANCIS","streettype":"DR","suffdir":null,"city":"Santa Fe","state_code":"NM","zip5":"87505","latitude":"35.6691366000000000","longitude":"-105.95767830000000","publicwifi":"U","url":"http://www.generalservices.state.nm.us/facilitiesmanagement/building_information.aspx","broadband_type_id":1}
{"id":null,"anchorname":"FORT GREENE PREPARATORY ACADEMY","address":"100 CLERMONT AVENUE","bldgnbr":"100","predir":null,"streetname":"CLERMONT","streettype":"Ave","suffdir":null,"city":"BROOKLYN","state_code":"NY","zip5":"11205","latitude":"40.6945317450000000","longitude":"-73.971583081000000","publicwifi":"N","url":null,"broadband_type_id":6}
{"id":null,"anchorname":"ADLER PLANETARIUM AND ASTRONOMY MUSUEM","address":"1300 SOUTH LAKE SHORE DRIVE","bldgnbr":"1300","predir":"S","streetname":"LAKE SHORE","streettype":"DR","suffdir":null,"city":"CHICAGO","state_code":"IL","zip5":"60605","latitude":"41.8662470000000000","longitude":"-87.607301000000000","publicwifi":"Y","url":"http://www.adlerplanetarium.org/","broadband_type_id":null}
{"id":null,"anchorname":"ADLER PLANETARIUM","address":"1300 SOUTH LAKE SHORE DRIVE","bldgnbr":"1300","predir":"S","streetname":"LAKE SHORE","streettype":"DR","suffdir":null,"city":"CHICAGO","state_code":"IL","zip5":"60605","latitude":"41.8662470000000000","longitude":"-87.607301000000000","publicwifi":"U","url":null,"broadband_type_id":null}
{"id":null,"anchorname":"METROPOLITAN PIER AND EXPOSITION AUTHORITY","address":"2301 SOUTH MINES  AVENUE","bldgnbr":"2301","predir":"S","streetname":"MINES","streettype":"AVE","suffdir":null,"city":"CHICAGO","state_code":"IL","zip5":"60616","latitude":"41.8524780000000000","longitude":"-87.611999000000000","publicwifi":"U","url":null,"broadband_type_id":null}
{"id":null,"anchorname":"ROBERT MORRIS UNIVERSITY- LEARNING RESOURCE CENTER","address":"401 SOUTH STATE ST","bldgnbr":"401","predir":"S","streetname":"STATE","streettype":"ST","suffdir":null,"city":"CHICAGO","state_code":"IL","zip5":"60605","latitude":"41.8763410000000000","longitude":"-87.627604000000000","publicwifi":"Y","url":"http://www.robertmorris.edu/chicago/","broadband_type_id":6}
{"id":null,"anchorname":"ROBERT MORRIS UNIVERSITY-ILLINOIS","address":"401 S. STATE ST","bldgnbr":"401","predir":"S","streetname":"STATE","streettype":"ST","suffdir":null,"city":"CHICAGO","state_code":"IL","zip5":"60605","latitude":"41.8763410000000000","longitude":"-87.627604000000000","publicwifi":"U","url":null,"broadband_type_id":6}
{"id":null,"anchorname":"ROBERT MORRIS UNIVERSITY","address":"401 STATE ST","bldgnbr":"401","predir":null,"streetname":"STATE","streettype":"ST","suffdir":null,"city":"CHICAGO","state_code":"IL","zip5":"60605","latitude":"41.8763410000000000","longitude":"-87.627604000000000","publicwifi":"Y","url":"http://robertmorris.edu/","broadband_type_id":6}
{"id":null,"anchorname":"SPERTUS INSTITUTE OF JEWIST STUDIES- NORMAN AND HELEN ASHER LIBRARY","address":"610 SOUTH MICHIGAN AVENUE","bldgnbr":"610","predir":"S","streetname":"MICHIGAN","streettype":"AVE","suffdir":null,"city":"CHICAGO","state_code":"IL","zip5":"60605","latitude":"41.8742760000000000","longitude":"-87.624295000000000","publicwifi":"Y","url":"http://www.spertus.edu/library","broadband_type_id":6}
{"id":null,"anchorname":"COLUMBIA COLLEGE CHICAGO LIBRARY","address":"624 SOUTH MICHIGAN AVENUE","bldgnbr":"624","predir":"S","streetname":"MICHIGAN","streettype":"AVE","suffdir":null,"city":"CHICAGO","state_code":"IL","zip5":"60605","latitude":"41.8741060000000000","longitude":"-87.624290000000000","publicwifi":"Y","url":"http://www.lib.colum.edu/","broadband_type_id":6}
{"id":null,"anchorname":"SPERTUS COLLEGE OF JUDAICA","address":"610 S. MICHIGAN AVENUE","bldgnbr":"610","predir":"S","streetname":"MICHIGAN","streettype":"AVE","suffdir":null,"city":"CHICAGO","state_code":"IL","zip5":"60605","latitude":"41.8742760000000000","longitude":"-87.624295000000000","publicwifi":"U","url":null,"broadband_type_id":6}
{"id":null,"anchorname":"COLUMBIA COLLEGE CHICAGO","address":"600 SOUTH MICHIGAN","bldgnbr":"600","predir":"S","streetname":"MICHIGAN","streettype":null,"suffdir":null,"city":"CHICAGO","state_code":"IL","zip5":"60605","latitude":"41.8744210000000000","longitude":"-87.624299000000000","publicwifi":"U","url":null,"broadband_type_id":6}
{"id":null,"anchorname":"EAST-WEST UNIVERSITY","address":"816 S MICHIGAN AVE","bldgnbr":"816","predir":"S","streetname":"MICHIGAN","streettype":"AVE","suffdir":null,"city":"CHICAGO","state_code":"IL","zip5":"60605","latitude":"41.8712890000000000","longitude":"-87.624186000000000","publicwifi":"U","url":null,"broadband_type_id":6}
{"id":null,"anchorname":"ST. AGNES HEALTH CARE CENTER","address":"1725 SOUTH WABASH","bldgnbr":"1725","predir":"S","streetname":"WABASH","streettype":null,"suffdir":null,"city":"CHICAGO","state_code":"IL","zip5":"60616","latitude":"41.8587500000000000","longitude":"-87.625541000000000","publicwifi":"U","url":null,"broadband_type_id":3}
{"id":null,"anchorname":"THE HISTORY MAKERS LIBRARY","address":"1900 SOUTH MICHIGAN AVENUE, 3RD FLOOR","bldgnbr":"1900","predir":"S","streetname":"MICHIGAN","streettype":"AVE","suffdir":null,"city":"CHICAGO","state_code":"IL","zip5":"60616","latitude":"41.8566590000000000","longitude":"-87.623971000000000","publicwifi":"Y","url":"http://www.thehistorymakers.com/institute-museum-and-library-services","broadband_type_id":6}
{"id":null,"anchorname":"OLD ST MARY'S SCHOOL","address":"1532 S MICHIGAN AVE","bldgnbr":"1532","predir":"S","streetname":"MICHIGAN","streettype":"AVE","suffdir":null,"city":"CHICAGO","state_code":"IL","zip5":"60605","latitude":"41.8608579890000000","longitude":"-87.624072915000000","publicwifi":"U","url":null,"broadband_type_id":6}
{"id":null,"anchorname":"KINDERCARE LEARNING CENTER","address":"1501 S STATE ST","bldgnbr":"1501","predir":"\u003cNull\u003e","streetname":"STATE ST","streettype":null,"suffdir":null,"city":"CHICAGO","state_code":"IL","zip5":"60605","latitude":"41.8614131110000000","longitude":"-87.627135988000000","publicwifi":"U","url":null,"broadband_type_id":3}
{"id":null,"anchorname":"JOHN G. SHEDD AQUARIUM REFERENCE LIBRARY","address":"1200 SOUTH LAKE SHORE DRIVE","bldgnbr":"1200","predir":"S","streetname":"LAKE SHORE","streettype":"DR","suffdir":null,"city":"CHICAGO","state_code":"IL","zip5":"60605","latitude":"41.8650910000000000","longitude":"-87.615538000000000","publicwifi":"Y","url":"http://www.sheddaquarium.org/","broadband_type_id":6}
{"id":null,"anchorname":"FIELD MUSEUM","address":"1400 SOUTH LAKE SHORE  DRIVE","bldgnbr":"1400","predir":"S","streetname":"LAKE SHORE","streettype":"DR","suffdir":null,"city":"CHICAGO","state_code":"IL","zip5":"60605","latitude":"41.8650670000000000","longitude":"-87.617359000000000","publicwifi":"U","url":null,"broadband_type_id":1}
{"id":null,"anchorname":"SOUTH LOOP ELEM SCHOOL","address":"1212 SOUTH PLYMOUTH CT","bldgnbr":"1212","predir":"S","streetname":"PLYMOUTH","streettype":"CT","suffdir":null,"city":"CHICAGO","state_code":"IL","zip5":"60605","latitude":"41.8670170000000000","longitude":"-87.628561000000000","publicwifi":"U","url":null,"broadband_type_id":6}
{"id":null,"anchorname":"DAYSTAR SCHOOL","address":"1550 S STATE ST","bldgnbr":"1550","predir":"S","streetname":"STATE","streettype":"ST","suffdir":null,"city":"CHICAGO","state_code":"IL","zip5":"60605","latitude":"41.8606684310000000","longitude":"-87.627376953000000","publicwifi":"U","url":null,"broadband_type_id":6}
{"id":null,"anchorname":"PERSPECTIVES CHARTER HIGH SCHOOL","address":"1930 SOUTH ARCHER AVE","bldgnbr":"1930","predir":"S","streetname":"ARCHER","streettype":"AVE","suffdir":null,"city":"CHICAGO","state_code":"IL","zip5":"60616","latitude":"41.8560610000000000","longitude":"-87.628456000000000","publicwifi":"U","url":null,"broadband_type_id":6}
{"id":null,"anchorname":"WARD  J ELEM SCHOOL","address":"2701 SOUTH SHIELDS AVE","bldgnbr":"2701","predir":"S","streetname":"SHIELDS","streettype":"AVE","suffdir":null,"city":"CHICAGO","state_code":"IL","zip5":"60616","latitude":"41.8434140000000000","longitude":"-87.635443000000000","publicwifi":"U","url":null,"broadband_type_id":6}
{"id":null,"anchorname":"WILLIAMS MULTIPLEX ELEM SCHOOL","address":"2710 SOUTH DEARBORN ST","bldgnbr":"2710","predir":"S","streetname":"DEARBORN","streettype":"ST","suffdir":null,"city":"CHICAGO","state_code":"IL","zip5":"60616","latitude":"41.8435080000000000","longitude":"-87.628454000000000","publicwifi":"U","url":null,"broadband_type_id":6}
{"id":null,"anchorname":"DOOLITTLE ELEM SCHOOL","address":"535 EAST 35TH ST","bldgnbr":"535","predir":"E","streetname":"35TH","streettype":"ST","suffdir":null,"city":"CHICAGO","state_code":"IL","zip5":"60616","latitude":"41.8310970000000000","longitude":"-87.613527000000000","publicwifi":"U","url":null,"broadband_type_id":6}
{"id":null,"anchorname":"CHICAGO POLICE DEPARTMENT","address":"3510 SOUTH MICHIGAN AVENUE","bldgnbr":"3510","predir":"S","streetname":"MICHIGAN","streettype":"AVE","suffdir":null,"city":"CHICAGO","state_code":"IL","zip5":"60653","latitude":"41.8306390000000000","longitude":"-87.623287000000000","publicwifi":"U","url":null,"broadband_type_id":4}
{"id":null,"anchorname":"PROVIDENCE C. VELASCO STUDENT SERVICES CENTER","address":"1202 E PALM AVENUE, TAMPA, FL 33605","bldgnbr":"1202","predir":null,"streetname":"PALM","streettype":"AVE","suffdir":null,"city":"TAMPA","state_code":"FL","zip5":"33605","latitude":"27.9627031800000000","longitude":"-82.445754240000000","publicwifi":"U","url":"0","broadband_type_id":6}
{"id":null,"anchorname":"ABRAHAM LINCOLN CTR","address":"3858 S COTTAGE GROVE AVE","bldgnbr":"3858","predir":"S","streetname":"COTTAGE GROVE","streettype":"AVE","suffdir":null,"city":"CHICAGO","state_code":"IL","zip5":"60653","latitude":"41.8247800000000000","longitude":"-87.607404000000000","publicwifi":"N","url":null,"broadband_type_id":null}
{"id":null,"anchorname":"HOLY ANGELS","address":"750 E 40TH ST","bldgnbr":"750","predir":"\u003cNull\u003e","streetname":"40TH","streettype":null,"suffdir":null,"city":"CHICAGO","state_code":"IL","zip5":"60653","latitude":"41.8215354250000000","longitude":"-87.608257216000000","publicwifi":"U","url":"http://www.holyangelschicago.org/","broadband_type_id":null}
{"id":null,"anchorname":"HILLSBOROUGH COUNTY TAX COLLECTOR","address":"601 E KENNEDY BLVD, TAMPA, FL 33602","bldgnbr":"601","predir":null,"streetname":"KENNEDY","streettype":"BLVD","suffdir":null,"city":"TAMPA","state_code":"FL","zip5":"33602","latitude":"27.9483708800000000","longitude":"-82.454709050000000","publicwifi":"Y","url":"0","broadband_type_id":1}
{"id":null,"anchorname":"BRONZEVILLE LIGHTHOUSE ELEM CHRTR","address":"8 WEST ROOT ST","bldgnbr":"8","predir":"W","streetname":"ROOT","streettype":"ST","suffdir":null,"city":"CHICAGO","state_code":"IL","zip5":"60609","latitude":"41.8192930000000000","longitude":"-87.626540000000000","publicwifi":"U","url":null,"broadband_type_id":null}
{"id":null,"anchorname":"CITY OF TAMPA","address":"116 S 34TH ST, TAMPA, FL 33605","bldgnbr":"116","predir":null,"streetname":"34TH","streettype":"ST","suffdir":null,"city":"TAMPA","state_code":"FL","zip5":"33605","latitude":"27.9473985300000000","longitude":"-82.422243940000000","publicwifi":"Y","url":"0","broadband_type_id":1}
{"id":null,"anchorname":"DANFORTH HOUSE","address":"4540 SOUTH MICHIGAN","bldgnbr":"4540","predir":"S","streetname":"MICHIGAN","streettype":null,"suffdir":null,"city":"CHICAGO","state_code":"IL","zip5":"60653","latitude":"41.8122600000000000","longitude":"-87.622990000000000","publicwifi":"U","url":null,"broadband_type_id":null}
{"id":null,"anchorname":"BRONZEVILLE SCHOLASTIC HS","address":"4934 SOUTH WABASH AVE","bldgnbr":"4934","predir":"\u003cNull\u003e","streetname":"SOUTH WABASH AVE","streettype":null,"suffdir":null,"city":"CHICAGO","state_code":"IL","zip5":"60615","latitude":"41.8048450000000000","longitude":"-87.624447000000000","publicwifi":"U","url":null,"broadband_type_id":6}
{"id":null,"anchorname":"URBAN PREP CHTR SOUTH SHORE HS","address":"1014 EAST 47TH ST","bldgnbr":"1014","predir":"\u003cNull\u003e","streetname":"EAST 47TH ST","streettype":null,"suffdir":null,"city":"CHICAGO","state_code":"IL","zip5":"60653","latitude":"41.8096800000000000","longitude":"-87.601280000000000","publicwifi":"U","url":null,"broadband_type_id":6}
{"id":null,"anchorname":"ARIEL ELEM COMMUNITY ACADEMY","address":"1119 EAST 46TH ST","bldgnbr":"1119","predir":"E","streetname":"46TH","streettype":"ST","suffdir":null,"city":"CHICAGO","state_code":"IL","zip5":"60653","latitude":"41.8114030000000000","longitude":"-87.598811000000000","publicwifi":"U","url":null,"broadband_type_id":1}
{"id":null,"anchorname":"PROLOGUE - JOHNSTON FINE ARTS HS","address":"1060 EAST 47TH ST","bldgnbr":"1060","predir":"\u003cNull\u003e","streetname":"EAST 47TH ST","streettype":null,"suffdir":null,"city":"CHICAGO","state_code":"IL","zip5":"60653","latitude":"41.8096940000000000","longitude":"-87.600182000000000","publicwifi":"U","url":null,"broadband_type_id":6}
{"id":null,"anchorname":"REAVIS ELEM MATH \u0026 SCI SPEC SCHL","address":"834 EAST 50TH ST","bldgnbr":"834","predir":"E","streetname":"50TH","streettype":"ST","suffdir":null,"city":"CHICAGO","state_code":"IL","zip5":"60615","latitude":"41.8041970000000000","longitude":"-87.605663000000000","publicwifi":"U","url":null,"broadband_type_id":6}
{"id":null,"anchorname":"KOZMINSKI ELEM COMMUNITY ACADEMY","address":"936 EAST 54TH ST","bldgnbr":"936","predir":"E","streetname":"54TH","streettype":"ST","suffdir":null,"city":"CHICAGO","state_code":"IL","zip5":"60615","latitude":"41.7979590000000000","longitude":"-87.602519000000000","publicwifi":"U","url":null,"broadband_type_id":1}
{"id":null,"anchorname":"ILLINOIS DEPT OF CHILDREN AND FAMILY SERVICES - NETWORK(POS)","address":"5333 SOUTH GREENWOOD  AVENUE","bldgnbr":"5333","predir":"S","streetname":"GREENWOOD","streettype":"AVE","suffdir":null,"city":"CHICAGO","state_code":"IL","zip5":"60615","latitude":"41.7989240000000000","longitude":"-87.599654000000000","publicwifi":"U","url":null,"broadband_type_id":6}
{"id":null,"anchorname":"CREATIVE MANSION CHILDREN'S ACADEMY","address":"4745 S ELLIS AVE","bldgnbr":"4745","predir":"\u003cNull\u003e","streetname":"ELLIS AVE","streettype":null,"suffdir":null,"city":"CHICAGO","state_code":"IL","zip5":"60615","latitude":"41.8086642470000000","longitude":"-87.601535818000000","publicwifi":"U","url":null,"broadband_type_id":6}
{"id":null,"anchorname":"ILLINOIS DEPT OF CHILDREN AND FAMILY SERVICES - NETWORK(POS)","address":"5467 SOUTH UNIVERSITY  AVENUE","bldgnbr":"5467","predir":"S","streetname":"UNIVERSITY","streettype":"AVE","suffdir":null,"city":"CHICAGO","state_code":"IL","zip5":"60615","latitude":"41.7961250000000000","longitude":"-87.598017000000000","publicwifi":"U","url":null,"broadband_type_id":6}
{"id":null,"anchorname":"AUDUBON COUNTY EMA","address":"318 LEROY ST. AUDUBON, IA 50025","bldgnbr":"318","predir":null,"streetname":"LEROY STREET","streettype":null,"suffdir":null,"city":"AUDUBON","state_code":"IA","zip5":"50025","latitude":"41.7216360000000000","longitude":"-94.930147000000000","publicwifi":"U","url":null,"broadband_type_id":1}
{"id":null,"anchorname":"MCCORMICK THEOLOGICAL SEMINARY","address":"5460 S UNIVERSITY AVE","bldgnbr":"5460","predir":"S","streetname":"UNIVERSITY","streettype":"AVE","suffdir":null,"city":"CHICAGO","state_code":"IL","zip5":"60615","latitude":"41.7962600000000000","longitude":"-87.598166000000000","publicwifi":"U","url":null,"broadband_type_id":null}
{"id":null,"anchorname":"FULLER ELEM SCHOOL","address":"4214 SOUTH SAINT LAWRENCE AVE","bldgnbr":"4214","predir":"\u003cNull\u003e","streetname":"ST LAWRENCE","streettype":null,"suffdir":null,"city":"CHICAGO","state_code":"IL","zip5":"60653","latitude":"41.8181030000000000","longitude":"-87.611740000000000","publicwifi":"U","url":null,"broadband_type_id":6}
{"id":null,"anchorname":"OVERTON ELEM SCHOOL","address":"221 EAST 49TH ST","bldgnbr":"221","predir":"E","streetname":"49TH","streettype":"ST","suffdir":null,"city":"CHICAGO","state_code":"IL","zip5":"60615","latitude":"41.8056570000000000","longitude":"-87.620741000000000","publicwifi":"U","url":null,"broadband_type_id":6}
{"id":null,"anchorname":"ATTUCKS ELEM SCHOOL","address":"5055 SOUTH STATE ST","bldgnbr":"3813","predir":"S","streetname":"DEARBORN","streettype":"ST","suffdir":null,"city":"CHICAGO","state_code":"IL","zip5":"60609","latitude":"41.8027110000000000","longitude":"-87.625756000000000","publicwifi":"U","url":null,"broadband_type_id":6}
{"id":null,"anchorname":"WILLIAMS MEDICAL PREP HIGH SCH","address":"4934 SOUTH WABASH AVE","bldgnbr":"4934","predir":"S","streetname":"WABASH","streettype":"AVE","suffdir":null,"city":"CHICAGO","state_code":"IL","zip5":"60615","latitude":"41.8048450000000000","longitude":"-87.624447000000000","publicwifi":"U","url":null,"broadband_type_id":3}
{"id":null,"anchorname":"PROVIDENT HOSPITAL OF COOK COUNTY","address":"500 EAST 51ST ST","bldgnbr":"500","predir":"E","streetname":"51ST","streettype":"ST","suffdir":null,"city":"CHICAGO","state_code":"IL","zip5":"60615","latitude":"41.8021980000000000","longitude":"-87.614075000000000","publicwifi":"U","url":null,"broadband_type_id":3}
{"id":null,"anchorname":"CAMBRIDGE SCHOOL OF CHICAGO","address":"4611 S ELLIS AVE","bldgnbr":"4611","predir":"S","streetname":"ELLIS","streettype":"AVE","suffdir":null,"city":"CHICAGO","state_code":"IL","zip5":"60653","latitude":"41.8110548430000000","longitude":"-87.601630814000000","publicwifi":"U","url":null,"broadband_type_id":6}
{"id":null,"anchorname":"AVENUE CARE CENTER","address":"4505 SOUTH DREXEL","bldgnbr":"4505","predir":"S","streetname":"DREXEL","streettype":null,"suffdir":null,"city":"CHICAGO","state_code":"IL","zip5":"60653","latitude":"41.8130180000000000","longitude":"-87.603910000000000","publicwifi":"U","url":null,"broadband_type_id":3}
{"id":null,"anchorname":"KING COLLEGE PREP HIGH SCHOOL","address":"4445 SOUTH DREXEL BLVD","bldgnbr":"4445","predir":"S","streetname":"DREXEL","streettype":"BLVD","suffdir":null,"city":"CHICAGO","state_code":"IL","zip5":"60653","latitude":"41.8127770000000000","longitude":"-87.603887000000000","publicwifi":"U","url":null,"broadband_type_id":6}
{"id":null,"anchorname":"PRICE LIT \u0026 WRITING ELEM SCHOOL","address":"4351 SOUTH DREXEL BLVD","bldgnbr":"4351","predir":"S","streetname":"DREXEL","streettype":"BLVD","suffdir":null,"city":"CHICAGO","state_code":"IL","zip5":"60653","latitude":"41.8149270000000000","longitude":"-87.603926000000000","publicwifi":"U","url":null,"broadband_type_id":6}
{"id":null,"anchorname":"ANCONA SCHOOL","address":"4770 S DORCHESTER AVE","bldgnbr":"4770","predir":"\u003cNull\u003e","streetname":"DORCHESTER","streettype":null,"suffdir":null,"city":"CHICAGO","state_code":"IL","zip5":"60615","latitude":"41.8080728310000000","longitude":"-87.592009319000000","publicwifi":"U","url":null,"broadband_type_id":6}
{"id":null,"anchorname":"SHOESMITH ELEM SCHOOL","address":"1330 EAST 50TH ST","bldgnbr":"1330","predir":"E","streetname":"50TH","streettype":"ST","suffdir":null,"city":"CHICAGO","state_code":"IL","zip5":"60615","latitude":"41.8042570000000000","longitude":"-87.594248000000000","publicwifi":"U","url":null,"broadband_type_id":6}
{"id":null,"anchorname":"CHICAGO PUBLIC LIBRARY","address":"4904 SOUTH LAKE PARK AVENUE","bldgnbr":"4904","predir":"S","streetname":"LAKE PARK","streettype":"AVE","suffdir":null,"city":"CHICAGO","state_code":"IL","zip5":"60615","latitude":"41.8054990000000000","longitude":"-87.589116000000000","publicwifi":"Y","url":"http://www.chipublib.org/","broadband_type_id":6}
{"id":null,"anchorname":"CANTER MIDDLE SCHOOL","address":"4959 SOUTH BLACKSTONE AVE","bldgnbr":"4959","predir":"S","streetname":"BLACKSTONE","streettype":"AVE","suffdir":null,"city":"CHICAGO","state_code":"IL","zip5":"60615","latitude":"41.8048570000000000","longitude":"-87.590445000000000","publicwifi":"U","url":null,"broadband_type_id":6}
{"id":null,"anchorname":"KENWOOD ACADEMY HIGH SCHOOL","address":"5015 SOUTH BLACKSTONE AVE","bldgnbr":"5015","predir":"S","streetname":"BLACKSTONE","streettype":"AVE","suffdir":null,"city":"CHICAGO","state_code":"IL","zip5":"60615","latitude":"41.8039430000000000","longitude":"-87.590455000000000","publicwifi":"U","url":null,"broadband_type_id":6}
{"id":null,"anchorname":"UNIVERSITY OF CHICAGO- ECKHART LIBRARY","address":"118-32 EAST 58TH ST","bldgnbr":"N/A","predir":"E","streetname":"58TH","streettype":"ST","suffdir":null,"city":"CHICAGO","state_code":"IL","zip5":"60637","latitude":"41.7892910000000000","longitude":"-87.621999000000000","publicwifi":"Y","url":"http://www.lib.uchicago.edu/e/eck/index.html","broadband_type_id":6}
{"id":null,"anchorname":"CARTER ELEM SCHOOL","address":"5740 SOUTH MICHIGAN AVE","bldgnbr":"5740","predir":"S","streetname":"MICHIGAN","streettype":"AVE","suffdir":null,"city":"CHICAGO","state_code":"IL","zip5":"60637","latitude":"41.7902710000000000","longitude":"-87.622410000000000","publicwifi":"U","url":null,"broadband_type_id":6}
{"id":null,"anchorname":"ROSS ELEM SCHOOL","address":"6059 SOUTH WABASH AVE","bldgnbr":"6059","predir":"S","streetname":"WABASH","streettype":"AVE","suffdir":null,"city":"CHICAGO","state_code":"IL","zip5":"60637","latitude":"41.7845010000000000","longitude":"-87.623759000000000","publicwifi":"U","url":null,"broadband_type_id":6}
{"id":null,"anchorname":"AKIBA-SCHECHTER JEWISH DAY SCHOOL","address":"5235 S CORNELL AVE","bldgnbr":"5235","predir":"\u003cNull\u003e","streetname":"CORNELL","streettype":null,"suffdir":null,"city":"CHICAGO","state_code":"IL","zip5":"60615","latitude":"41.8005781660000000","longitude":"-87.585823898000000","publicwifi":"U","url":null,"broadband_type_id":6}
{"id":null,"anchorname":"JKM LIBRARY","address":"1100 EAST 55TH ST","bldgnbr":"1100","predir":"E","streetname":"55TH","streettype":"ST","suffdir":null,"city":"CHICAGO","state_code":"IL","zip5":"60615","latitude":"41.7953960000000000","longitude":"-87.599603000000000","publicwifi":"Y","url":"http://www.jkmlibrary.org/","broadband_type_id":6}
{"id":null,"anchorname":"LUTHERAN SCHOOL OF THEOLOGY AT CHICAGO","address":"1100 EAST 55TH ST","bldgnbr":"1100","predir":"E","streetname":"55TH","streettype":"ST","suffdir":null,"city":"CHICAGO","state_code":"IL","zip5":"60615","latitude":"41.7953960000000000","longitude":"-87.599603000000000","publicwifi":"Y","url":"http://www.lstc.edu/","broadband_type_id":6}
{"id":null,"anchorname":"LUTHERAN SCHOOL OF THEOLOGY AT CHICAGO","address":"1100 E 55TH ST","bldgnbr":"1100","predir":"E","streetname":"55TH","streettype":"ST","suffdir":null,"city":"CHICAGO","state_code":"IL","zip5":"60615","latitude":"41.7953960000000000","longitude":"-87.599603000000000","publicwifi":"U","url":null,"broadband_type_id":6}
{"id":null,"anchorname":"ST THOMAS THE APOSTLE","address":"5467 S WOODLAWN AVE","bldgnbr":"5467","predir":"\u003cNull\u003e","streetname":"WOODLAWN","streettype":null,"suffdir":null,"city":"CHICAGO","state_code":"IL","zip5":"60615","latitude":"41.7958822960000000","longitude":"-87.596364556000000","publicwifi":"U","url":null,"broadband_type_id":null}
{"id":null,"anchorname":"MURRAY ELEM LANGUAGE ACADEMY","address":"5335 SOUTH KENWOOD AVE","bldgnbr":"5335","predir":"S","streetname":"KENWOOD","streettype":"AVE","suffdir":null,"city":"CHICAGO","state_code":"IL","zip5":"60615","latitude":"41.7985110000000000","longitude":"-87.593370000000000","publicwifi":"U","url":null,"broadband_type_id":6}
{"id":null,"anchorname":"CHILDREN'S RENDEZ-VOUS","address":"5492 S EVERETT AVE","bldgnbr":"5492","predir":"\u003cNull\u003e","streetname":"EVERETT AVE","streettype":null,"suffdir":null,"city":"CHICAGO","state_code":"IL","zip5":"60615","latitude":"41.7953910520000000","longitude":"-87.582670914000000","publicwifi":"U","url":null,"broadband_type_id":null}
{"id":null,"anchorname":"JONES  ERMA","address":"1905 UNION STREET, TAMPA, FL, 33607","bldgnbr":"1905","predir":"0","streetname":"UNION","streettype":"STREET","suffdir":"0","city":"TAMPA","state_code":"FL","zip5":"33607","latitude":"27.9579260000000000","longitude":"-82.478910000000000","publicwifi":"U","url":"0","broadband_type_id":6}
{"id":null,"anchorname":"CATHOLIC THEOLOGICAL UNION","address":"5401 S CORNELL AVE","bldgnbr":"5401","predir":"S","streetname":"CORNELL","streettype":"AVE","suffdir":null,"city":"CHICAGO","state_code":"IL","zip5":"60615","latitude":"41.7978800000000000","longitude":"-87.585423000000000","publicwifi":"U","url":null,"broadband_type_id":null}
{"id":null,"anchorname":"MONTGOMERY PLACE","address":"5550 SOUTH SHORE DRIVE","bldgnbr":"5550","predir":"S","streetname":"SHORE","streettype":null,"suffdir":null,"city":"CHICAGO","state_code":"IL","zip5":"60637","latitude":"41.7943840000000000","longitude":"-87.580495000000000","publicwifi":"U","url":null,"broadband_type_id":null}
{"id":null,"anchorname":"HILLSBOROUGH COUNTY TAX COLLECTOR","address":"1515 N WEST SHORE BOULEVARD, TAMPA, FL 33607","bldgnbr":"1515","predir":null,"streetname":"WEST SHORE","streettype":"BLVD","suffdir":null,"city":"TAMPA","state_code":"FL","zip5":"33607","latitude":"27.9564788500000000","longitude":"-82.523098580000000","publicwifi":"Y","url":"0","broadband_type_id":1}
{"id":null,"anchorname":"GLOBAL MOBILE DIAGNOSTICS TAMPA-WESTSHORE, INC","address":"4107 W SPRUCE ST, TAMPA, FL, 33607","bldgnbr":"4107","predir":"W","streetname":"SPRUCE","streettype":"ST","suffdir":"0","city":"TAMPA","state_code":"FL","zip5":"33607","latitude":"27.9595220000000000","longitude":"-82.512004000000000","publicwifi":"U","url":"0","broadband_type_id":6}
{"id":null,"anchorname":"DREXEL LEARNING CENTER","address":"1151 E 62ND ST 55","bldgnbr":"1151","predir":"\u003cNull\u003e","streetname":"62ND ST 55","streettype":null,"suffdir":null,"city":"CHICAGO","state_code":"IL","zip5":"60637","latitude":"41.7821267020000000","longitude":"-87.597065385000000","publicwifi":"U","url":null,"broadband_type_id":6}
{"id":null,"anchorname":"ILLINOIS DEPT OF HUMAN SERVICES","address":"915 EAST 63RD","bldgnbr":"915","predir":"E","streetname":"63RD","streettype":null,"suffdir":null,"city":"CHICAGO","state_code":"IL","zip5":"60637","latitude":"41.7804230000000000","longitude":"-87.602170000000000","publicwifi":"U","url":null,"broadband_type_id":6}
{"id":null,"anchorname":"ILLINOIS DEPT OF CHILDREN AND FAMILY SERVICES - NETWORK(POS)","address":"1818 EAST 71ST  PLAZA","bldgnbr":"1818","predir":"E","streetname":"71ST","streettype":"PLZ","suffdir":null,"city":"CHICAGO","state_code":"IL","zip5":"60649","latitude":"41.7662300000000000","longitude":"-87.580963000000000","publicwifi":"U","url":null,"broadband_type_id":6}
{"id":null,"anchorname":"TILL ELEM MATH \u0026 SCIENCE ACADEMY","address":"6543 SOUTH CHAMPLAIN AVE","bldgnbr":"6543","predir":"S","streetname":"CHAMPLAIN","streettype":"AVE","suffdir":null,"city":"CHICAGO","state_code":"IL","zip5":"60637","latitude":"41.7758020000000000","longitude":"-87.609390000000000","publicwifi":"U","url":null,"broadband_type_id":6}
{"id":null,"anchorname":"MASTER'S ACADEMY","address":"6620 S KING DR","bldgnbr":"6620","predir":"\u003cNull\u003e","streetname":"KING DR","streettype":null,"suffdir":null,"city":"CHICAGO","state_code":"IL","zip5":"60637","latitude":"41.7742253130000000","longitude":"-87.615477176000000","publicwifi":"U","url":null,"broadband_type_id":6}
{"id":null,"anchorname":"TOYOTA TECHNOLOGICAL INSTITUTE AT CHICAGO","address":"6045 S KENWOOD AVE","bldgnbr":"6045","predir":"S","streetname":"KENWOOD","streettype":"AVE","suffdir":null,"city":"CHICAGO","state_code":"IL","zip5":"60637","latitude":"41.7845210000000000","longitude":"-87.593006000000000","publicwifi":"U","url":null,"broadband_type_id":null}
{"id":null,"anchorname":"EXPERIMENTAL STATION","address":"6100 S BLACKSTONE AVE","bldgnbr":"6100","predir":"S","streetname":"BLACKSTONE","streettype":"AVE","suffdir":null,"city":"CHICAGO","state_code":"IL","zip5":"60637","latitude":"41.7841100000000000","longitude":"-87.590337000000000","publicwifi":"U","url":null,"broadband_type_id":null}
{"id":null,"anchorname":"THE CARA PROGRAM","address":"950 EAST 61ST. ST","bldgnbr":"950","predir":"E","streetname":"61ST.","streettype":"ST","suffdir":null,"city":"CHICAGO","state_code":"IL","zip5":"60601","latitude":"41.7841400000000000","longitude":"-87.602456000000000","publicwifi":"U","url":null,"broadband_type_id":null}
{"id":null,"anchorname":"HARTE ELEM SCHOOL","address":"1556 EAST 56TH ST","bldgnbr":"1556","predir":"E","streetname":"56TH","streettype":"ST","suffdir":null,"city":"CHICAGO","state_code":"IL","zip5":"60637","latitude":"41.7934340000000000","longitude":"-87.587235000000000","publicwifi":"U","url":null,"broadband_type_id":6}
{"id":null,"anchorname":"UNIV OF CHICAGO LAB SCHOOL","address":"1362 E 59TH ST","bldgnbr":"1362","predir":"\u003cNull\u003e","streetname":"59TH","streettype":null,"suffdir":null,"city":"CHICAGO","state_code":"IL","zip5":"60637","latitude":"41.7878693810000000","longitude":"-87.592304851000000","publicwifi":"U","url":null,"broadband_type_id":6}
{"id":null,"anchorname":"HYDE PARK ACADEMY HIGH SCHOOL","address":"6220 SOUTH STONY ISLAND AVE","bldgnbr":"6220","predir":"S","streetname":"STONY ISLAND","streettype":null,"suffdir":null,"city":"CHICAGO","state_code":"IL","zip5":"60637","latitude":"41.7824100000000000","longitude":"-87.586584000000000","publicwifi":"U","url":null,"broadband_type_id":6}
{"id":null,"anchorname":"UNIV OF CHICAGO CHARTER SCHOOLS","address":"1313 EAST 60TH ST","bldgnbr":"1313","predir":"\u003cNull\u003e","streetname":"EAST 60TH ST","streettype":null,"suffdir":null,"city":"CHICAGO","state_code":"IL","zip5":"60637","latitude":"41.7858810000000000","longitude":"-87.592887000000000","publicwifi":"U","url":null,"broadband_type_id":6}
{"id":null,"anchorname":"SONIA SHANKMAN ORTHOGENIC SCHOOL","address":"1365 E 60TH ST","bldgnbr":"1365","predir":"\u003cNull\u003e","streetname":"60TH","streettype":null,"suffdir":null,"city":"CHICAGO","state_code":"IL","zip5":"60637","latitude":"41.7859143480000000","longitude":"-87.592016704000000","publicwifi":"U","url":"http://orthogenicschool.uchicago.edu/","broadband_type_id":6}
{"id":null,"anchorname":"HYDE PARK DAY SCHOOL","address":"1375 E 60TH ST","bldgnbr":"1375","predir":"E","streetname":"60TH","streettype":"ST","suffdir":null,"city":"CHICAGO","state_code":"IL","zip5":"60637","latitude":"41.7859328260000000","longitude":"-87.591851327000000","publicwifi":"U","url":null,"broadband_type_id":6}
{"id":null,"anchorname":"CENTER FOR RESEARCH LIBRARIES TECHNICAL SERVICES","address":"6050 SOUTH KENWOOD AVENUE","bldgnbr":"6050","predir":"S","streetname":"KENWOOD","streettype":"AVE","suffdir":null,"city":"CHICAGO","state_code":"IL","zip5":"60637","latitude":"41.7847990000000000","longitude":"-87.593127000000000","publicwifi":"N","url":"http://www.crl.edu/","broadband_type_id":6}
{"id":null,"anchorname":"CARNEGIE ELEM SCHOOL","address":"1414 EAST 61ST PLACE","bldgnbr":"1414","predir":"E","streetname":"61ST","streettype":"PL","suffdir":null,"city":"CHICAGO","state_code":"IL","zip5":"60637","latitude":"41.7834210000000000","longitude":"-87.590996000000000","publicwifi":"U","url":null,"broadband_type_id":6}
{"id":null,"anchorname":"KENWOOD HEALTHCARE CENTER","address":"6125 SOUTH KENWOOD","bldgnbr":"6125","predir":"S","streetname":"KENWOOD","streettype":null,"suffdir":null,"city":"CHICAGO","state_code":"IL","zip5":"60637","latitude":"41.7837110000000000","longitude":"-87.593050000000000","publicwifi":"U","url":null,"broadband_type_id":3}
{"id":null,"anchorname":"NATIONAL OPINION RESEARCH CENTER- PAUL B. SHEATSLEY LIBRARY","address":"1155 EAST 60TH ST, ROOM 281","bldgnbr":"1155","predir":"E","streetname":"60TH","streettype":"ST","suffdir":null,"city":"CHICAGO","state_code":"IL","zip5":"60637","latitude":"41.7859060000000000","longitude":"-87.597107000000000","publicwifi":"Y","url":null,"broadband_type_id":6}
{"id":null,"anchorname":"UNIVERSITY OF CHICAGO- D'ANGELO LAW LIBRARY","address":"1121 EAST 60TH ST","bldgnbr":"1121","predir":"E","streetname":"60TH","streettype":"ST","suffdir":null,"city":"CHICAGO","state_code":"IL","zip5":"60637","latitude":"41.7858920000000000","longitude":"-87.597653000000000","publicwifi":"Y","url":"http://www.lib.uchicago.edu/e/law/index.html","broadband_type_id":6}
{"id":null,"anchorname":"UNIVERSITY OF CHICAGO- SOCIAL SERVICES ADMINISTRATION LIBRARY","address":"969 EAST 60TH ST","bldgnbr":"969","predir":"E","streetname":"60TH","streettype":"ST","suffdir":null,"city":"CHICAGO","state_code":"IL","zip5":"60637","latitude":"41.7858470000000000","longitude":"-87.602012000000000","publicwifi":"Y","url":"http://www.lib.uchicago.edu/e/ssa/","broadband_type_id":6}
{"id":null,"anchorname":"UNIVERSITY OF CHICAGO POLICE DEPARTMENT","address":"6054 SOUTH DREXEL AVENUE","bldgnbr":"6054","predir":"S","streetname":"DREXEL","streettype":"AVE","suffdir":null,"city":"CHICAGO","state_code":"IL","zip5":"60637","latitude":"41.7848770000000000","longitude":"-87.604487000000000","publicwifi":"U","url":null,"broadband_type_id":4}
{"id":null,"anchorname":"FISKE ELEM SCHOOL","address":"6145 SOUTH INGLESIDE AVE","bldgnbr":"6145","predir":"S","streetname":"INGLESIDE","streettype":"AVE","suffdir":null,"city":"CHICAGO","state_code":"IL","zip5":"60637","latitude":"41.7830470000000000","longitude":"-87.602690000000000","publicwifi":"U","url":null,"broadband_type_id":6}
{"id":null,"anchorname":"SEXTON ELEM SCHOOL","address":"6020 SOUTH LANGLEY AVE","bldgnbr":"6020","predir":"S","streetname":"LANGLEY","streettype":"AVE","suffdir":null,"city":"CHICAGO","state_code":"IL","zip5":"60637","latitude":"41.7854150000000000","longitude":"-87.608604000000000","publicwifi":"U","url":"http://www.cps.edu/Schools/Pages/school.aspx?id=610169","broadband_type_id":6}
{"id":null,"anchorname":"CHICAGO PUBLIC LIBRARY","address":"731 EAST 63RD PLACE","bldgnbr":"731","predir":"E","streetname":"63RD","streettype":"PL","suffdir":null,"city":"CHICAGO","state_code":"IL","zip5":"60637","latitude":"41.7803260000000000","longitude":"-87.607129000000000","publicwifi":"Y","url":"http://www.chipublib.org/","broadband_type_id":6}
{"id":null,"anchorname":"LARABIDA CHILDREN'S HOSPITAL","address":"EAST 65TH ST AT LAKE MICHIGAN","bldgnbr":"N/A","predir":"E","streetname":"65TH STREET AT LAKE MICHIGAN","streettype":null,"suffdir":null,"city":"CHICAGO","state_code":"IL","zip5":"60649","latitude":"41.7766020000000000","longitude":"-87.615536000000000","publicwifi":"U","url":null,"broadband_type_id":3}
{"id":null,"anchorname":"VERA THOMAS PRESCHOOL CENTER","address":"6450 S COTTAGE GROVE AVE","bldgnbr":"6450","predir":"\u003cNull\u003e","streetname":"COTTAGE GROVE AVE","streettype":null,"suffdir":null,"city":"CHICAGO","state_code":"IL","zip5":"60637","latitude":"41.7775345840000000","longitude":"-87.605860838000000","publicwifi":"U","url":null,"broadband_type_id":6}
{"id":null,"anchorname":"DUMAS ELEM SCHOOL","address":"6650 SOUTH ELLIS AVE","bldgnbr":"6650","predir":"S","streetname":"ELLIS","streettype":"AVE","suffdir":null,"city":"CHICAGO","state_code":"IL","zip5":"60637","latitude":"41.7740680000000000","longitude":"-87.600989000000000","publicwifi":"U","url":null,"broadband_type_id":6}
{"id":null,"anchorname":"OKEEFFE ELEM SCHOOL","address":"6940 SOUTH MERRILL AVE","bldgnbr":"6940","predir":"S","streetname":"MERRILL","streettype":"AVE","suffdir":null,"city":"CHICAGO","state_code":"IL","zip5":"60649","latitude":"41.7690990000000000","longitude":"-87.572780000000000","publicwifi":"U","url":null,"broadband_type_id":6}
{"id":null,"anchorname":"STAIR STEP VILLA NURSERY \u0026 KINDERGARTEN","address":"6725 S JEFFERY BLVD","bldgnbr":"6725","predir":"\u003cNull\u003e","streetname":"JEFFERY BLVD","streettype":null,"suffdir":null,"city":"CHICAGO","state_code":"IL","zip5":"60649","latitude":"41.7729766480000000","longitude":"-87.576336723000000","publicwifi":"U","url":null,"broadband_type_id":3}
{"id":null,"anchorname":"PARKSIDE ELEM COMMUNITY ACADEMY","address":"6938 SOUTH EAST END AVE","bldgnbr":"6938","predir":"SE","streetname":"END","streettype":"AVE","suffdir":null,"city":"CHICAGO","state_code":"IL","zip5":"60649","latitude":"41.7690210000000000","longitude":"-87.582892000000000","publicwifi":"U","url":null,"broadband_type_id":2}
{"id":null,"anchorname":"FLORIDA DEPARTMENT OF CHILDREN AND FAMILIES","address":"1313 N TAMPA ST, TAMPA, FL 33602","bldgnbr":"1313","predir":null,"streetname":"TAMPA","streettype":"ST","suffdir":null,"city":"TAMPA","state_code":"FL","zip5":"33602","latitude":"27.9547162700000000","longitude":"-82.460875720000000","publicwifi":"Y","url":"0","broadband_type_id":6}
{"id":null,"anchorname":"SOUTH SHORE FINE ARTS ELEM SCH","address":"1415 EAST 70TH ST","bldgnbr":"1415","predir":"E","streetname":"70TH","streettype":"ST","suffdir":null,"city":"CHICAGO","state_code":"IL","zip5":"60637","latitude":"41.7677890000000000","longitude":"-87.590448000000000","publicwifi":"U","url":null,"broadband_type_id":null}
{"id":null,"anchorname":"POWELL ELEM PAIDEIA COMM ACADEMY","address":"7530 SOUTH SOUTH SHORE DR","bldgnbr":"7530","predir":"S","streetname":"SHORE D","streettype":null,"suffdir":null,"city":"CHICAGO","state_code":"IL","zip5":"60649","latitude":"41.7600290000000000","longitude":"-87.556718000000000","publicwifi":"U","url":null,"broadband_type_id":6}
{"id":null,"anchorname":"HILLSBOROUGH COUNTY STUDENT SERVICES/ MIGRANT/ VIRTUAL PROGRAM/ MCKAY SCHOLARSHIP/ HOMEBOUND PROGRAM","address":"901 E KENNEDY BLVD, TAMPA, FL 33602","bldgnbr":"901","predir":null,"streetname":"KENNEDY","streettype":"BLVD","suffdir":null,"city":"TAMPA","state_code":"FL","zip5":"33602","latitude":"27.9492503000000000","longitude":"-82.452325330000000","publicwifi":"U","url":"0","broadband_type_id":6}
{"id":null,"anchorname":"PIRIE ELEM FINE ARTS \u0026 ACADEMIC C","address":"650 EAST 85TH ST","bldgnbr":"650","predir":"E","streetname":"85TH","streettype":"ST","suffdir":null,"city":"CHICAGO","state_code":"IL","zip5":"60619","latitude":"41.7402370000000000","longitude":"-87.608573000000000","publicwifi":"U","url":null,"broadband_type_id":6}
{"id":null,"anchorname":"RENAISSANCE AT SOUTH SHORE","address":"2425 EAST 71ST ST","bldgnbr":"2425","predir":"E","streetname":"71ST","streettype":null,"suffdir":null,"city":"CHICAGO","state_code":"IL","zip5":"60649","latitude":"41.7662440000000000","longitude":"-87.566010000000000","publicwifi":"U","url":null,"broadband_type_id":6}
{"id":null,"anchorname":"LAKEVIEW LIVING CENTER","address":"7270 SOUTH SHORE DRIVE","bldgnbr":"7270","predir":"S","streetname":"SHORE","streettype":null,"suffdir":null,"city":"CHICAGO","state_code":"IL","zip5":"60649","latitude":"41.7647330000000000","longitude":"-87.561369000000000","publicwifi":"U","url":null,"broadband_type_id":null}
{"id":null,"anchorname":"SOUTH CENTRAL COMMUNITY SERVICES - SOUTH SHORE","address":"7550 S PHILLIPS AVE","bldgnbr":"7550","predir":"\u003cNull\u003e","streetname":"PHILLIPS AVE","streettype":null,"suffdir":null,"city":"CHICAGO","state_code":"IL","zip5":"60649","latitude":"41.7581011760000000","longitude":"-87.565207899000000","publicwifi":"U","url":null,"broadband_type_id":6}
{"id":null,"anchorname":"BURNSIDE ELEM SCHOLASTIC ACADEMY","address":"650 EAST 91ST PLACE","bldgnbr":"650","predir":"E","streetname":"91ST","streettype":"PL","suffdir":null,"city":"CHICAGO","state_code":"IL","zip5":"60619","latitude":"41.7293060000000000","longitude":"-87.607526000000000","publicwifi":"U","url":null,"broadband_type_id":6}
{"id":null,"anchorname":"BOUCHET ELEM MATH \u0026 SCIENCE ACAD","address":"7355 SOUTH JEFFERY BLVD","bldgnbr":"7355","predir":"S","streetname":"JEFFERY","streettype":"BLVD","suffdir":null,"city":"CHICAGO","state_code":"IL","zip5":"60649","latitude":"41.7612820000000000","longitude":"-87.576106000000000","publicwifi":"U","url":null,"broadband_type_id":null}
{"id":null,"anchorname":"ILLINOIS DEPT OF CORRECTIONS","address":"8007 SOUTH COTTAGE GROVE  AVENUE","bldgnbr":"8007","predir":"S","streetname":"COTTAGE GROVE","streettype":"AVE","suffdir":null,"city":"CHICAGO","state_code":"IL","zip5":"60619","latitude":"41.7487820000000000","longitude":"-87.605133000000000","publicwifi":"U","url":null,"broadband_type_id":6}
{"id":null,"anchorname":"ILLINOIS DEPT OF HUMAN SERVICES","address":"8001 SOUTH COTTAGE GROVE  AVENUE","bldgnbr":"8001","predir":"S","streetname":"COTTAGE GROVE","streettype":"AVE","suffdir":null,"city":"CHICAGO","state_code":"IL","zip5":"60619","latitude":"41.7493110000000000","longitude":"-87.605154000000000","publicwifi":"U","url":null,"broadband_type_id":6}
{"id":null,"anchorname":"NJ STATE DMV","address":"175 RTE 70,","bldgnbr":"175","predir":null,"streetname":"RTE 70","streettype":null,"suffdir":null,"city":"Medford Twp","state_code":"NJ","zip5":"08055","latitude":"39.9017940000000000","longitude":"-74.832615000000000","publicwifi":"U","url":null,"broadband_type_id":1}
{"id":null,"anchorname":"CHICAGO YOUTH CENTERS","address":"7601 SOUTH PHILLIPS AVENUE AVENUE","bldgnbr":"7601","predir":"S","streetname":"PHILLIPS","streettype":"AVE","suffdir":null,"city":"CHICAGO","state_code":"IL","zip5":"60649","latitude":"41.7571370000000000","longitude":"-87.565024000000000","publicwifi":"U","url":null,"broadband_type_id":null}
{"id":null,"anchorname":"BRADWELL COMM ARTS \u0026 SCI ELEM SCH","address":"7736 SOUTH BURNHAM AVE","bldgnbr":"7736","predir":"S","streetname":"BURNHAM","streettype":"AVE","suffdir":null,"city":"CHICAGO","state_code":"IL","zip5":"60649","latitude":"41.7554970000000000","longitude":"-87.557139000000000","publicwifi":"U","url":null,"broadband_type_id":null}
{"id":null,"anchorname":"CHATHAM BUSINESS ASSN","address":"8441 S COTTAGE GROVE AVE","bldgnbr":"8441","predir":"S","streetname":"COTTAGE GROVE","streettype":"AVE","suffdir":null,"city":"CHICAGO","state_code":"IL","zip5":"60619","latitude":"41.7409220000000000","longitude":"-87.604913000000000","publicwifi":"Y","url":null,"broadband_type_id":6}
{"id":null,"anchorname":"LITTLE PEOPLES INSTITUTE","address":"117 E 87TH ST","bldgnbr":"117","predir":"\u003cNull\u003e","streetname":"87TH ST","streettype":null,"suffdir":null,"city":"CHICAGO","state_code":"IL","zip5":"60619","latitude":"41.7363415850000000","longitude":"-87.620650133000000","publicwifi":"U","url":null,"broadband_type_id":6}
{"id":null,"anchorname":"CHICAGO VOC ACHIEVEMENT ACAD HS","address":"2100 EAST 87TH ST","bldgnbr":"2100","predir":"E","streetname":"87TH","streettype":"ST","suffdir":null,"city":"CHICAGO","state_code":"IL","zip5":"60617","latitude":"41.7371400000000000","longitude":"-87.573753000000000","publicwifi":"U","url":null,"broadband_type_id":6}
{"id":null,"anchorname":"WATERFRONT TERRACE","address":"7750 SOUTH SHORE DRIVE","bldgnbr":"7750","predir":"S","streetname":"SHORE","streettype":"DR","suffdir":null,"city":"CHICAGO","state_code":"IL","zip5":"60649","latitude":"41.7558280000000000","longitude":"-87.552231000000000","publicwifi":"U","url":null,"broadband_type_id":null}
{"id":null,"anchorname":"ATTORNEY GENERAL","address":"7906 SOUTH COTTAGE GROVE  AVENUE","bldgnbr":"7906","predir":"S","streetname":"COTTAGE GROVE","streettype":"AVE","suffdir":null,"city":"CHICAGO","state_code":"IL","zip5":"60619","latitude":"41.7511650000000000","longitude":"-87.605298000000000","publicwifi":"U","url":null,"broadband_type_id":null}
{"id":null,"anchorname":"CALDWELL ELEM ACAD OF MATH \u0026 SCI","address":"8546 SOUTH CREGIER AVE","bldgnbr":"8546","predir":"S","streetname":"CREGIER","streettype":null,"suffdir":null,"city":"CHICAGO","state_code":"IL","zip5":"60617","latitude":"41.7394760000000000","longitude":"-87.580656000000000","publicwifi":"U","url":null,"broadband_type_id":null}
{"id":null,"anchorname":"ST PHILIP NERI ELEMENTARY SCHOOL","address":"2110 E 72ND ST","bldgnbr":"2110","predir":"\u003cNull\u003e","streetname":"72ND","streettype":null,"suffdir":null,"city":"CHICAGO","state_code":"IL","zip5":"60649","latitude":"41.7644549400000000","longitude":"-87.573244025000000","publicwifi":"U","url":null,"broadband_type_id":6}
{"id":null,"anchorname":"HIGHER LEARNING DAYCARE \u0026 EDUCATION CTR","address":"2526 E 73RD ST","bldgnbr":"2526","predir":"\u003cNull\u003e","streetname":"73RD ST","streettype":null,"suffdir":null,"city":"CHICAGO","state_code":"IL","zip5":"60649","latitude":"41.7629487690000000","longitude":"-87.562950147000000","publicwifi":"U","url":null,"broadband_type_id":3}
{"id":null,"anchorname":"KENYATTA'S DAYCARE \u0026 LEARNING CENTER","address":"2334 E 75TH ST","bldgnbr":"2334","predir":"\u003cNull\u003e","streetname":"75TH ST","streettype":null,"suffdir":null,"city":"CHICAGO","state_code":"IL","zip5":"60649","latitude":"41.7590369260000000","longitude":"-87.567483955000000","publicwifi":"U","url":null,"broadband_type_id":3}
{"id":null,"anchorname":"MUHAMMAD UNIVERSITY","address":"7351 S STONY ISLAND","bldgnbr":"7351","predir":"S","streetname":"STONY ISLAND","streettype":null,"suffdir":null,"city":"CHICAGO","state_code":"IL","zip5":"60649","latitude":"41.7612120000000000","longitude":"-87.585740000000000","publicwifi":"U","url":null,"broadband_type_id":6}
{"id":null,"anchorname":"CHICAGO PUBLIC LIBRARY","address":"2505 EAST 73RD ST","bldgnbr":"2505","predir":"E","streetname":"73RD","streettype":"ST","suffdir":null,"city":"CHICAGO","state_code":"IL","zip5":"60649","latitude":"41.7617940000000000","longitude":"-87.562138000000000","publicwifi":"Y","url":"http://www.chipublib.org/","broadband_type_id":6}
{"id":null,"anchorname":"SOUTH SHORE NURSING \u0026 REHAB","address":"2649 EAST 75TH ST","bldgnbr":"2649","predir":"E","streetname":"75TH","streettype":"ST","suffdir":null,"city":"CHICAGO","state_code":"IL","zip5":"60649","latitude":"41.7592020000000000","longitude":"-87.559785000000000","publicwifi":"U","url":null,"broadband_type_id":3}
{"id":null,"anchorname":"ASHE ELEM SCHOOL","address":"8505 SOUTH INGLESIDE AVE","bldgnbr":"8505","predir":"S","streetname":"INGLESIDE","streettype":"AVE","suffdir":null,"city":"CHICAGO","state_code":"IL","zip5":"60619","latitude":"41.7400960000000000","longitude":"-87.601230000000000","publicwifi":"U","url":null,"broadband_type_id":6}
{"id":null,"anchorname":"THE WORLD IS YOURS CHILDCARE \u0026 LEARNING CENTER","address":"8026 S COTTAGE GROVE AVE","bldgnbr":"8026","predir":"\u003cNull\u003e","streetname":"COTTAGE GROVE AVE","streettype":null,"suffdir":null,"city":"CHICAGO","state_code":"IL","zip5":"60619","latitude":"41.7489243320000000","longitude":"-87.605295689000000","publicwifi":"U","url":null,"broadband_type_id":3}
{"id":null,"anchorname":"CHICAGO PUBLIC LIBRARY","address":"7901 SOUTH KING DRIVE","bldgnbr":"7901","predir":"S","streetname":"KING","streettype":"DR","suffdir":null,"city":"CHICAGO","state_code":"IL","zip5":"60619","latitude":"41.7510900000000000","longitude":"-87.614874000000000","publicwifi":"Y","url":"http://www.chipublib.org/","broadband_type_id":6}
{"id":null,"anchorname":"DIXON ELEM SCHOOL","address":"8306 SOUTH SAINT LAWRENCE AVE","bldgnbr":"8306","predir":"\u003cNull\u003e","streetname":"ST LAWRENCE","streettype":null,"suffdir":null,"city":"CHICAGO","state_code":"IL","zip5":"60619","latitude":"41.7436050000000000","longitude":"-87.609949000000000","publicwifi":"U","url":null,"broadband_type_id":6}
{"id":null,"anchorname":"RESCUE MISSIONARY CHRISTIAN CHURCH CTR \u0026 SCHOOL","address":"7956 S KING DR","bldgnbr":"7956","predir":"S","streetname":"KING","streettype":"DR","suffdir":null,"city":"CHICAGO","state_code":"IL","zip5":"60619","latitude":"41.7499650330000000","longitude":"-87.614967143000000","publicwifi":"U","url":null,"broadband_type_id":6}
{"id":null,"anchorname":"NEIL ELEM SCHOOL","address":"8555 SOUTH MICHIGAN AVE","bldgnbr":"8555","predir":"S","streetname":"MICHIGAN","streettype":"AVE","suffdir":null,"city":"CHICAGO","state_code":"IL","zip5":"60619","latitude":"41.7390070000000000","longitude":"-87.620976000000000","publicwifi":"U","url":null,"broadband_type_id":6}
{"id":null,"anchorname":"MCDADE ELEM CLASSICAL SCHOOL","address":"8801 SOUTH INDIANA AVE","bldgnbr":"8801","predir":"S","streetname":"INDIANA","streettype":"AVE","suffdir":null,"city":"CHICAGO","state_code":"IL","zip5":"60619","latitude":"41.7345510000000000","longitude":"-87.619263000000000","publicwifi":"U","url":null,"broadband_type_id":6}
{"id":null,"anchorname":"CHESTERFIELD TOM THUMB DAYCARE CENTER","address":"9214 S COTTAGE GROVE AVE","bldgnbr":"9214","predir":"\u003cNull\u003e","streetname":"COTTAGE GROVE AVE","streettype":null,"suffdir":null,"city":"CHICAGO","state_code":"IL","zip5":"60619","latitude":"41.7270848620000000","longitude":"-87.604730567000000","publicwifi":"U","url":null,"broadband_type_id":3}
{"id":null,"anchorname":"CHICAGO PUBLIC LIBRARY","address":"501 EAST 90TH PLACE","bldgnbr":"501","predir":"E","streetname":"90TH","streettype":"PL","suffdir":null,"city":"CHICAGO","state_code":"IL","zip5":"60619","latitude":"41.7304190000000000","longitude":"-87.611908000000000","publicwifi":"Y","url":"http://www.chipublib.org/","broadband_type_id":6}
{"id":null,"anchorname":"SULLIVAN ALTERNATIVE HOUSE SCHOOL","address":"8164 S SOUTH CHICAGO AVE","bldgnbr":"7305","predir":"S","streetname":"CLYDE","streettype":"AVE","suffdir":null,"city":"CHICAGO","state_code":"IL","zip5":"60617","latitude":"41.7462692530000000","longitude":"-87.578481672000000","publicwifi":"U","url":null,"broadband_type_id":6}
{"id":null,"anchorname":"CHICAGO VOCATIONAL CAREER ACAD HS","address":"2100 EAST 87TH ST","bldgnbr":"2100","predir":"\u003cNull\u003e","streetname":"EAST 87TH ST","streettype":null,"suffdir":null,"city":"CHICAGO","state_code":"IL","zip5":"60617","latitude":"41.7371400000000000","longitude":"-87.573753000000000","publicwifi":"U","url":null,"broadband_type_id":3}
{"id":null,"anchorname":"ST MICHAEL THE ARCHANGEL SCHOOL","address":"8231 S SOUTH SHORE DR","bldgnbr":"8231","predir":"\u003cNull\u003e","streetname":"SOUTH SHORE DR","streettype":null,"suffdir":null,"city":"CHICAGO","state_code":"IL","zip5":"60617","latitude":"41.7459452390000000","longitude":"-87.547786094000000","publicwifi":"U","url":null,"broadband_type_id":6}
{"id":null,"anchorname":"FLORIDA DEPARTMENT OF CORRECTIONS TAMPA WEST PROBATION AND PAROLE","address":"1313 N TAMPA ST, TAMPA, FL 33602","bldgnbr":"1313","predir":null,"streetname":"TAMPA","streettype":"ST","suffdir":null,"city":"TAMPA","state_code":"FL","zip5":"33602","latitude":"27.9547162700000000","longitude":"-82.460875720000000","publicwifi":"Y","url":"0","broadband_type_id":6}
{"id":null,"anchorname":"FLORIDA DEPARTMENT OF LAW ENFORCEMENT","address":"102 W LAUREL ST, TAMPA, FL 33602","bldgnbr":"102","predir":null,"streetname":"LAUREL","streettype":"ST","suffdir":null,"city":"TAMPA","state_code":"FL","zip5":"33602","latitude":"27.9550546600000000","longitude":"-82.461688600000000","publicwifi":"Y","url":"0","broadband_type_id":4}
{"id":null,"anchorname":"MCKINLEY EAST CAMPUS","address":"2647 E 88TH ST","bldgnbr":"2647","predir":"E","streetname":"88TH","streettype":"ST","suffdir":null,"city":"CHICAGO","state_code":"IL","zip5":"60617","latitude":"41.7354199870000000","longitude":"-87.559412326000000","publicwifi":"U","url":null,"broadband_type_id":6}
{"id":null,"anchorname":"COLES ELEM LANGUAGE ACADEMY","address":"8441 SOUTH YATES BLVD","bldgnbr":"8441","predir":"S","streetname":"YATES","streettype":"BLVD","suffdir":null,"city":"CHICAGO","state_code":"IL","zip5":"60617","latitude":"41.7418910000000000","longitude":"-87.566017000000000","publicwifi":"U","url":null,"broadband_type_id":6}
{"id":null,"anchorname":"ST JOHN DE LA SALLE CATHOLIC ACADEMY OF FINE ARTS","address":"10212 S VERNON AVE","bldgnbr":"10212","predir":"\u003cNull\u003e","streetname":"VERNON","streettype":null,"suffdir":null,"city":"CHICAGO","state_code":"IL","zip5":"60628","latitude":"41.7088899340000000","longitude":"-87.612628116000000","publicwifi":"U","url":null,"broadband_type_id":6}
{"id":null,"anchorname":"(SPNL)NEW JERSEY STATE","address":"BURLINGTON RD,","bldgnbr":"N/A","predir":null,"streetname":"BURLINGTON RD","streettype":null,"suffdir":null,"city":"Bordentown","state_code":"NJ","zip5":"08505","latitude":"40.1267460000000000","longitude":"-74.738022000000000","publicwifi":"U","url":null,"broadband_type_id":1}
{"id":null,"anchorname":"BOWEN ENVIRONMENTAL STUDIES HS","address":"2710 EAST 89TH ST","bldgnbr":"2710","predir":"\u003cNull\u003e","streetname":"EAST 89TH ST","streettype":null,"suffdir":null,"city":"CHICAGO","state_code":"IL","zip5":"60617","latitude":"41.7337340000000000","longitude":"-87.558007000000000","publicwifi":"U","url":null,"broadband_type_id":6}
{"id":null,"anchorname":"ILLINOIS DEPT OF CHILDREN AND FAMILY SERVICES - NETWORK(POS)","address":"8753 SOUTH GREENWOOD  AVENUE","bldgnbr":"8753","predir":"S","streetname":"GREENWOOD","streettype":"AVE","suffdir":null,"city":"CHICAGO","state_code":"IL","zip5":"60619","latitude":"41.7357490000000000","longitude":"-87.597421000000000","publicwifi":"U","url":null,"broadband_type_id":6}
{"id":null,"anchorname":"ILLINOIS DEPT OF EMPLOYMENT SECURITY","address":"8750 SOUTH STONY ISLAND  AVENUE","bldgnbr":"8750","predir":"S","streetname":"STONY ISLAND","streettype":"AVE","suffdir":null,"city":"CHICAGO","state_code":"IL","zip5":"60617","latitude":"41.7359670000000000","longitude":"-87.585691000000000","publicwifi":"U","url":null,"broadband_type_id":6}
{"id":null,"anchorname":"OFFICE OF REHABILITATION SERVICES","address":"8840 SOUTH STONY ISLAND","bldgnbr":"8840","predir":"S","streetname":"STONY ISLAND","streettype":null,"suffdir":null,"city":"CHICAGO","state_code":"IL","zip5":"60617","latitude":"41.7343380000000000","longitude":"-87.585655000000000","publicwifi":"U","url":null,"broadband_type_id":6}
{"id":null,"anchorname":"NJ STATE PINELANDS RGCREE","address":"3016 COUNTY HWY NO 563,","bldgnbr":"3016","predir":null,"streetname":"COUNTY HWY NO 563","streettype":null,"suffdir":null,"city":"Washington Twp","state_code":"NJ","zip5":"08019","latitude":"39.6878580000000000","longitude":"-74.531926000000000","publicwifi":"U","url":null,"broadband_type_id":1}
{"id":null,"anchorname":"BUCKINGHAM SPECIAL EDUCATION CTR","address":"9207 SOUTH PHILLIPS AVE","bldgnbr":"9207","predir":"S","streetname":"PHILLIPS","streettype":"AVE","suffdir":null,"city":"CHICAGO","state_code":"IL","zip5":"60617","latitude":"41.7279520000000000","longitude":"-87.564475000000000","publicwifi":"U","url":null,"broadband_type_id":6}
{"id":null,"anchorname":"ILLINOIS SECRETARY OF STATE","address":"9901 SOUTH MLK  DRIVE","bldgnbr":"9901","predir":"S","streetname":"MLK","streettype":"DR","suffdir":null,"city":"CHICAGO","state_code":"IL","zip5":"60628","latitude":"41.7145880000000000","longitude":"-87.613902000000000","publicwifi":"U","url":null,"broadband_type_id":6}
{"id":null,"anchorname":"HARLAN COMMUNITY ACADEMY HS","address":"9652 SOUTH MICHIGAN AVE","bldgnbr":"9652","predir":"S","streetname":"MICHIGAN","streettype":"AVE","suffdir":null,"city":"CHICAGO","state_code":"IL","zip5":"60628","latitude":"41.7189550000000000","longitude":"-87.620606000000000","publicwifi":"U","url":null,"broadband_type_id":6}
{"id":null,"anchorname":"MOORE HOUSE","address":"9135 SOUTH BRANDON AVENUE","bldgnbr":"9135","predir":"S","streetname":"BRANDON","streettype":"AVE","suffdir":null,"city":"CHICAGO","state_code":"IL","zip5":"60617","latitude":"41.7294730000000000","longitude":"-87.546823000000000","publicwifi":"U","url":null,"broadband_type_id":null}
{"id":null,"anchorname":"KIDDIE WORKS INC","address":"1933 E 87TH ST","bldgnbr":"1933","predir":"\u003cNull\u003e","streetname":"E 87TH ST","streettype":null,"suffdir":null,"city":"CHICAGO","state_code":"IL","zip5":"60617","latitude":"41.7370019180000000","longitude":"-87.576900755000000","publicwifi":"U","url":null,"broadband_type_id":null}
{"id":null,"anchorname":"DORSEY DEVELOPMENTAL INSTITUTE","address":"2050 E 93RD ST","bldgnbr":"2050","predir":"\u003cNull\u003e","streetname":"E 93RD ST","streettype":null,"suffdir":null,"city":"CHICAGO","state_code":"IL","zip5":"60617","latitude":"41.7262074760000000","longitude":"-87.573876667000000","publicwifi":"U","url":null,"broadband_type_id":null}
{"id":null,"anchorname":"A WHIZZ KIDS PRESCHOOL INC II","address":"2600 E 83RD ST","bldgnbr":"2600","predir":"\u003cNull\u003e","streetname":"83RD ST","streettype":null,"suffdir":null,"city":"CHICAGO","state_code":"IL","zip5":"60617","latitude":"41.7445805290000000","longitude":"-87.561169021000000","publicwifi":"U","url":null,"broadband_type_id":6}
{"id":null,"anchorname":"SOUTH SHORE HOSPITAL MEDICAL LIBRARY","address":"8012 SOUTH CRANDON AVENUE","bldgnbr":"8012","predir":"S","streetname":"CRANDON","streettype":"AVE","suffdir":null,"city":"CHICAGO","state_code":"IL","zip5":"60617","latitude":"41.7496290000000000","longitude":"-87.568725000000000","publicwifi":"Y","url":"http://www.southshorehospital.com/","broadband_type_id":3}
{"id":null,"anchorname":"SOUTH SHORE HOSPITAL","address":"8012 SOUTH CRANDON","bldgnbr":"8012","predir":"S","streetname":"CRANDON","streettype":null,"suffdir":null,"city":"CHICAGO","state_code":"IL","zip5":"60617","latitude":"41.7496290000000000","longitude":"-87.568725000000000","publicwifi":"U","url":null,"broadband_type_id":3}
{"id":null,"anchorname":"MANN ELEM SCHOOL","address":"8050 SOUTH CHAPPEL AVE","bldgnbr":"8050","predir":"S","streetname":"CHAPPEL","streettype":"AVE","suffdir":null,"city":"CHICAGO","state_code":"IL","zip5":"60617","latitude":"41.7488750000000000","longitude":"-87.574766000000000","publicwifi":"U","url":null,"broadband_type_id":6}
{"id":null,"anchorname":"WEE CARE NURSERY SCHOOL","address":"1843 E 79TH ST","bldgnbr":"1843","predir":"\u003cNull\u003e","streetname":"E 79TH ST","streettype":null,"suffdir":null,"city":"CHICAGO","state_code":"IL","zip5":"60649","latitude":"41.7515007840000000","longitude":"-87.579405649000000","publicwifi":"U","url":null,"broadband_type_id":3}
{"id":null,"anchorname":"GLOBAL VISIONS HIGH SCHOOL","address":"2710 EAST 89TH ST","bldgnbr":"2710","predir":"\u003cNull\u003e","streetname":"EAST 89TH ST","streettype":null,"suffdir":null,"city":"CHICAGO","state_code":"IL","zip5":"60617","latitude":"41.7337340000000000","longitude":"-87.558007000000000","publicwifi":"U","url":null,"broadband_type_id":6}
{"id":null,"anchorname":"NEW MILLENNIUM HEALTH HIGH SCHOOL","address":"2710 EAST 89TH ST","bldgnbr":"2710","predir":"E","streetname":"89TH","streettype":"ST","suffdir":null,"city":"CHICAGO","state_code":"IL","zip5":"60617","latitude":"41.7337340000000000","longitude":"-87.558007000000000","publicwifi":"U","url":null,"broadband_type_id":3}
{"id":null,"anchorname":"WASHINGTON  H ELEM SCHOOL","address":"9130 SOUTH UNIVERSITY AVE","bldgnbr":"9130","predir":"S","streetname":"UNIVERSITY","streettype":"AVE","suffdir":null,"city":"CHICAGO","state_code":"IL","zip5":"60619","latitude":"41.7288900000000000","longitude":"-87.596233000000000","publicwifi":"U","url":null,"broadband_type_id":6}
{"id":null,"anchorname":"NKRUMAH ACADEMY ELEM SCHOOL","address":"901 EAST 95TH ST","bldgnbr":"901","predir":"E","streetname":"95TH","streettype":"ST","suffdir":null,"city":"CHICAGO","state_code":"IL","zip5":"60619","latitude":"41.7221600000000000","longitude":"-87.600960000000000","publicwifi":"U","url":null,"broadband_type_id":6}
{"id":null,"anchorname":"MCDOWELL ELEM SCHOOL","address":"1419 EAST 89TH ST","bldgnbr":"1419","predir":"E","streetname":"89TH","streettype":"ST","suffdir":null,"city":"CHICAGO","state_code":"IL","zip5":"60619","latitude":"41.7331070000000000","longitude":"-87.589700000000000","publicwifi":"U","url":null,"broadband_type_id":6}
{"id":null,"anchorname":"HOYNE ELEM SCHOOL","address":"8905 SOUTH CRANDON AVE","bldgnbr":"8905","predir":"S","streetname":"CRANDON","streettype":"AVE","suffdir":null,"city":"CHICAGO","state_code":"IL","zip5":"60617","latitude":"41.7334330000000000","longitude":"-87.568275000000000","publicwifi":"U","url":null,"broadband_type_id":6}
{"id":null,"anchorname":"TRINITY HOSPITAL LIBRARY","address":"2320 EAST 93RD ST","bldgnbr":"2320","predir":"E","streetname":"93RD","streettype":"ST","suffdir":null,"city":"CHICAGO","state_code":"IL","zip5":"60617","latitude":"41.7262790000000000","longitude":"-87.567349000000000","publicwifi":"Y","url":"http://www.advocatehealth.com/trin/default.cfm?id=1","broadband_type_id":3}
{"id":null,"anchorname":"ADVOCATE TRINITY HOSPITAL","address":"2320 EAST 93RD ST","bldgnbr":"2320","predir":"E","streetname":"93RD","streettype":"ST","suffdir":null,"city":"CHICAGO","state_code":"IL","zip5":"60617","latitude":"41.7262790000000000","longitude":"-87.567349000000000","publicwifi":"U","url":null,"broadband_type_id":3}
{"id":null,"anchorname":"WARREN ELEM SCHOOL","address":"9239 SOUTH JEFFERY AVE","bldgnbr":"9239","predir":"S","streetname":"JEFFERY","streettype":"AVE","suffdir":null,"city":"CHICAGO","state_code":"IL","zip5":"60617","latitude":"41.7272360000000000","longitude":"-87.575412000000000","publicwifi":"U","url":null,"broadband_type_id":6}
{"id":null,"anchorname":"EARHART ELEM OPT FOR KNOWL SCHOOL","address":"1710 EAST 93RD ST","bldgnbr":"1710","predir":"E","streetname":"93RD","streettype":"ST","suffdir":null,"city":"CHICAGO","state_code":"IL","zip5":"60617","latitude":"41.7260710000000000","longitude":"-87.582112000000000","publicwifi":"U","url":null,"broadband_type_id":6}
{"id":null,"anchorname":"BLACK MAGNET ELEM SCHOOL","address":"9101 SOUTH EUCLID AVE","bldgnbr":"9101","predir":"S","streetname":"EUCLID","streettype":"AVE","suffdir":null,"city":"CHICAGO","state_code":"IL","zip5":"60617","latitude":"41.7297080000000000","longitude":"-87.576692000000000","publicwifi":"U","url":null,"broadband_type_id":6}
{"id":null,"anchorname":"GILLESPIE ELEM SCHOOL","address":"9301 SOUTH STATE ST","bldgnbr":"9301","predir":"S","streetname":"STATE","streettype":"ST","suffdir":null,"city":"CHICAGO","state_code":"IL","zip5":"60619","latitude":"41.7253150000000000","longitude":"-87.623746000000000","publicwifi":"U","url":null,"broadband_type_id":6}
{"id":null,"anchorname":"CHICAGO STATE UNIVERSITY LIBRARY","address":"9501 SOUTH DR MARTIN LUTHER KING DRIVE","bldgnbr":"9501","predir":"S","streetname":"DR MARTIN LUTHER KING","streettype":"DR","suffdir":null,"city":"CHICAGO","state_code":"IL","zip5":"60628","latitude":"41.7218800000000000","longitude":"-87.614062000000000","publicwifi":"Y","url":"library.csu.edu","broadband_type_id":6}
{"id":null,"anchorname":"ILLINOIS STATE POLICE  NETWORK (LOC)","address":"9501 SOUTH DR. MARTIN LUTHER KING","bldgnbr":"9501","predir":"S","streetname":"MARTIN LUTHER KING","streettype":"DR","suffdir":null,"city":"CHICAGO","state_code":"IL","zip5":"60606","latitude":"41.7218800000000000","longitude":"-87.614062000000000","publicwifi":"U","url":null,"broadband_type_id":4}
{"id":null,"anchorname":"CHICAGO STATE UNIVERSITY POLICE DEPARTMENT","address":"9501 SOUTH KING DRIVE","bldgnbr":"9501","predir":"S","streetname":"KING","streettype":"DR","suffdir":null,"city":"CHICAGO","state_code":"IL","zip5":"60628","latitude":"41.7218800000000000","longitude":"-87.614062000000000","publicwifi":"U","url":null,"broadband_type_id":4}
{"id":null,"anchorname":"CHICAGO STATE UNIVERSITY","address":"95TH ST AT KING DR","bldgnbr":"N/A","predir":null,"streetname":"95TH ST AT KING","streettype":"DR","suffdir":null,"city":"CHICAGO","state_code":"IL","zip5":"60628","latitude":"41.7218910000000000","longitude":"-87.614136000000000","publicwifi":"U","url":null,"broadband_type_id":6}
{"id":null,"anchorname":"BANNER THERAPEUTIC DAY SCHOOL","address":"9538 S HARVARD AVE","bldgnbr":"9538","predir":"\u003cNull\u003e","streetname":"HARVARD AVE","streettype":null,"suffdir":null,"city":"CHICAGO","state_code":"IL","zip5":"60628","latitude":"41.7208460410000000","longitude":"-87.632362978000000","publicwifi":"U","url":null,"broadband_type_id":6}
{"id":null,"anchorname":"HILLSBOROUGH COUNTY PROPERTY APPRAISER","address":"601 E KENNEDY BLVD, TAMPA, FL 33602","bldgnbr":"601","predir":null,"streetname":"KENNEDY","streettype":"BLVD","suffdir":null,"city":"TAMPA","state_code":"FL","zip5":"33602","latitude":"27.9483708800000000","longitude":"-82.454709050000000","publicwifi":"U","url":"0","broadband_type_id":6}
{"id":null,"anchorname":"FLORIDA DEPARTMENT OF EDUCATION DIVISION OF BLIND SERVICES","address":"415 S ARMENIA AVE, TAMPA, FL 33609","bldgnbr":"415","predir":null,"streetname":"ARMENIA","streettype":"AVE","suffdir":null,"city":"TAMPA","state_code":"FL","zip5":"33609","latitude":"27.9409017700000000","longitude":"-82.485156440000000","publicwifi":"Y","url":"0","broadband_type_id":6}
{"id":null,"anchorname":"PHALANX FAMILY SERVICES","address":"10323 SOUTH HALSTED","bldgnbr":"10323","predir":"S","streetname":"HALSTED","streettype":null,"suffdir":null,"city":"CHICAGO","state_code":"IL","zip5":"60601","latitude":"41.7062280000000000","longitude":"-87.642678000000000","publicwifi":"U","url":null,"broadband_type_id":6}
{"id":null,"anchorname":"ILLINOIS DEPT OF CORRECTIONS","address":"10357 SOUTH HALSTED ST","bldgnbr":"10357","predir":"S","streetname":"HALSTED","streettype":"ST","suffdir":null,"city":"CHICAGO","state_code":"IL","zip5":"60628","latitude":"41.7057350000000000","longitude":"-87.642664000000000","publicwifi":"U","url":null,"broadband_type_id":6}
{"id":null,"anchorname":"ILLINOIS DEPT OF HUMAN SERVICES","address":"11203 SOUTH ELLIS   ST","bldgnbr":"11203","predir":"S","streetname":"ELLIS","streettype":"ST","suffdir":null,"city":"CHICAGO","state_code":"IL","zip5":"60628","latitude":"41.6911820000000000","longitude":"-87.605103000000000","publicwifi":"U","url":null,"broadband_type_id":6}
{"id":null,"anchorname":"PULLMAN STATE HISTORIC SITE","address":"11111 SOUTH FORRESTVILLE AVENUE","bldgnbr":"11111","predir":"S","streetname":"FORRESTVILLE","streettype":"AVE","suffdir":null,"city":"CHICAGO","state_code":"IL","zip5":"60628","latitude":"41.6924470000000000","longitude":"-87.609172000000000","publicwifi":"N","url":"http://www.pullman-museum.org/misc/","broadband_type_id":6}
{"id":null,"anchorname":"GALLISTEL ELEM LANGUAGE ACADEMY","address":"10347 SOUTH EWING AVE","bldgnbr":"10347","predir":"S","streetname":"EWING","streettype":"AVE","suffdir":null,"city":"CHICAGO","state_code":"IL","zip5":"60617","latitude":"41.7073510000000000","longitude":"-87.535213000000000","publicwifi":"U","url":null,"broadband_type_id":6}
{"id":null,"anchorname":"HALEY ELEM ACADEMY","address":"11411 SOUTH EGGLESTON AVE","bldgnbr":"11411","predir":"S","streetname":"EGGLESTON","streettype":"AVE","suffdir":null,"city":"CHICAGO","state_code":"IL","zip5":"60628","latitude":"41.6867780000000000","longitude":"-87.633682000000000","publicwifi":"U","url":null,"broadband_type_id":6}
{"id":null,"anchorname":"IMANI CHILDREN'S ACADEMY","address":"11443 S HALSTED ST","bldgnbr":"11443","predir":"\u003cNull\u003e","streetname":"HALSTED ST","streettype":null,"suffdir":null,"city":"CHICAGO","state_code":"IL","zip5":"60628","latitude":"41.6861247590000000","longitude":"-87.641998557000000","publicwifi":"U","url":null,"broadband_type_id":6}
{"id":null,"anchorname":"DUNNE ELEM MATH  SCI \u0026 TECH ACAD","address":"10845 SOUTH UNION AVE","bldgnbr":"10845","predir":"S","streetname":"UNION","streettype":"AVE","suffdir":null,"city":"CHICAGO","state_code":"IL","zip5":"60628","latitude":"41.6970280000000000","longitude":"-87.640003000000000","publicwifi":"U","url":null,"broadband_type_id":null}
{"id":null,"anchorname":"BANNER ACADEMY SOUTH","address":"2330 E 99TH ST","bldgnbr":"2330","predir":"E","streetname":"99TH","streettype":"ST","suffdir":null,"city":"CHICAGO","state_code":"IL","zip5":"60617","latitude":"41.7153594880000000","longitude":"-87.567342189000000","publicwifi":"U","url":null,"broadband_type_id":6}
{"id":null,"anchorname":"BURNHAM ELEM INCLUSIVE ACADEMY","address":"1903 EAST 96TH ST","bldgnbr":"1903","predir":"E","streetname":"96TH","streettype":"ST","suffdir":null,"city":"CHICAGO","state_code":"IL","zip5":"60617","latitude":"41.7205760000000000","longitude":"-87.577662000000000","publicwifi":"U","url":null,"broadband_type_id":6}
{"id":null,"anchorname":"A LITTLE BIT OF HEAVEN","address":"11321 S WENTWORTH AVE","bldgnbr":"11321","predir":"S","streetname":"WENTWORTH","streettype":"AVE","suffdir":null,"city":"CHICAGO","state_code":"IL","zip5":"60628","latitude":"41.6882420000000000","longitude":"-87.627743000000000","publicwifi":"U","url":null,"broadband_type_id":null}
{"id":null,"anchorname":"THE CHICAGO CAREER CENTER","address":"11000 SOUTH MICHIGAN AVENUE","bldgnbr":"11000","predir":"S","streetname":"MICHIGAN","streettype":"AVE","suffdir":null,"city":"CHICAGO","state_code":"IL","zip5":"60601","latitude":"41.6940370000000000","longitude":"-87.620846000000000","publicwifi":"U","url":null,"broadband_type_id":3}
{"id":null,"anchorname":"CHICAGO PUBLIC LIBRARY","address":"11001 SOUTH INDIANA AVENUE","bldgnbr":"11001","predir":"S","streetname":"INDIANA","streettype":"AVE","suffdir":null,"city":"CHICAGO","state_code":"IL","zip5":"60628","latitude":"41.6943980000000000","longitude":"-87.618213000000000","publicwifi":"Y","url":"http://www.chipublib.org/","broadband_type_id":6}
{"id":null,"anchorname":"CULLEN ELEM SCHOOL","address":"10650 SOUTH EBERHART AVE","bldgnbr":"10650","predir":"S","streetname":"EBERHART","streettype":"AVE","suffdir":null,"city":"CHICAGO","state_code":"IL","zip5":"60628","latitude":"41.7009290000000000","longitude":"-87.611222000000000","publicwifi":"U","url":null,"broadband_type_id":6}
{"id":null,"anchorname":"KOHN ELEM SCHOOL","address":"10414 SOUTH STATE ST","bldgnbr":"10414","predir":"S","streetname":"STATE","streettype":"ST","suffdir":null,"city":"CHICAGO","state_code":"IL","zip5":"60628","latitude":"41.7049110000000000","longitude":"-87.623545000000000","publicwifi":"U","url":null,"broadband_type_id":6}
{"id":null,"anchorname":"LAVIZZO ELEM SCHOOL","address":"138 WEST 109TH ST","bldgnbr":"138","predir":"W","streetname":"109TH","streettype":"ST","suffdir":null,"city":"CHICAGO","state_code":"IL","zip5":"60628","latitude":"41.6952590000000000","longitude":"-87.627044000000000","publicwifi":"U","url":null,"broadband_type_id":6}
{"id":null,"anchorname":"HUGHES L ELEM SCHOOL","address":"226 WEST 104TH ST","bldgnbr":"226","predir":"\u003cNull\u003e","streetname":"WEST 104TH ST","streettype":null,"suffdir":null,"city":"CHICAGO","state_code":"IL","zip5":"60628","latitude":"41.7043480000000000","longitude":"-87.629355000000000","publicwifi":"U","url":null,"broadband_type_id":6}
{"id":null,"anchorname":"ROSELAND CHRISTIAN SCHOOL","address":"314 W 108TH ST","bldgnbr":"314","predir":"\u003cNull\u003e","streetname":"108TH","streettype":null,"suffdir":null,"city":"CHICAGO","state_code":"IL","zip5":"60628","latitude":"41.6980231440000000","longitude":"-87.630741990000000","publicwifi":"U","url":"http://roselandchristian.org/","broadband_type_id":6}
{"id":null,"anchorname":"RENAISSANCE PARK SOUTH","address":"10935 SOUTH HALSTED ST","bldgnbr":"10935","predir":"S","streetname":"HALSTED","streettype":null,"suffdir":null,"city":"CHICAGO","state_code":"IL","zip5":"60628","latitude":"41.6953330000000000","longitude":"-87.642337000000000","publicwifi":"U","url":null,"broadband_type_id":2}
{"id":null,"anchorname":"FENGER ACADEMY HIGH SCHOOL","address":"11220 SOUTH WALLACE ST","bldgnbr":"11220","predir":"S","streetname":"WALLACE","streettype":"ST","suffdir":null,"city":"CHICAGO","state_code":"IL","zip5":"60628","latitude":"41.6901980000000000","longitude":"-87.637545000000000","publicwifi":"U","url":null,"broadband_type_id":6}
{"id":null,"anchorname":"ROSELAND COMMUNITY HOSPITAL","address":"45 WEST 111TH ST","bldgnbr":"45","predir":"W","streetname":"111TH","streettype":"ST","suffdir":null,"city":"CHICAGO","state_code":"IL","zip5":"60628","latitude":"41.6925220000000000","longitude":"-87.625369000000000","publicwifi":"U","url":null,"broadband_type_id":3}
{"id":null,"anchorname":"SCHMID ELEM SCHOOL","address":"9755 SOUTH GREENWOOD AVE","bldgnbr":"9755","predir":"S","streetname":"GREENWOOD","streettype":"AVE","suffdir":null,"city":"CHICAGO","state_code":"IL","zip5":"60628","latitude":"41.7174410000000000","longitude":"-87.596955000000000","publicwifi":"U","url":null,"broadband_type_id":6}
{"id":null,"anchorname":"SMITH  W ELEM SCHOOL","address":"744 EAST 103RD ST","bldgnbr":"744","predir":"E","streetname":"103RD","streettype":"ST","suffdir":null,"city":"CHICAGO","state_code":"IL","zip5":"60628","latitude":"41.7065230000000000","longitude":"-87.605035000000000","publicwifi":"U","url":null,"broadband_type_id":6}
{"id":null,"anchorname":"POE ELEM CLASSICAL SCHOOL","address":"10538 SOUTH LANGLEY AVE","bldgnbr":"10538","predir":"S","streetname":"LANGLEY","streettype":"AVE","suffdir":null,"city":"CHICAGO","state_code":"IL","zip5":"60628","latitude":"41.7024870000000000","longitude":"-87.606392000000000","publicwifi":"U","url":null,"broadband_type_id":6}
{"id":null,"anchorname":"PULLMAN ELEM SCHOOL","address":"11311 SOUTH FORRESTVILLE AVE","bldgnbr":"11311","predir":"S","streetname":"FORRESTVILLE","streettype":null,"suffdir":null,"city":"CHICAGO","state_code":"IL","zip5":"60628","latitude":"41.6889570000000000","longitude":"-87.609484000000000","publicwifi":"U","url":null,"broadband_type_id":6}
{"id":null,"anchorname":"SACRED HEART SCHOOL","address":"2906 E 96TH ST","bldgnbr":"2906","predir":"\u003cNull\u003e","streetname":"16TH","streettype":null,"suffdir":null,"city":"CHICAGO","state_code":"IL","zip5":"60617","latitude":"41.7209445120000000","longitude":"-87.553583601000000","publicwifi":"U","url":null,"broadband_type_id":6}
{"id":null,"anchorname":"MARSH ELEM SCHOOL","address":"9822 SOUTH EXCHANGE AVE","bldgnbr":"9810","predir":"S","streetname":"EXCHANGE","streettype":"AVE","suffdir":null,"city":"CHICAGO","state_code":"IL","zip5":"60617","latitude":"41.7168520000000000","longitude":"-87.552444000000000","publicwifi":"U","url":null,"broadband_type_id":6}
{"id":null,"anchorname":"LAWRENCE ELEM SCHOOL","address":"9928 SOUTH CRANDON AVE","bldgnbr":"9928","predir":"S","streetname":"CRANDON","streettype":"AVE","suffdir":null,"city":"CHICAGO","state_code":"IL","zip5":"60617","latitude":"41.7141540000000000","longitude":"-87.567099000000000","publicwifi":"U","url":null,"broadband_type_id":6}
{"id":null,"anchorname":"CHICAGO PUBLIC LIBRARY","address":"2401 EAST 100TH ST","bldgnbr":"2401","predir":"E","streetname":"100TH","streettype":"ST","suffdir":null,"city":"CHICAGO","state_code":"IL","zip5":"60617","latitude":"41.7134930000000000","longitude":"-87.565420000000000","publicwifi":"Y","url":"http://www.chipublib.org/","broadband_type_id":6}
{"id":null,"anchorname":"TAYLOR ELEM SCHOOL","address":"9912 SOUTH AVE H","bldgnbr":"9912","predir":"S","streetname":"AVENUE H","streettype":null,"suffdir":null,"city":"CHICAGO","state_code":"IL","zip5":"60617","latitude":"41.7156000000000000","longitude":"-87.532914000000000","publicwifi":"U","url":null,"broadband_type_id":6}
{"id":null,"anchorname":"ST FRANCIS DE SALES HIGH SCHOOL","address":"10155 S EWING AVE","bldgnbr":"10155","predir":"\u003cNull\u003e","streetname":"EWING","streettype":null,"suffdir":null,"city":"CHICAGO","state_code":"IL","zip5":"60617","latitude":"41.7109169720000000","longitude":"-87.535204367000000","publicwifi":"U","url":null,"broadband_type_id":6}
{"id":null,"anchorname":"CHICAGO PUBLIC LIBRARY","address":"10542 SOUTH EWING AVENUE","bldgnbr":"10542","predir":"S","streetname":"EWING","streettype":"AVE","suffdir":null,"city":"CHICAGO","state_code":"IL","zip5":"60617","latitude":"41.7037790000000000","longitude":"-87.535335000000000","publicwifi":"Y","url":"http://www.chipublib.org/","broadband_type_id":6}
{"id":null,"anchorname":"ADDAMS ELEM SCHOOL","address":"10810 SOUTH AVE H","bldgnbr":"10810","predir":"S","streetname":"AVENUE H","streettype":null,"suffdir":null,"city":"CHICAGO","state_code":"IL","zip5":"60617","latitude":"41.6986600000000000","longitude":"-87.538889000000000","publicwifi":"U","url":null,"broadband_type_id":6}
{"id":null,"anchorname":"ANNUNCIATA SCHOOL","address":"3750 E 112TH ST","bldgnbr":"3750","predir":"\u003cNull\u003e","streetname":"112TH","streettype":null,"suffdir":null,"city":"CHICAGO","state_code":"IL","zip5":"60617","latitude":"41.6918874190000000","longitude":"-87.532500030000000","publicwifi":"U","url":null,"broadband_type_id":6}
{"id":null,"anchorname":"LITTLE HOUSE MONTESSORI SCHOOL INC","address":"10809 S AVENUE F","bldgnbr":"10809","predir":"\u003cNull\u003e","streetname":"AVENUE F","streettype":null,"suffdir":null,"city":"CHICAGO","state_code":"IL","zip5":"60617","latitude":"41.6988823280000000","longitude":"-87.530360978000000","publicwifi":"U","url":null,"broadband_type_id":6}
{"id":null,"anchorname":"WASHINGTON G HIGH SCHOOL","address":"3535 EAST 114TH ST","bldgnbr":"3535","predir":"E","streetname":"114TH","streettype":"ST","suffdir":null,"city":"CHICAGO","state_code":"IL","zip5":"60617","latitude":"41.6881500000000000","longitude":"-87.537624000000000","publicwifi":"U","url":null,"broadband_type_id":6}
{"id":null,"anchorname":"WASHINGTON  G ELEM SCHOOL","address":"3611 EAST 114TH ST","bldgnbr":"3611","predir":"E","streetname":"114TH","streettype":"ST","suffdir":null,"city":"CHICAGO","state_code":"IL","zip5":"60617","latitude":"41.6881380000000000","longitude":"-87.536073000000000","publicwifi":"U","url":null,"broadband_type_id":6}
{"id":null,"anchorname":"HIGGINS ELEM COMMUNITY ACADEMY","address":"11710 SOUTH MORGAN ST","bldgnbr":"11710","predir":"S","streetname":"MORGAN","streettype":"ST","suffdir":null,"city":"CHICAGO","state_code":"IL","zip5":"60643","latitude":"41.6811630000000000","longitude":"-87.646929000000000","publicwifi":"U","url":null,"broadband_type_id":1}
{"id":null,"anchorname":"PHYSIOTHERAPY ASSOCIATES INC","address":"508 S HABANA AVE STE 140, TAMPA, FL, 33609","bldgnbr":"508","predir":"S","streetname":"HABANA","streettype":"AVE","suffdir":"STE 140","city":"TAMPA","state_code":"FL","zip5":"33609","latitude":"27.9397970000000000","longitude":"-82.489138000000000","publicwifi":"U","url":"0","broadband_type_id":6}
{"id":null,"anchorname":"OWENS ELEM COMMUNITY ACADEMY","address":"12450 SOUTH STATE ST","bldgnbr":"12450","predir":"S","streetname":"STATE","streettype":"ST","suffdir":null,"city":"CHICAGO","state_code":"IL","zip5":"60628","latitude":"41.6676700000000000","longitude":"-87.622368000000000","publicwifi":"U","url":null,"broadband_type_id":1}
{"id":null,"anchorname":"METCALFE ELEM COMMUNITY ACADEMY","address":"12339 SOUTH NORMAL AVE","bldgnbr":"12339","predir":"S","streetname":"NORMAL","streettype":"AVE","suffdir":null,"city":"CHICAGO","state_code":"IL","zip5":"60628","latitude":"41.6698880000000000","longitude":"-87.634375000000000","publicwifi":"U","url":null,"broadband_type_id":1}
{"id":null,"anchorname":"SONGHAI ELEM LEARNING INSTITUTE","address":"11725 SOUTH PERRY AVE","bldgnbr":"11725","predir":"S","streetname":"PERRY","streettype":"AVE","suffdir":null,"city":"CHICAGO","state_code":"IL","zip5":"60628","latitude":"41.6812040000000000","longitude":"-87.625103000000000","publicwifi":"U","url":"http://www.songhailearninginstitute.org/","broadband_type_id":6}
{"id":null,"anchorname":"BROWN R ELEM COMMUNITY ACAD","address":"12607 SOUTH UNION AVE","bldgnbr":"12607","predir":"S","streetname":"UNION","streettype":"AVE","suffdir":null,"city":"CHICAGO","state_code":"IL","zip5":"60628","latitude":"41.6657040000000000","longitude":"-87.639028000000000","publicwifi":"U","url":null,"broadband_type_id":1}
{"id":null,"anchorname":"SANDERS ACADEMY OF EXCELLENCE","address":"11515 S PRAIRIE AVE","bldgnbr":"11515","predir":"S","streetname":"PRAIRIE","streettype":"AVE","suffdir":null,"city":"CHICAGO","state_code":"IL","zip5":"60628","latitude":"41.6849470590000000","longitude":"-87.616635533000000","publicwifi":"U","url":"http://sandersacademyofexcellence.com/5001.html","broadband_type_id":6}
{"id":null,"anchorname":"COLEMON J ELEM ACADEMY","address":"1441 WEST 119TH ST","bldgnbr":"1441","predir":"W","streetname":"119TH","streettype":"ST","suffdir":null,"city":"CHICAGO","state_code":"IL","zip5":"60643","latitude":"41.6775610000000000","longitude":"-87.658035000000000","publicwifi":"U","url":null,"broadband_type_id":6}
{"id":null,"anchorname":"WEST PULLMAN BRANCH","address":"830 WEST 119TH ST","bldgnbr":"830","predir":"W","streetname":"119TH","streettype":"ST","suffdir":null,"city":"CHICAGO","state_code":"IL","zip5":"60643","latitude":"41.6778460000000000","longitude":"-87.643513000000000","publicwifi":"Y","url":"http://www.chipublib.org/branch/details/library/west-pullman/","broadband_type_id":6}
{"id":null,"anchorname":"THE LEARNING PLACE","address":"1500 W 119TH ST","bldgnbr":"1500","predir":"\u003cNull\u003e","streetname":"119TH ST","streettype":null,"suffdir":null,"city":"CHICAGO","state_code":"IL","zip5":"60643","latitude":"41.6775926850000000","longitude":"-87.658966345000000","publicwifi":"U","url":null,"broadband_type_id":6}
{"id":null,"anchorname":"ILLINOIS DEPT OF HUMAN SERVICES","address":"831 WEST 119TH","bldgnbr":"831","predir":"W","streetname":"119TH","streettype":null,"suffdir":null,"city":"CHICAGO","state_code":"IL","zip5":"60643","latitude":"41.6777360000000000","longitude":"-87.643508000000000","publicwifi":"U","url":null,"broadband_type_id":6}
{"id":null,"anchorname":"CARVER MILITARY ACADEMY HS","address":"13100 SOUTH DOTY AVE","bldgnbr":"13100","predir":"S","streetname":"DOTY","streettype":"AVE","suffdir":null,"city":"CHICAGO","state_code":"IL","zip5":"60827","latitude":"41.6543020000000000","longitude":"-87.584571000000000","publicwifi":"U","url":null,"broadband_type_id":6}
{"id":null,"anchorname":"CHILDRENS CENTER OUTREACH","address":"12803 S HALSTED ST","bldgnbr":"12803","predir":"S","streetname":"HALSTED","streettype":"ST","suffdir":null,"city":"CHICAGO","state_code":"IL","zip5":"60628","latitude":"41.6610084220000000","longitude":"-87.641144534000000","publicwifi":"U","url":null,"broadband_type_id":null}
{"id":null,"anchorname":"RENAISSANCE AT MIDWAY","address":"4437 SOUTH CICERO","bldgnbr":"4437","predir":"S","streetname":"CICERO","streettype":null,"suffdir":null,"city":"CHICAGO","state_code":"IL","zip5":"60632","latitude":"41.8124120000000000","longitude":"-87.743127000000000","publicwifi":"U","url":null,"broadband_type_id":6}
{"id":null,"anchorname":"ACADEMY FOR GLOBAL CITIZENSHIP","address":"4647 WEST 47TH ST","bldgnbr":"4647","predir":"W","streetname":"47TH","streettype":"ST","suffdir":null,"city":"CHICAGO","state_code":"IL","zip5":"60632","latitude":"41.8076720000000000","longitude":"-87.740215000000000","publicwifi":"U","url":null,"broadband_type_id":6}
{"id":null,"anchorname":"STATE OF NJ NCIC","address":"2000 1902 E THIRD ST,","bldgnbr":"2000","predir":null,"streetname":"1902 E THIRD ST","streettype":null,"suffdir":null,"city":"Trenton","state_code":"NJ","zip5":"08641","latitude":"40.0338100000000000","longitude":"-74.575043000000000","publicwifi":"U","url":null,"broadband_type_id":1}
{"id":null,"anchorname":"OUR LADY OF THE SNOWS","address":"4810 S LEAMINGTON AVE","bldgnbr":"4810","predir":"\u003cNull\u003e","streetname":"LEAMINGTON AVE","streettype":null,"suffdir":null,"city":"CHICAGO","state_code":"IL","zip5":"60638","latitude":"41.8054189550000000","longitude":"-87.751679120000000","publicwifi":"U","url":null,"broadband_type_id":null}
