{"id":null,"anchorname":"State Police Tunnels","address":"100 Massport Haul Road, Boston, MA 02210","bldgnbr":"100","predir":null,"streetname":"Massport Haul","streettype":"Road","suffdir":null,"city":"Boston","state_code":"MA","zip5":"02210","latitude":"42.3463186080000000","longitude":"-71.038499413000000","publicwifi":"U","url":null,"broadband_type_id":4}
{"id":null,"anchorname":"BOSTON FIRE DEPARTMENT","address":"272 D. Street, BOSTON, MA 02127","bldgnbr":"272","predir":null,"streetname":"D.","streettype":"Street","suffdir":null,"city":"BOSTON","state_code":"MA","zip5":"02127","latitude":"42.3396299690000000","longitude":"-71.050501006000000","publicwifi":"U","url":null,"broadband_type_id":5}
{"id":null,"anchorname":"BOSTON POLICE DEPARTMENT","address":"273 D Street, BOSTON, MA 02127","bldgnbr":"273","predir":null,"streetname":"D","streettype":"Street","suffdir":null,"city":"BOSTON","state_code":"MA","zip5":"02127","latitude":"42.3394106850000000","longitude":"-71.049909640000000","publicwifi":"U","url":null,"broadband_type_id":4}
{"id":null,"anchorname":"South Boston Eye/Behavioral Health/WIC/Dental Clinic","address":"386 West Broadway, South Boston, MA 02127","bldgnbr":"386","predir":"W","streetname":"West","streettype":"Broadway","suffdir":null,"city":"South Boston","state_code":"MA","zip5":"02127","latitude":"42.3376153370000000","longitude":"-71.048480173000000","publicwifi":"U","url":null,"broadband_type_id":3}
{"id":null,"anchorname":"Boston Middle School Academy","address":"215 Dorchester Street, South Boston, MA 02127","bldgnbr":"215","predir":null,"streetname":"Dorchester","streettype":"Street","suffdir":null,"city":"South Boston","state_code":"MA","zip5":"02127","latitude":"42.3339026540000000","longitude":"-71.050893696000000","publicwifi":"U","url":null,"broadband_type_id":6}
{"id":null,"anchorname":"South Boston Community Health Center","address":"409 W Broadway, S Boston, MA 02127","bldgnbr":"409","predir":"W","streetname":"Broadway","streettype":null,"suffdir":null,"city":"S Boston","state_code":"MA","zip5":"02127","latitude":"42.3369553880000000","longitude":"-71.048058977000000","publicwifi":"U","url":null,"broadband_type_id":3}
{"id":null,"anchorname":"Harbor Family Health Center","address":"37 Devine Way, South Boston, MA 02127","bldgnbr":"37","predir":null,"streetname":"Devine","streettype":"Way","suffdir":null,"city":"South Boston","state_code":"MA","zip5":"02127","latitude":"42.3284929290000000","longitude":"-71.055229385000000","publicwifi":"U","url":null,"broadband_type_id":3}
{"id":null,"anchorname":"BOSTON POLICE DEPT DISTRICT C-6","address":"101 West Broadway, BOSTON, MA 02127","bldgnbr":"101","predir":"W","streetname":"West","streettype":"Broadway","suffdir":null,"city":"BOSTON","state_code":"MA","zip5":"02127","latitude":"42.3411352130000000","longitude":"-71.054954716000000","publicwifi":"U","url":null,"broadband_type_id":4}
{"id":null,"anchorname":"BOSTON POLICE GARAGE","address":"200 Frontage Road, BOSTON, MA 02118","bldgnbr":"200","predir":null,"streetname":"Frontage","streettype":"Road","suffdir":null,"city":"BOSTON","state_code":"MA","zip5":"02118","latitude":"42.3378781000000000","longitude":"-71.063519349000000","publicwifi":"U","url":null,"broadband_type_id":4}
{"id":null,"anchorname":"Jobnet","address":"210 South Street, Boston, MA 02111","bldgnbr":"210","predir":null,"streetname":"South","streettype":"Street","suffdir":null,"city":"Boston","state_code":"MA","zip5":"02111","latitude":"42.3502818570000000","longitude":"-71.057394928000000","publicwifi":"U","url":null,"broadband_type_id":null}
{"id":null,"anchorname":"BLESSED SACRAMENT CHURCH PRE-S","address":"2224 SACRAMENTO DR","bldgnbr":"BLDGNUMBER","predir":null,"streetname":"STREETNAME","streettype":null,"suffdir":null,"city":"WEST LAFAYETTE","state_code":"IN","zip5":"47906","latitude":"40.4498967240000000","longitude":"-86.912611146000000","publicwifi":"I","url":null,"broadband_type_id":6}
{"id":null,"anchorname":"South Street Center","address":"145 South Street, Boston, MA 02111","bldgnbr":"145","predir":null,"streetname":"South","streettype":"Street","suffdir":null,"city":"Boston","state_code":"MA","zip5":"02111","latitude":"42.3508311800000000","longitude":"-71.057497105000000","publicwifi":"U","url":null,"broadband_type_id":null}
{"id":null,"anchorname":"NEW BETHEL SOUTHERN BAPTIST CH","address":"4301 BROADWAY AVE","bldgnbr":"BLDGNUMBER","predir":null,"streetname":"STREETNAME","streettype":null,"suffdir":null,"city":"EVANSVILLE","state_code":"IN","zip5":"47712","latitude":"37.9605307650000000","longitude":"-87.628307849000000","publicwifi":"N","url":null,"broadband_type_id":6}
{"id":null,"anchorname":"The WorkPlace","address":"29 Winter Street, Boston, MA 02108","bldgnbr":"29","predir":null,"streetname":"Winter","streettype":"Street","suffdir":null,"city":"Boston","state_code":"MA","zip5":"02108","latitude":"42.3559113070000000","longitude":"-71.061371621000000","publicwifi":"U","url":null,"broadband_type_id":null}
{"id":null,"anchorname":"Josiah Quincy","address":"885 Washington Street, Boston, MA 02111","bldgnbr":"885","predir":null,"streetname":"Washington","streettype":"Street","suffdir":null,"city":"Boston","state_code":"MA","zip5":"02111","latitude":"42.3489934700000000","longitude":"-71.064845946000000","publicwifi":"U","url":null,"broadband_type_id":null}
{"id":null,"anchorname":"Fenway: South End","address":"142 Berkeley St, Boston, MA 02116","bldgnbr":"142","predir":null,"streetname":"Berkeley","streettype":"St","suffdir":null,"city":"Boston","state_code":"MA","zip5":"02116","latitude":"42.3486232730000000","longitude":"-71.071836218000000","publicwifi":"U","url":null,"broadband_type_id":null}
{"id":null,"anchorname":"Carter Developmental Center","address":"396 Northampton Street, Boston, MA 02118","bldgnbr":"396","predir":null,"streetname":"Northampton","streettype":"Street","suffdir":null,"city":"Boston","state_code":"MA","zip5":"02118","latitude":"42.3405428400000000","longitude":"-71.083780609000000","publicwifi":"U","url":null,"broadband_type_id":null}
{"id":null,"anchorname":"Joseph J Hurley","address":"70 Worcester Street, Boston, MA 02118","bldgnbr":"70","predir":null,"streetname":"Worcester","streettype":"Street","suffdir":null,"city":"Boston","state_code":"MA","zip5":"02118","latitude":"42.3388084690000000","longitude":"-71.077866001000000","publicwifi":"U","url":null,"broadband_type_id":null}
{"id":null,"anchorname":"Blackstone","address":"380 Shawmut Avenue, Boston, MA 02118","bldgnbr":"380","predir":null,"streetname":"Shawmut","streettype":"Avenue","suffdir":null,"city":"Boston","state_code":"MA","zip5":"02118","latitude":"42.3388084690000000","longitude":"-71.077866001000000","publicwifi":"U","url":null,"broadband_type_id":null}
{"id":null,"anchorname":"Dr. Solomon Carter Fuller","address":"85 East Newton Street, Boston, MA 02118","bldgnbr":"85","predir":"East","streetname":"Newton","streettype":"Street","suffdir":null,"city":"Boston","state_code":"MA","zip5":"02118","latitude":"42.3360466680000000","longitude":"-71.070726163000000","publicwifi":"U","url":null,"broadband_type_id":null}
{"id":null,"anchorname":"South Cove Community Health Center - South Street Clinic","address":"145 South Street, Boston, MA 02111","bldgnbr":"145","predir":null,"streetname":"South","streettype":"Street","suffdir":null,"city":"Boston","state_code":"MA","zip5":"02111","latitude":"42.3508932560000000","longitude":"-71.057660127000000","publicwifi":"U","url":null,"broadband_type_id":3}
{"id":null,"anchorname":"BOSTON FIRE DEPARTMENT","address":"175 Kneeland Street, BOSTON, MA 02111","bldgnbr":"175","predir":null,"streetname":"Kneeland","streettype":"Street","suffdir":null,"city":"BOSTON","state_code":"MA","zip5":"02111","latitude":"42.3495572000000000","longitude":"-71.057664433000000","publicwifi":"U","url":null,"broadband_type_id":5}
{"id":null,"anchorname":"BOSTON POLICE DEPT DISTRICT D-14","address":"301 Washington Street, BOSTON, MA 02108","bldgnbr":"301","predir":null,"streetname":"Washington","streettype":"Street","suffdir":null,"city":"BOSTON","state_code":"MA","zip5":"02108","latitude":"42.3567874450000000","longitude":"-71.059188362000000","publicwifi":"U","url":null,"broadband_type_id":4}
{"id":null,"anchorname":"St. Francis House Clinic","address":"39 Boylston Street, Boston, MA 02116","bldgnbr":"39","predir":null,"streetname":"Boylston","streettype":"Street","suffdir":null,"city":"Boston","state_code":"MA","zip5":"02116","latitude":"42.3524023210000000","longitude":"-71.063405072000000","publicwifi":"U","url":null,"broadband_type_id":3}
{"id":null,"anchorname":"Urban College of Boston","address":"178 Tremont Street, Boston, MA 02111","bldgnbr":"178","predir":null,"streetname":"Tremont","streettype":"Street","suffdir":null,"city":"Boston","state_code":"MA","zip5":"02111","latitude":"42.3529048240000000","longitude":"-71.064189581000000","publicwifi":"U","url":null,"broadband_type_id":6}
{"id":null,"anchorname":"Northeastern University","address":"89 Broad Street, Boston, MA 02110","bldgnbr":"89","predir":"S","streetname":"Broad","streettype":"Street","suffdir":null,"city":"Boston","state_code":"MA","zip5":"02110","latitude":"42.3575324900000000","longitude":"-71.052859307000000","publicwifi":"U","url":null,"broadband_type_id":6}
{"id":null,"anchorname":"BOSTON FIRE DEPARTMENT","address":"125 Purchase Street, BOSTON, MA 02110","bldgnbr":"125","predir":null,"streetname":"Purchase","streettype":"Street","suffdir":null,"city":"BOSTON","state_code":"MA","zip5":"02110","latitude":"42.3552545950000000","longitude":"-71.052564428000000","publicwifi":"U","url":null,"broadband_type_id":5}
{"id":null,"anchorname":"New England College of Finance","address":"110 High Street, Boston, MA 02110","bldgnbr":"110","predir":null,"streetname":"High","streettype":"Street","suffdir":null,"city":"Boston","state_code":"MA","zip5":"02110","latitude":"42.3539058080000000","longitude":"-71.056920317000000","publicwifi":"U","url":null,"broadband_type_id":6}
{"id":null,"anchorname":"Tufts Medical Center","address":"800 Washington St, Boston, MA 02111","bldgnbr":"800","predir":null,"streetname":"Washington","streettype":"St","suffdir":null,"city":"Boston","state_code":"MA","zip5":"02111","latitude":"42.3493719110000000","longitude":"-71.063657205000000","publicwifi":"U","url":null,"broadband_type_id":3}
{"id":null,"anchorname":"Floating Hospital For Children","address":"775 Washington St, Boston, MA 02111","bldgnbr":"775","predir":null,"streetname":"Washington","streettype":"St","suffdir":null,"city":"Boston","state_code":"MA","zip5":"02111","latitude":"42.3498581520000000","longitude":"-71.063607852000000","publicwifi":"U","url":null,"broadband_type_id":3}
{"id":null,"anchorname":"Sidney Borum Jr. Community Health Center","address":"130 Boylston Street, Boston, MA 02116","bldgnbr":"130","predir":null,"streetname":"Boylston","streettype":"Street","suffdir":null,"city":"Boston","state_code":"MA","zip5":"02116","latitude":"42.3522778030000000","longitude":"-71.066061519000000","publicwifi":"U","url":null,"broadband_type_id":3}
{"id":null,"anchorname":"Sidney Borum Jr Health Center","address":"130 Boylston St, Boston, MA 02116","bldgnbr":"130","predir":null,"streetname":"Boylston","streettype":"St","suffdir":null,"city":"Boston","state_code":"MA","zip5":"02116","latitude":"42.3523825020000000","longitude":"-71.065705910000000","publicwifi":"U","url":null,"broadband_type_id":3}
{"id":null,"anchorname":"Tufts University","address":"136 Harrison Avenue, Boston, MA 02111","bldgnbr":"136","predir":null,"streetname":"Harrison","streettype":"Avenue","suffdir":null,"city":"Boston","state_code":"MA","zip5":"02111","latitude":"42.3506414260000000","longitude":"-71.063508248000000","publicwifi":"U","url":null,"broadband_type_id":6}
{"id":null,"anchorname":"New England School Of Law","address":"154 Stuart Street, Boston, MA 02116","bldgnbr":"154","predir":null,"streetname":"Stuart","streettype":"Street","suffdir":null,"city":"Boston","state_code":"MA","zip5":"02116","latitude":"42.3507344990000000","longitude":"-71.066358782000000","publicwifi":"U","url":null,"broadband_type_id":6}
{"id":null,"anchorname":"Tufts Medical Center","address":"800 Washington Street, Boston, MA 02111","bldgnbr":"800","predir":null,"streetname":"Washington","streettype":"Street","suffdir":null,"city":"Boston","state_code":"MA","zip5":"02111","latitude":"42.3498461250000000","longitude":"-71.063854507000000","publicwifi":"U","url":null,"broadband_type_id":3}
{"id":null,"anchorname":"BOSTON FIRE DEPARTMENT","address":"200 Columbus Avenue, BOSTON, MA 02116","bldgnbr":"200","predir":null,"streetname":"Columbus","streettype":"Avenue","suffdir":null,"city":"BOSTON","state_code":"MA","zip5":"02116","latitude":"42.3489387500000000","longitude":"-71.070935928000000","publicwifi":"U","url":null,"broadband_type_id":5}
{"id":null,"anchorname":"Boston Renaissance Charter Public School","address":"250 Stuart Street, Boston, MA 02116","bldgnbr":"250","predir":null,"streetname":"Stuart","streettype":"Street","suffdir":null,"city":"Boston","state_code":"MA","zip5":"02116","latitude":"42.3500853660000000","longitude":"-71.069031018000000","publicwifi":"U","url":null,"broadband_type_id":6}
{"id":null,"anchorname":"Quincy Upper School","address":"152 Arlington Street, Boston, MA 02116","bldgnbr":"152","predir":null,"streetname":"Arlington","streettype":"Street","suffdir":null,"city":"Boston","state_code":"MA","zip5":"02116","latitude":"42.3483775090000000","longitude":"-71.069012743000000","publicwifi":"U","url":null,"broadband_type_id":6}
{"id":null,"anchorname":"South End Community Health Center","address":"1601 Washington Street, Boston, MA 02118","bldgnbr":"1601","predir":null,"streetname":"Washington","streettype":"Street","suffdir":null,"city":"Boston","state_code":"MA","zip5":"02118","latitude":"42.3384469900000000","longitude":"-71.074989648000000","publicwifi":"U","url":null,"broadband_type_id":3}
{"id":null,"anchorname":"South End Community Health Center","address":"1601 Washington St, Boston, MA 02118","bldgnbr":"1601","predir":null,"streetname":"Washington","streettype":"St","suffdir":null,"city":"Boston","state_code":"MA","zip5":"02118","latitude":"42.3381755450000000","longitude":"-71.074697694000000","publicwifi":"U","url":null,"broadband_type_id":3}
{"id":null,"anchorname":"BOSTON POLICE DEPT","address":"154 Berkeley Street, BOSTON, MA 02116","bldgnbr":"154","predir":null,"streetname":"Berkeley","streettype":"Street","suffdir":null,"city":"BOSTON","state_code":"MA","zip5":"02116","latitude":"42.3488796340000000","longitude":"-71.072007657000000","publicwifi":"U","url":null,"broadband_type_id":4}
{"id":null,"anchorname":"BOSTON FIRE DEPARTMENT","address":"700 Tremont Street, BOSTON, MA 02118","bldgnbr":"700","predir":null,"streetname":"Tremont","streettype":"Street","suffdir":null,"city":"BOSTON","state_code":"MA","zip5":"02118","latitude":"42.3405301620000000","longitude":"-71.077539845000000","publicwifi":"U","url":null,"broadband_type_id":5}
{"id":null,"anchorname":"SECHC at Dr. Solomon Carter Fuller Mental Health Center","address":"85 East Newton Street, Boston, MA 02118","bldgnbr":"85","predir":"East","streetname":"Newton","streettype":"Street","suffdir":null,"city":"Boston","state_code":"MA","zip5":"02118","latitude":"42.3362315980000000","longitude":"-71.070808428000000","publicwifi":"U","url":null,"broadband_type_id":3}
{"id":null,"anchorname":"Boston Medical Center - East Newton Campus","address":"88 East Newton Street, Boston, MA 02118","bldgnbr":"88","predir":"East","streetname":"Newton","streettype":"Street","suffdir":null,"city":"Boston","state_code":"MA","zip5":"02118","latitude":"42.3368554670000000","longitude":"-71.070584731000000","publicwifi":"U","url":null,"broadband_type_id":3}
{"id":null,"anchorname":"Dr Solomon Carter Fuller Mental Health Center","address":"88 E Newton St, Boston, MA 02118","bldgnbr":"88","predir":"E","streetname":"Newton","streettype":"St","suffdir":null,"city":"Boston","state_code":"MA","zip5":"02118","latitude":"42.3371077920000000","longitude":"-71.071399376000000","publicwifi":"U","url":null,"broadband_type_id":3}
{"id":null,"anchorname":"Boston University","address":"715 Albany Street, Boston, MA 02118","bldgnbr":"715","predir":null,"streetname":"Albany","streettype":"Street","suffdir":null,"city":"Boston","state_code":"MA","zip5":"02118","latitude":"42.3350323770000000","longitude":"-71.071463022000000","publicwifi":"U","url":null,"broadband_type_id":6}
{"id":null,"anchorname":"LAFAYETTE CITY ENGINEER","address":"20 N 6TH ST","bldgnbr":"BLDGNUMBER","predir":null,"streetname":"STREETNAME","streettype":null,"suffdir":null,"city":"LAFAYETTE","state_code":"IN","zip5":"47909","latitude":"40.4175358110000000","longitude":"-86.890691026000000","publicwifi":"Y","url":"WINTEK","broadband_type_id":1}
{"id":null,"anchorname":"EDUCATIONAL TALENT SEARCH","address":"501 JOHN ST # 1","bldgnbr":"BLDGNUMBER","predir":null,"streetname":"STREETNAME","streettype":null,"suffdir":null,"city":"EVANSVILLE","state_code":"IN","zip5":"47713","latitude":"37.9763373900000000","longitude":"-87.557788399000000","publicwifi":"N","url":null,"broadband_type_id":6}
{"id":null,"anchorname":"Cathedral Elementary","address":"595 Harrison Avenue, Boston, MA 02118","bldgnbr":"595","predir":null,"streetname":"Harrison","streettype":"Avenue","suffdir":null,"city":"Boston","state_code":"MA","zip5":"02118","latitude":"42.3409775050000000","longitude":"-71.068590124000000","publicwifi":"U","url":null,"broadband_type_id":6}
{"id":null,"anchorname":"Women's Awareness Resources Project (WAR)","address":"130 Warren Street, Roxbury, MA 02119","bldgnbr":"130","predir":null,"streetname":"Warren","streettype":"Street","suffdir":null,"city":"Roxbury","state_code":"MA","zip5":"02119","latitude":"42.3262404850000000","longitude":"-71.082862115000000","publicwifi":"U","url":null,"broadband_type_id":6}
{"id":null,"anchorname":"Wentworth Institute of Technology","address":"550 Huntington Avenue, Boston, MA 02115","bldgnbr":"550","predir":null,"streetname":"Huntington","streettype":"Avenue","suffdir":null,"city":"Boston","state_code":"MA","zip5":"02115","latitude":"42.3364720680000000","longitude":"-71.095481807000000","publicwifi":"U","url":null,"broadband_type_id":1}
{"id":null,"anchorname":"Boston Adult Academy","address":"75 Malcolm X Boulevard, Roxbury, MA 02120","bldgnbr":"75","predir":null,"streetname":"Malcolm X","streettype":"Boulevard","suffdir":null,"city":"Roxbury","state_code":"MA","zip5":"02120","latitude":"42.3317431460000000","longitude":"-71.089124389000000","publicwifi":"U","url":null,"broadband_type_id":6}
{"id":null,"anchorname":"Dearborn","address":"35 Greenville Street, Roxbury, MA 02119","bldgnbr":"35","predir":null,"streetname":"Greenville","streettype":"Street","suffdir":null,"city":"Roxbury","state_code":"MA","zip5":"02119","latitude":"42.3264882410000000","longitude":"-71.080853214000000","publicwifi":"U","url":null,"broadband_type_id":null}
{"id":null,"anchorname":"Orchard Gardens","address":"906 Albany Street, Roxbury, MA 02119","bldgnbr":"906","predir":null,"streetname":"Albany","streettype":"Street","suffdir":null,"city":"Roxbury","state_code":"MA","zip5":"02119","latitude":"42.3307094220000000","longitude":"-71.078455349000000","publicwifi":"U","url":null,"broadband_type_id":null}
{"id":null,"anchorname":"O'Bryant Sch Math/Science","address":"55 Malcolm X Boulevard, Roxbury, MA 02120","bldgnbr":"55","predir":null,"streetname":"Malcolm X","streettype":"Boulevard","suffdir":null,"city":"Roxbury","state_code":"MA","zip5":"02120","latitude":"42.3320854800000000","longitude":"-71.091080429000000","publicwifi":"U","url":null,"broadband_type_id":null}
{"id":null,"anchorname":"Maurice J Tobin","address":"40 Smith Street, Roxbury, MA 02120","bldgnbr":"40","predir":null,"streetname":"Smith","streettype":"Street","suffdir":null,"city":"Roxbury","state_code":"MA","zip5":"02120","latitude":"42.3329726260000000","longitude":"-71.098357338000000","publicwifi":"U","url":null,"broadband_type_id":null}
{"id":null,"anchorname":"Dana-Farber Cancer Institute","address":"44 Binney Street, Boston, MA 02115","bldgnbr":"44","predir":null,"streetname":"Binney","streettype":"Street","suffdir":null,"city":"Boston","state_code":"MA","zip5":"02115","latitude":"42.3375662970000000","longitude":"-71.107126458000000","publicwifi":"U","url":null,"broadband_type_id":null}
{"id":null,"anchorname":"Dana Farber Cancer Institute","address":"450 Brookline Ave, Boston, MA 02115","bldgnbr":"450","predir":null,"streetname":"Brookline","streettype":"Ave","suffdir":null,"city":"Boston","state_code":"MA","zip5":"02115","latitude":"42.3379636350000000","longitude":"-71.108221902000000","publicwifi":"U","url":null,"broadband_type_id":null}
{"id":null,"anchorname":"Medical Examiner","address":"720 Albany Street, Boston, MA 02118","bldgnbr":"720","predir":null,"streetname":"Albany","streettype":"Street","suffdir":null,"city":"Boston","state_code":"MA","zip5":"02118","latitude":"42.3349171200000000","longitude":"-71.071411506000000","publicwifi":"U","url":null,"broadband_type_id":3}
{"id":null,"anchorname":"Boston Medical Center - Menino Campus","address":"818 Harrison Avenue, Boston, MA 02118","bldgnbr":"818","predir":null,"streetname":"Harrison","streettype":"Avenue","suffdir":null,"city":"Boston","state_code":"MA","zip5":"02118","latitude":"42.3344794180000000","longitude":"-71.073974766000000","publicwifi":"U","url":null,"broadband_type_id":3}
{"id":null,"anchorname":"Boston Health Care for the Homeless Program, Inc.","address":"729 Massachusetts Avenue, Boston, MA 02118","bldgnbr":"729","predir":null,"streetname":"Massachusetts","streettype":"Avenue","suffdir":null,"city":"Boston","state_code":"MA","zip5":"02118","latitude":"42.3344793940000000","longitude":"-71.073974808000000","publicwifi":"U","url":null,"broadband_type_id":3}
{"id":null,"anchorname":"Boston Medical Center","address":"1 Boston Medical Center Place, Boston, MA 02118","bldgnbr":"1","predir":null,"streetname":"Boston Medical Center","streettype":"Pl","suffdir":null,"city":"Boston","state_code":"MA","zip5":"02118","latitude":"42.3347536530000000","longitude":"-71.074488804000000","publicwifi":"U","url":null,"broadband_type_id":3}
{"id":null,"anchorname":"Boston Medical Center","address":"1 Boston Medical Center Place, Boston, MA 02118","bldgnbr":"1","predir":null,"streetname":"Boston Medical Center","streettype":"Place","suffdir":null,"city":"Boston","state_code":"MA","zip5":"02118","latitude":"42.3347536660000000","longitude":"-71.074488747000000","publicwifi":"U","url":null,"broadband_type_id":3}
{"id":null,"anchorname":"BOSTON FIRE DEPARTMENT","address":"618 Harrison Avenue, BOSTON, MA 02118","bldgnbr":"618","predir":null,"streetname":"Harrison","streettype":"Avenue","suffdir":null,"city":"BOSTON","state_code":"MA","zip5":"02118","latitude":"42.3399868110000000","longitude":"-71.068491303000000","publicwifi":"U","url":null,"broadband_type_id":5}
{"id":null,"anchorname":"BOSTON POLICE DEPT DISTRICT D-4","address":"650 Harrison Street, BOSTON, MA 02118","bldgnbr":"650","predir":null,"streetname":"Harrison","streettype":"Street","suffdir":null,"city":"BOSTON","state_code":"MA","zip5":"02118","latitude":"42.3393226670000000","longitude":"-71.069260223000000","publicwifi":"U","url":null,"broadband_type_id":4}
{"id":null,"anchorname":"BOSTON FIRE DEPARTMENT","address":"115 Southampton Street, BOSTON, MA 02118","bldgnbr":"115","predir":null,"streetname":"Southampton","streettype":"Street","suffdir":null,"city":"BOSTON","state_code":"MA","zip5":"02118","latitude":"42.3314591920000000","longitude":"-71.069612836000000","publicwifi":"U","url":null,"broadband_type_id":5}
{"id":null,"anchorname":"Boston Day and Evening Academy Charter School","address":"20 Kearsarge Avenue, Roxbury, MA 02119","bldgnbr":"20","predir":null,"streetname":"Kearsarge","streettype":"Avenue","suffdir":null,"city":"Roxbury","state_code":"MA","zip5":"02119","latitude":"42.3276169800000000","longitude":"-71.082683093000000","publicwifi":"U","url":null,"broadband_type_id":6}
{"id":null,"anchorname":"Boston Career Link","address":"1010 Harrison Avenue, Boston, MA 02119","bldgnbr":"1010","predir":null,"streetname":"Harrison","streettype":"Avenue","suffdir":null,"city":"Boston","state_code":"MA","zip5":"02119","latitude":"42.3318483160000000","longitude":"-71.079582047000000","publicwifi":"U","url":null,"broadband_type_id":3}
{"id":null,"anchorname":"BOSTON FIRE DEPARTMENT","address":"174 Dudley Street, BOSTON, MA 02119","bldgnbr":"174","predir":null,"streetname":"Dudley","streettype":"Street","suffdir":null,"city":"BOSTON","state_code":"MA","zip5":"02119","latitude":"42.3288715320000000","longitude":"-71.082344970000000","publicwifi":"U","url":null,"broadband_type_id":5}
{"id":null,"anchorname":"Whittier Street Health Center","address":"1125 Tremont Street, Roxbury, MA 02120","bldgnbr":"1125","predir":null,"streetname":"Tremont","streettype":"Street","suffdir":null,"city":"Roxbury","state_code":"MA","zip5":"02120","latitude":"42.3355960050000000","longitude":"-71.088200684000000","publicwifi":"U","url":null,"broadband_type_id":3}
{"id":null,"anchorname":"BOSTON POLICE DEPT HEADQUARTERS","address":"1 Schroeder Place, BOSTON, MA 02120","bldgnbr":"1","predir":null,"streetname":"Schroeder","streettype":"Place","suffdir":null,"city":"BOSTON","state_code":"MA","zip5":"02120","latitude":"42.3341963360000000","longitude":"-71.090708348000000","publicwifi":"U","url":null,"broadband_type_id":4}
{"id":null,"anchorname":"Whittier Street Health Center","address":"1290 Tremont St, Roxbury, MA 02120","bldgnbr":"1290","predir":null,"streetname":"Tremont","streettype":"St","suffdir":null,"city":"Roxbury","state_code":"MA","zip5":"02120","latitude":"42.3331944590000000","longitude":"-71.091598690000000","publicwifi":"U","url":null,"broadband_type_id":3}
{"id":null,"anchorname":"Roxbury Community College","address":"1234 Columbus Avenue, Roxbury Crossing, MA 02120-3400","bldgnbr":"1234","predir":null,"streetname":"Columbus","streettype":"Avenue","suffdir":null,"city":"Roxbury Crossing","state_code":"MA","zip5":"02120","latitude":"42.3325798710000000","longitude":"-71.091800653000000","publicwifi":"U","url":null,"broadband_type_id":6}
{"id":null,"anchorname":"Madison Park High","address":"75 Malcolm X Boulevard, Roxbury, MA 02120","bldgnbr":"75","predir":null,"streetname":"Malcolm X","streettype":"Boulevard","suffdir":null,"city":"Roxbury","state_code":"MA","zip5":"02120","latitude":"42.3317431460000000","longitude":"-71.089124389000000","publicwifi":"U","url":null,"broadband_type_id":2}
{"id":null,"anchorname":"BOSTON FIRE DEPARTMENT","address":"560 Huntington Avenue, BOSTON, MA 02119","bldgnbr":"560","predir":null,"streetname":"Huntington","streettype":"Avenue","suffdir":null,"city":"BOSTON","state_code":"MA","zip5":"02119","latitude":"42.3372037200000000","longitude":"-71.096091995000000","publicwifi":"U","url":null,"broadband_type_id":5}
{"id":null,"anchorname":"Parker Hill Branch","address":"4239 WASHINGTON Street, Roxbury, MA 02120","bldgnbr":"4239","predir":null,"streetname":"WASHINGTON","streettype":"Street","suffdir":null,"city":"Roxbury","state_code":"MA","zip5":"02120","latitude":"42.3322534940000000","longitude":"-71.098941951000000","publicwifi":"U","url":null,"broadband_type_id":2}
{"id":null,"anchorname":"Mission Hill School","address":"67 Allegheny Street, Boston, MA 02120","bldgnbr":"67","predir":null,"streetname":"Allegheny","streettype":"Street","suffdir":null,"city":"Boston","state_code":"MA","zip5":"02120","latitude":"42.3306692590000000","longitude":"-71.099244472000000","publicwifi":"U","url":null,"broadband_type_id":6}
{"id":null,"anchorname":"New Mission High School","address":"67 Alleghany Street, Roxbury, MA 02120","bldgnbr":"67","predir":null,"streetname":"Alleghany","streettype":"Street","suffdir":null,"city":"Roxbury","state_code":"MA","zip5":"02120","latitude":"42.3306692590000000","longitude":"-71.099244472000000","publicwifi":"U","url":null,"broadband_type_id":6}
{"id":null,"anchorname":"Beth Israel Deaconess Medical Center - West Campus","address":"110 Francis Street, Boston, MA 02215","bldgnbr":"110","predir":null,"streetname":"Francis","streettype":"Street","suffdir":null,"city":"Boston","state_code":"MA","zip5":"02215","latitude":"42.3376022180000000","longitude":"-71.108921937000000","publicwifi":"U","url":null,"broadband_type_id":3}
{"id":null,"anchorname":"Harvard University","address":"25 Shattuck Street, Boston, MA 02115-6092","bldgnbr":"25","predir":null,"streetname":"Shattuck","streettype":"Street","suffdir":null,"city":"Boston","state_code":"MA","zip5":"02115","latitude":"42.3355770650000000","longitude":"-71.104113864000000","publicwifi":"U","url":null,"broadband_type_id":6}
{"id":null,"anchorname":"Harvard University","address":"677 Huntington Avenue, Boston, MA 02115","bldgnbr":"677","predir":null,"streetname":"Huntington","streettype":"Avenue","suffdir":null,"city":"Boston","state_code":"MA","zip5":"02115","latitude":"42.3350751230000000","longitude":"-71.103530554000000","publicwifi":"U","url":null,"broadband_type_id":6}
{"id":null,"anchorname":"Brigham And Womens Hospital","address":"75 Francis St, Boston, MA 02115","bldgnbr":"75","predir":null,"streetname":"Francis","streettype":"St","suffdir":null,"city":"Boston","state_code":"MA","zip5":"02115","latitude":"42.3358750730000000","longitude":"-71.107411630000000","publicwifi":"U","url":null,"broadband_type_id":3}
{"id":null,"anchorname":"CENTRAL UNITED METHODIST CHURCHES","address":"300 MARY ST","bldgnbr":"BLDGNUMBER","predir":null,"streetname":"STREETNAME","streettype":null,"suffdir":null,"city":"EVANSVILLE","state_code":"IN","zip5":"47710","latitude":"37.9802811720000000","longitude":"-87.570827703000000","publicwifi":"N","url":"ONE COMMUNICATIONS CORP","broadband_type_id":6}
{"id":null,"anchorname":"Brigham and Women's Hoospital","address":"75 Francis Street, Boston, MA 02115","bldgnbr":"75","predir":null,"streetname":"Francis","streettype":"Street","suffdir":null,"city":"Boston","state_code":"MA","zip5":"02115","latitude":"42.3359591040000000","longitude":"-71.106760510000000","publicwifi":"U","url":null,"broadband_type_id":null}
{"id":null,"anchorname":"FAMILY \u0026 CHILDRENS VISION","address":"4404 WASHINGTON AVE","bldgnbr":"BLDGNUMBER","predir":null,"streetname":"STREETNAME","streettype":null,"suffdir":null,"city":"EVANSVILLE","state_code":"IN","zip5":"47714","latitude":"37.9624558820000000","longitude":"-87.497117309000000","publicwifi":"I","url":null,"broadband_type_id":6}
{"id":null,"anchorname":"Farragut","address":"10 Fenwood Road, Boston, MA 02115","bldgnbr":"10","predir":null,"streetname":"Fenwood","streettype":"Road","suffdir":null,"city":"Boston","state_code":"MA","zip5":"02115","latitude":"42.3338037980000000","longitude":"-71.106511724000000","publicwifi":"U","url":null,"broadband_type_id":null}
{"id":null,"anchorname":"O L Perpetual Help Elem","address":"94 St Alphonsus, Roxbury, MA 02120","bldgnbr":"94","predir":null,"streetname":"St Alphonsus","streettype":null,"suffdir":null,"city":"Roxbury","state_code":"MA","zip5":"02120","latitude":"42.3339263030000000","longitude":"-71.106635822000000","publicwifi":"U","url":null,"broadband_type_id":null}
{"id":null,"anchorname":"WEST TERRACE ELEMENTARY SCH","address":"8000 WEST TERRACE DR","bldgnbr":"BLDGNUMBER","predir":null,"streetname":"STREETNAME","streettype":null,"suffdir":null,"city":"EVANSVILLE","state_code":"IN","zip5":"47712","latitude":"37.9727632420000000","longitude":"-87.669371251000000","publicwifi":"N","url":null,"broadband_type_id":6}
{"id":null,"anchorname":"ELLIS FLY-IN AIRPORT-06IN","address":"6262 S JEFFERS ST","bldgnbr":"BLDGNUMBER","predir":null,"streetname":"STREETNAME","streettype":null,"suffdir":null,"city":"TERRE HAUTE","state_code":"IN","zip5":"47802","latitude":"39.3911143490000000","longitude":"-87.277038524000000","publicwifi":"I","url":null,"broadband_type_id":6}
{"id":null,"anchorname":"David A Ellis","address":"302 Walnut Avenue, Roxbury, MA 02119","bldgnbr":"302","predir":null,"streetname":"Walnut","streettype":"Avenue","suffdir":null,"city":"Roxbury","state_code":"MA","zip5":"02119","latitude":"42.3162508230000000","longitude":"-71.093088567000000","publicwifi":"U","url":null,"broadband_type_id":6}
{"id":null,"anchorname":"Jeremiah E Burke High","address":"60 Washington Street, Dorchester, MA 02121","bldgnbr":"60","predir":null,"streetname":"Washington","streettype":"Street","suffdir":null,"city":"Dorchester","state_code":"MA","zip5":"02121","latitude":"42.3070785560000000","longitude":"-71.081375658000000","publicwifi":"U","url":null,"broadband_type_id":6}
{"id":null,"anchorname":"Paige Academy","address":"28 Highland Avenue, Roxbury, MA 02119","bldgnbr":"28","predir":null,"streetname":"Highland","streettype":"Avenue","suffdir":null,"city":"Roxbury","state_code":"MA","zip5":"02119","latitude":"42.3287756770000000","longitude":"-71.093121609000000","publicwifi":"U","url":null,"broadband_type_id":6}
{"id":null,"anchorname":"Boston Latin Academy","address":"205 Townsend Street, Dorchester, MA 02121","bldgnbr":"205","predir":null,"streetname":"Townsend","streettype":"Street","suffdir":null,"city":"Dorchester","state_code":"MA","zip5":"02121","latitude":"42.3161652440000000","longitude":"-71.084593764000000","publicwifi":"U","url":null,"broadband_type_id":6}
{"id":null,"anchorname":"Rafael Hernandez","address":"61 School Street, Roxbury, MA 02119","bldgnbr":"61","predir":null,"streetname":"School","streettype":"Street","suffdir":null,"city":"Roxbury","state_code":"MA","zip5":"02119","latitude":"42.3139179430000000","longitude":"-71.097888578000000","publicwifi":"U","url":null,"broadband_type_id":null}
{"id":null,"anchorname":"The Dimock Center","address":"55 Dimock St, Dorchester, MA 02119","bldgnbr":"55","predir":null,"streetname":"Dimock","streettype":"St","suffdir":null,"city":"Dorchester","state_code":"MA","zip5":"02119","latitude":"42.3196096460000000","longitude":"-71.098220031000000","publicwifi":"U","url":null,"broadband_type_id":null}
{"id":null,"anchorname":"Mother Caroline Academy","address":"515 Blue Hill Avenue, Dorchester, MA 02121","bldgnbr":"515","predir":null,"streetname":"Blue Hill","streettype":"Avenue","suffdir":null,"city":"Dorchester","state_code":"MA","zip5":"02121","latitude":"42.3074991530000000","longitude":"-71.084394944000000","publicwifi":"U","url":null,"broadband_type_id":6}
{"id":null,"anchorname":"Nathan Hale","address":"51 Cedar Street, Roxbury, MA 02119","bldgnbr":"51","predir":null,"streetname":"Cedar","streettype":"Street","suffdir":null,"city":"Roxbury","state_code":"MA","zip5":"02119","latitude":"42.3255404400000000","longitude":"-71.090958075000000","publicwifi":"U","url":null,"broadband_type_id":null}
{"id":null,"anchorname":"RoxComp at the Mall","address":"330 Martin Luther King Jr. Boulevard, Roxbury, MA 02119","bldgnbr":"330","predir":null,"streetname":"Martin Luther King Jr.","streettype":"Boulevard","suffdir":null,"city":"Roxbury","state_code":"MA","zip5":"02119","latitude":"42.3188752600000000","longitude":"-71.082375762000000","publicwifi":"U","url":null,"broadband_type_id":null}
{"id":null,"anchorname":"Dudley Branch","address":"276 MERIDIAN Street, Roxbury, MA 02119","bldgnbr":"276","predir":null,"streetname":"MERIDIAN","streettype":"Street","suffdir":null,"city":"Roxbury","state_code":"MA","zip5":"02119","latitude":"42.3285073120000000","longitude":"-71.083623194000000","publicwifi":"U","url":null,"broadband_type_id":null}
{"id":null,"anchorname":"William Monroe Trotter","address":"135 Humboldt Avenue, Dorchester, MA 02121","bldgnbr":"135","predir":null,"streetname":"Humboldt","streettype":"Avenue","suffdir":null,"city":"Dorchester","state_code":"MA","zip5":"02121","latitude":"42.3157018340000000","longitude":"-71.088088231000000","publicwifi":"U","url":null,"broadband_type_id":null}
{"id":null,"anchorname":"Sarah Greenwood","address":"189 Glenway Street, Dorchester, MA 02121","bldgnbr":"189","predir":null,"streetname":"Glenway","streettype":"Street","suffdir":null,"city":"Dorchester","state_code":"MA","zip5":"02121","latitude":"42.2971856820000000","longitude":"-71.079350721000000","publicwifi":"U","url":null,"broadband_type_id":null}
{"id":null,"anchorname":"ELC - East Zone","address":"370 Columbia Road, Dorchester, MA 02125","bldgnbr":"370","predir":null,"streetname":"Columbia","streettype":"Road","suffdir":null,"city":"Dorchester","state_code":"MA","zip5":"02125","latitude":"42.3111395400000000","longitude":"-71.071460051000000","publicwifi":"U","url":null,"broadband_type_id":null}
{"id":null,"anchorname":"John Winthrop","address":"35 Brookford Street, Dorchester, MA 02125","bldgnbr":"35","predir":null,"streetname":"Brookford","streettype":"Street","suffdir":null,"city":"Dorchester","state_code":"MA","zip5":"02125","latitude":"42.3181112730000000","longitude":"-71.075731147000000","publicwifi":"U","url":null,"broadband_type_id":null}
{"id":null,"anchorname":"Children's Hospital Boston","address":"300 Longwood Avenue, Boston, MA 02215","bldgnbr":"300","predir":null,"streetname":"Longwood","streettype":"Avenue","suffdir":null,"city":"Boston","state_code":"MA","zip5":"02215","latitude":"42.3371349380000000","longitude":"-71.106039684000000","publicwifi":"U","url":null,"broadband_type_id":3}
{"id":null,"anchorname":"New England Baptist Hospital","address":"125 Parker Hill Avenue, Boston, MA 02120","bldgnbr":"125","predir":null,"streetname":"Parker Hill","streettype":"Avenue","suffdir":null,"city":"Boston","state_code":"MA","zip5":"02120","latitude":"42.3299256470000000","longitude":"-71.107140885000000","publicwifi":"U","url":null,"broadband_type_id":3}
{"id":null,"anchorname":"New England Baptist Hospital","address":"125 Parker Hl, Roxbury Crossing, MA 02120","bldgnbr":"125","predir":null,"streetname":"Parker","streettype":"Hl","suffdir":null,"city":"Roxbury Crossing","state_code":"MA","zip5":"02120","latitude":"42.3296080240000000","longitude":"-71.106170084000000","publicwifi":"U","url":null,"broadband_type_id":3}
{"id":null,"anchorname":"Martha Eliot Health Center","address":"75 Bickford Street, Jamaica Plain, MA 02130","bldgnbr":"75","predir":null,"streetname":"Bickford","streettype":"Street","suffdir":null,"city":"Jamaica Plain","state_code":"MA","zip5":"02130","latitude":"42.3244879860000000","longitude":"-71.102005946000000","publicwifi":"U","url":null,"broadband_type_id":3}
{"id":null,"anchorname":"Martha Eliot Health Center","address":"75 Bickford St, Jamaica Plain, MA 02130","bldgnbr":"75","predir":null,"streetname":"Bickford","streettype":"St","suffdir":null,"city":"Jamaica Plain","state_code":"MA","zip5":"02130","latitude":"42.3239108490000000","longitude":"-71.102112993000000","publicwifi":"U","url":null,"broadband_type_id":3}
{"id":null,"anchorname":"Dimock community Health Center","address":"55 Dimock Street, Roxbury, MA 02119","bldgnbr":"55","predir":null,"streetname":"Dimock","streettype":"Street","suffdir":null,"city":"Roxbury","state_code":"MA","zip5":"02119","latitude":"42.3198091620000000","longitude":"-71.097706558000000","publicwifi":"U","url":null,"broadband_type_id":3}
{"id":null,"anchorname":"BOSTON FIRE DEPARTMENT","address":"1870 Columbus Avenue, BOSTON, MA 02119","bldgnbr":"1870","predir":null,"streetname":"Columbus","streettype":"Avenue","suffdir":null,"city":"BOSTON","state_code":"MA","zip5":"02119","latitude":"42.3184053500000000","longitude":"-71.097776854000000","publicwifi":"U","url":null,"broadband_type_id":5}
{"id":null,"anchorname":"Radius Specialty Hospital","address":"59 Townsend St, Roxbury, MA 02119","bldgnbr":"59","predir":null,"streetname":"Townsend","streettype":"St","suffdir":null,"city":"Roxbury","state_code":"MA","zip5":"02119","latitude":"42.3187666130000000","longitude":"-71.091783001000000","publicwifi":"U","url":null,"broadband_type_id":3}
{"id":null,"anchorname":"BOSTON POLICE DEPT DISTRICT B-2","address":"135 Dudley Street, BOSTON, MA 02119","bldgnbr":"135","predir":null,"streetname":"Dudley","streettype":"Street","suffdir":null,"city":"BOSTON","state_code":"MA","zip5":"02119","latitude":"42.3283671090000000","longitude":"-71.084086717000000","publicwifi":"U","url":null,"broadband_type_id":4}
{"id":null,"anchorname":"BOSTON POLICE DEPARTMENT","address":"7 Edgewood Street, BOSTON, MA 02113","bldgnbr":"7","predir":null,"streetname":"Edgewood","streettype":"Street","suffdir":null,"city":"BOSTON","state_code":"MA","zip5":"02113","latitude":"42.3185989800000000","longitude":"-71.080987338000000","publicwifi":"U","url":null,"broadband_type_id":4}
{"id":null,"anchorname":"Roxbury Comprehensive Community Health Center, Inc.","address":"435 Warren Street, Roxbury, MA 02119","bldgnbr":"435","predir":null,"streetname":"Warren","streettype":"Street","suffdir":null,"city":"Roxbury","state_code":"MA","zip5":"02119","latitude":"42.3172552060000000","longitude":"-71.083043819000000","publicwifi":"U","url":null,"broadband_type_id":3}
{"id":null,"anchorname":"Harvard Street Neighborhood Health Center","address":"632 Blue Hill Avenue, Dorchester, MA 02121","bldgnbr":"632","predir":null,"streetname":"Blue Hill","streettype":"Avenue","suffdir":null,"city":"Dorchester","state_code":"MA","zip5":"02121","latitude":"42.3025340630000000","longitude":"-71.085082796000000","publicwifi":"U","url":null,"broadband_type_id":3}
{"id":null,"anchorname":"Harvard Street Neighborhood Health Center","address":"632 Blue Hill Ave, Boston, MA 02121","bldgnbr":"632","predir":null,"streetname":"Blue Hill","streettype":"Ave","suffdir":null,"city":"Boston","state_code":"MA","zip5":"02121","latitude":"42.3024051870000000","longitude":"-71.085313752000000","publicwifi":"U","url":null,"broadband_type_id":3}
{"id":null,"anchorname":"Boston Middle School Academy","address":"2 McLellan Street, Dorchester, MA 02121","bldgnbr":"2","predir":null,"streetname":"McLellan","streettype":"Street","suffdir":null,"city":"Dorchester","state_code":"MA","zip5":"02121","latitude":"42.3013525730000000","longitude":"-71.085452208000000","publicwifi":"U","url":null,"broadband_type_id":6}
{"id":null,"anchorname":"BOSTON FIRE DEPARTMENT","address":"36 Washington Street, BOSTON, MA 02122","bldgnbr":"36","predir":null,"streetname":"Washington","streettype":"Street","suffdir":null,"city":"BOSTON","state_code":"MA","zip5":"02122","latitude":"42.3074955050000000","longitude":"-71.082172932000000","publicwifi":"U","url":null,"broadband_type_id":5}
{"id":null,"anchorname":"Lilla G. Frederick Middle School","address":"270 Columbia Road, Dorchester, MA 02121","bldgnbr":"270","predir":null,"streetname":"Columbia","streettype":"Road","suffdir":null,"city":"Dorchester","state_code":"MA","zip5":"02121","latitude":"42.3086604720000000","longitude":"-71.075266252000000","publicwifi":"U","url":null,"broadband_type_id":6}
{"id":null,"anchorname":"Samuel W Mason","address":"150 Norfolk Avenue, Roxbury, MA 02119","bldgnbr":"150","predir":null,"streetname":"Norfolk","streettype":"Avenue","suffdir":null,"city":"Roxbury","state_code":"MA","zip5":"02119","latitude":"42.3261331550000000","longitude":"-71.071401969000000","publicwifi":"U","url":null,"broadband_type_id":null}
{"id":null,"anchorname":"Ralph Waldo Emerson","address":"6 Shirley Street, Roxbury, MA 02119","bldgnbr":"6","predir":null,"streetname":"Shirley","streettype":"Street","suffdir":null,"city":"Roxbury","state_code":"MA","zip5":"02119","latitude":"42.3235778210000000","longitude":"-71.073017071000000","publicwifi":"U","url":null,"broadband_type_id":null}
{"id":null,"anchorname":"Roger Clap","address":"35 Harvest Street, Dorchester, MA 02125","bldgnbr":"35","predir":null,"streetname":"Harvest","streettype":"Street","suffdir":null,"city":"Dorchester","state_code":"MA","zip5":"02125","latitude":"42.3230334690000000","longitude":"-71.058050694000000","publicwifi":"U","url":null,"broadband_type_id":null}
{"id":null,"anchorname":"Paul A Dever","address":"325 Mt Vernon Street, Dorchester, MA 02125","bldgnbr":"325","predir":null,"streetname":"Mt Vernon","streettype":"Street","suffdir":null,"city":"Dorchester","state_code":"MA","zip5":"02125","latitude":"42.3223478090000000","longitude":"-71.057841598000000","publicwifi":"U","url":null,"broadband_type_id":null}
{"id":null,"anchorname":"John W McCormack","address":"315 Mt Vernon Street, Dorchester, MA 02125","bldgnbr":"315","predir":null,"streetname":"Mt Vernon","streettype":"Street","suffdir":null,"city":"Dorchester","state_code":"MA","zip5":"02125","latitude":"42.3225981460000000","longitude":"-71.060320101000000","publicwifi":"U","url":null,"broadband_type_id":null}
{"id":null,"anchorname":"LANDMARK BAPTIST ACADEM","address":"1624 S HELFRICH AVE","bldgnbr":"BLDGNUMBER","predir":null,"streetname":"STREETNAME","streettype":null,"suffdir":null,"city":"EVANSVILLE","state_code":"IN","zip5":"47712","latitude":"37.9599317000000000","longitude":"-87.627035047000000","publicwifi":"I","url":null,"broadband_type_id":6}
{"id":null,"anchorname":"GESSIE AIRPORT-9IN9","address":"2431 W 1350 N","bldgnbr":"BLDGNUMBER","predir":null,"streetname":"STREETNAME","streettype":null,"suffdir":null,"city":"PERRYSVILLE","state_code":"IN","zip5":"47974","latitude":"40.0812520820000000","longitude":"-87.514139867000000","publicwifi":"I","url":null,"broadband_type_id":6}
{"id":null,"anchorname":"William E Russell","address":"750 Columbia Road, Dorchester, MA 02125","bldgnbr":"750","predir":null,"streetname":"Columbia","streettype":"Road","suffdir":null,"city":"Dorchester","state_code":"MA","zip5":"02125","latitude":"42.3203618630000000","longitude":"-71.059535682000000","publicwifi":"U","url":null,"broadband_type_id":null}
{"id":null,"anchorname":"Community Academy","address":"76 Shirley Street, Roxbury, MA 02119","bldgnbr":"76","predir":null,"streetname":"Shirley","streettype":"Street","suffdir":null,"city":"Roxbury","state_code":"MA","zip5":"02119","latitude":"42.3244836770000000","longitude":"-71.070835400000000","publicwifi":"U","url":null,"broadband_type_id":1}
{"id":null,"anchorname":"St Kevin Elementary","address":"516 Columbia Road, Dorchester, MA 02125","bldgnbr":"516","predir":null,"streetname":"Columbia","streettype":"Road","suffdir":null,"city":"Dorchester","state_code":"MA","zip5":"02125","latitude":"42.3151505900000000","longitude":"-71.067313262000000","publicwifi":"U","url":null,"broadband_type_id":6}
{"id":null,"anchorname":"Dorchester House Multi Service Center","address":"1353 Dorchester Ave, Dorchester, MA 02122","bldgnbr":"1353","predir":null,"streetname":"Dorchester","streettype":"Ave","suffdir":null,"city":"Dorchester","state_code":"MA","zip5":"02122","latitude":"42.3045253180000000","longitude":"-71.059197598000000","publicwifi":"U","url":null,"broadband_type_id":6}
{"id":null,"anchorname":"Dorchester House Multi Service Center","address":"1353 Dorchester Avenue, Dorchester, MA 02122","bldgnbr":"1353","predir":null,"streetname":"Dorchester","streettype":"Avenue","suffdir":null,"city":"Dorchester","state_code":"MA","zip5":"02122","latitude":"42.3044320880000000","longitude":"-71.059956784000000","publicwifi":"U","url":null,"broadband_type_id":6}
{"id":null,"anchorname":"St Peter Elementary","address":"284 Bowdoin, Dorchester, MA 02122","bldgnbr":"284","predir":null,"streetname":"Bowdoin","streettype":null,"suffdir":null,"city":"Dorchester","state_code":"MA","zip5":"02122","latitude":"42.3076468940000000","longitude":"-71.066056181000000","publicwifi":"U","url":null,"broadband_type_id":6}
{"id":null,"anchorname":"Upham's Corner Elder Service Plan","address":"1140 Dorchester Avenue, Dorchester, MA 02125","bldgnbr":"1140","predir":null,"streetname":"Dorchester","streettype":"Avenue","suffdir":null,"city":"Dorchester","state_code":"MA","zip5":"02125","latitude":"42.3119256960000000","longitude":"-71.057203006000000","publicwifi":"U","url":null,"broadband_type_id":null}
{"id":null,"anchorname":"Pope John Paul II Academy (Columbia Road)","address":"790 Columbia Road, Dorchester, MA 02125","bldgnbr":"790","predir":null,"streetname":"Columbia","streettype":"Road","suffdir":null,"city":"Dorchester","state_code":"MA","zip5":"02125","latitude":"42.3205581370000000","longitude":"-71.058004972000000","publicwifi":"U","url":null,"broadband_type_id":6}
{"id":null,"anchorname":"Edward Everett","address":"71 Pleasant Street, Dorchester, MA 02125","bldgnbr":"71","predir":null,"streetname":"Pleasant","streettype":"Street","suffdir":null,"city":"Dorchester","state_code":"MA","zip5":"02125","latitude":"42.3136195130000000","longitude":"-71.059767337000000","publicwifi":"U","url":null,"broadband_type_id":null}
{"id":null,"anchorname":"South End Branch","address":"500 COLUMBIA Road, Boston, MA 02118","bldgnbr":"500","predir":null,"streetname":"COLUMBIA","streettype":"Road","suffdir":null,"city":"Boston","state_code":"MA","zip5":"02118","latitude":"42.3148691240000000","longitude":"-71.067327880000000","publicwifi":"U","url":null,"broadband_type_id":null}
{"id":null,"anchorname":"Mather","address":"1 Parish Street, Dorchester, MA 02122","bldgnbr":"1","predir":null,"streetname":"Parish","streettype":"Street","suffdir":null,"city":"Dorchester","state_code":"MA","zip5":"02122","latitude":"42.3083663730000000","longitude":"-71.060972877000000","publicwifi":"U","url":null,"broadband_type_id":null}
{"id":null,"anchorname":"John P Holland","address":"85 Olney Street, Dorchester, MA 02121","bldgnbr":"85","predir":null,"streetname":"Olney","streettype":"Street","suffdir":null,"city":"Dorchester","state_code":"MA","zip5":"02121","latitude":"42.3062886110000000","longitude":"-71.073292556000000","publicwifi":"U","url":null,"broadband_type_id":null}
{"id":null,"anchorname":"Boston Collegiate Charter School, Middle School and High School","address":"11 Mayhew Street, Dorchester, MA 02125","bldgnbr":"11","predir":null,"streetname":"Mayhew","streettype":"Street","suffdir":null,"city":"Dorchester","state_code":"MA","zip5":"02125","latitude":"42.3216397560000000","longitude":"-71.060871551000000","publicwifi":"U","url":null,"broadband_type_id":6}
{"id":null,"anchorname":"Geiger Gibson Community Health Center","address":"250 Mount Vernon Street, Dorchester, MA 02125","bldgnbr":"250","predir":null,"streetname":"Mount Vernon","streettype":"Street","suffdir":null,"city":"Dorchester","state_code":"MA","zip5":"02125","latitude":"42.3194813000000000","longitude":"-71.046142132000000","publicwifi":"U","url":null,"broadband_type_id":3}
{"id":null,"anchorname":"Geiger Gibson Community Health Center","address":"250 Mount Vernon St, Dorchester, MA 02125","bldgnbr":"250","predir":null,"streetname":"Mount Vernon","streettype":"St","suffdir":null,"city":"Dorchester","state_code":"MA","zip5":"02125","latitude":"42.3190193640000000","longitude":"-71.045473392000000","publicwifi":"U","url":null,"broadband_type_id":3}
{"id":null,"anchorname":"University of Massassachusetts Boston","address":"100 Morrissey Boulevard, Boston, MA 02125-3393","bldgnbr":"100","predir":null,"streetname":"Morrissey","streettype":"Boulevard","suffdir":null,"city":"Boston","state_code":"MA","zip5":"02125","latitude":"42.3134306420000000","longitude":"-71.039282839000000","publicwifi":"U","url":null,"broadband_type_id":6}
{"id":null,"anchorname":"Boston College High","address":"150 Morrissey Boulevard, Dorchester, MA 02125","bldgnbr":"150","predir":null,"streetname":"Morrissey","streettype":"Boulevard","suffdir":null,"city":"Dorchester","state_code":"MA","zip5":"02125","latitude":"42.3167431320000000","longitude":"-71.045641483000000","publicwifi":"U","url":null,"broadband_type_id":6}
{"id":null,"anchorname":"State Police South Boston","address":"125 William Day Boulevard, Boston, MA 02125","bldgnbr":"125","predir":null,"streetname":"William Day","streettype":"Boulevard","suffdir":null,"city":"Boston","state_code":"MA","zip5":"02125","latitude":"42.3121085040000000","longitude":"-71.052000382000000","publicwifi":"U","url":null,"broadband_type_id":4}
{"id":null,"anchorname":"State Police South Boston","address":"125 William Day Boulevard, Boston, MA 02125","bldgnbr":"125","predir":null,"streetname":"William Day","streettype":"Boulevard","suffdir":null,"city":"Boston","state_code":"MA","zip5":"02125","latitude":"42.3121085040000000","longitude":"-71.052000382000000","publicwifi":"U","url":null,"broadband_type_id":4}
{"id":null,"anchorname":"Boston Collegiate Charter School, Lower School","address":"215 Sydney Street, Dorchester, MA 02125","bldgnbr":"215","predir":null,"streetname":"Sydney","streettype":"Street","suffdir":null,"city":"Dorchester","state_code":"MA","zip5":"02125","latitude":"42.3192794740000000","longitude":"-71.052640704000000","publicwifi":"U","url":null,"broadband_type_id":6}
{"id":null,"anchorname":"Blessed Mother Teresa School","address":"100 Savin Hill Avenue, Dorchester, MA 02125","bldgnbr":"100","predir":null,"streetname":"Savin Hill","streettype":"Avenue","suffdir":null,"city":"Dorchester","state_code":"MA","zip5":"02125","latitude":"42.3123143480000000","longitude":"-71.053930622000000","publicwifi":"U","url":null,"broadband_type_id":6}
{"id":null,"anchorname":"Upham's Corner Adolescent Health \u0026 WIC","address":"500 Columbia Road, Dorchester, MA 02125","bldgnbr":"500","predir":null,"streetname":"Columbia","streettype":"Road","suffdir":null,"city":"Dorchester","state_code":"MA","zip5":"02125","latitude":"42.3148370740000000","longitude":"-71.067631567000000","publicwifi":"U","url":null,"broadband_type_id":3}
{"id":null,"anchorname":"Upham's Corner Health Center","address":"415 Columbia Road, Dorchester, MA 02125","bldgnbr":"415","predir":null,"streetname":"Columbia","streettype":"Road","suffdir":null,"city":"Dorchester","state_code":"MA","zip5":"02125","latitude":"42.3119469080000000","longitude":"-71.068665702000000","publicwifi":"U","url":null,"broadband_type_id":3}
{"id":null,"anchorname":"Uphams Corner Health Center","address":"415 Columbia Road, Dorchester, MA 02125","bldgnbr":"415","predir":null,"streetname":"Columbia","streettype":"Rd","suffdir":null,"city":"Dorchester","state_code":"MA","zip5":"02125","latitude":"42.3118952230000000","longitude":"-71.069011393000000","publicwifi":"U","url":null,"broadband_type_id":3}
{"id":null,"anchorname":"BOSTON FIRE DEPARTMENT","address":"7 Parish Street, BOSTON, MA 02122","bldgnbr":"7","predir":null,"streetname":"Parish","streettype":"Street","suffdir":null,"city":"BOSTON","state_code":"MA","zip5":"02122","latitude":"42.3077471460000000","longitude":"-71.061609702000000","publicwifi":"U","url":null,"broadband_type_id":5}
{"id":null,"anchorname":"Bowdoin Street Health Center","address":"230 Bowdoin Street, Dorchester, MA 02122","bldgnbr":"230","predir":null,"streetname":"Bowdoin","streettype":"Street","suffdir":null,"city":"Dorchester","state_code":"MA","zip5":"02122","latitude":"42.3058795540000000","longitude":"-71.067833141000000","publicwifi":"U","url":null,"broadband_type_id":3}
{"id":null,"anchorname":"Bowdoin Street Community Health Center","address":"230 Bowdoin St, Dorchester, MA 02122","bldgnbr":"230","predir":null,"streetname":"Bowdoin","streettype":"St","suffdir":null,"city":"Dorchester","state_code":"MA","zip5":"02122","latitude":"42.3058008070000000","longitude":"-71.067641581000000","publicwifi":"U","url":null,"broadband_type_id":3}
{"id":null,"anchorname":"Grove Hall Branch","address":"35 HARVARD Avenue, Dorchester, MA 02121","bldgnbr":"35","predir":null,"streetname":"HARVARD","streettype":"Avenue","suffdir":null,"city":"Dorchester","state_code":"MA","zip5":"02121","latitude":"42.2998739400000000","longitude":"-71.075414841000000","publicwifi":"U","url":null,"broadband_type_id":1}
{"id":null,"anchorname":"Grover Cleveland Middle School","address":"11 Charles Street, Dorchester, MA 02122","bldgnbr":"11","predir":null,"streetname":"Charles","streettype":"Street","suffdir":null,"city":"Dorchester","state_code":"MA","zip5":"02122","latitude":"42.3009353650000000","longitude":"-71.061232855000000","publicwifi":"U","url":null,"broadband_type_id":6}
{"id":null,"anchorname":"IOWA DEPT. HUMAN SERVICES - BUCHANAN COUNTY","address":"1415 FIRST ST. WEST INDEPENDENCE, IA 50644","bldgnbr":"1415","predir":null,"streetname":"FIRST ST. WEST","streettype":null,"suffdir":null,"city":"INDEPENDENCE","state_code":"IA","zip5":"50644","latitude":"42.4685630000000000","longitude":"-91.905593000000000","publicwifi":"U","url":null,"broadband_type_id":6}
{"id":null,"anchorname":"Vietnamese Youth \u0026 Family Center","address":"1590 Dorchester Avenue, Dorchester, MA 02122","bldgnbr":"1590","predir":null,"streetname":"Dorchester","streettype":"Avenue","suffdir":null,"city":"Dorchester","state_code":"MA","zip5":"02122","latitude":"42.2962233710000000","longitude":"-71.061197876000000","publicwifi":"U","url":null,"broadband_type_id":6}
{"id":null,"anchorname":"Lee Academy","address":"155 Talbot Avenue, Dorchester, MA 02124","bldgnbr":"155","predir":null,"streetname":"Talbot","streettype":"Avenue","suffdir":null,"city":"Dorchester","state_code":"MA","zip5":"02124","latitude":"42.2920912860000000","longitude":"-71.080226351000000","publicwifi":"U","url":null,"broadband_type_id":6}
{"id":null,"anchorname":"Richard J Murphy","address":"1 Worrell Street, Dorchester, MA 02122","bldgnbr":"1","predir":null,"streetname":"Worrell","streettype":"Street","suffdir":null,"city":"Dorchester","state_code":"MA","zip5":"02122","latitude":"42.2940582280000000","longitude":"-71.049023338000000","publicwifi":"U","url":null,"broadband_type_id":null}
{"id":null,"anchorname":"O W Holmes","address":"40 School Street, Dorchester, MA 02124","bldgnbr":"40","predir":null,"streetname":"School","streettype":"Street","suffdir":null,"city":"Dorchester","state_code":"MA","zip5":"02124","latitude":"42.2965954290000000","longitude":"-71.075942366000000","publicwifi":"U","url":null,"broadband_type_id":6}
{"id":null,"anchorname":"Faneuil Branch","address":"1520 DORCHESTER Avenue, Boston, MA 02135","bldgnbr":"1520","predir":null,"streetname":"DORCHESTER","streettype":"Avenue","suffdir":null,"city":"Boston","state_code":"MA","zip5":"02135","latitude":"42.2987244550000000","longitude":"-71.060547550000000","publicwifi":"U","url":null,"broadband_type_id":null}
{"id":null,"anchorname":"Fields Corner Branch","address":"5 CRAWFORD Street, Dorchester, MA 02122","bldgnbr":"5","predir":null,"streetname":"CRAWFORD","streettype":"Street","suffdir":null,"city":"Dorchester","state_code":"MA","zip5":"02122","latitude":"42.2987244550000000","longitude":"-71.060547550000000","publicwifi":"U","url":null,"broadband_type_id":null}
{"id":null,"anchorname":"St Matthew Elementary","address":"29 Stanton, Dorchester, MA 02124","bldgnbr":"29","predir":null,"streetname":"Stanton","streettype":null,"suffdir":null,"city":"Dorchester","state_code":"MA","zip5":"02124","latitude":"42.2849246360000000","longitude":"-71.080192518000000","publicwifi":"U","url":null,"broadband_type_id":6}
{"id":null,"anchorname":"Tech Boston Academy","address":"9 Peacevale Road, Dorchester, MA 02124","bldgnbr":"9","predir":null,"streetname":"Peacevale","streettype":"Road","suffdir":null,"city":"Dorchester","state_code":"MA","zip5":"02124","latitude":"42.2852769300000000","longitude":"-71.075969590000000","publicwifi":"U","url":null,"broadband_type_id":6}
{"id":null,"anchorname":"Pope John Paul II Academy (Dorchester Central)","address":"197 Centre Avenue, Dorchester, MA 02124","bldgnbr":"197","predir":null,"streetname":"Centre","streettype":"Avenue","suffdir":null,"city":"Dorchester","state_code":"MA","zip5":"02124","latitude":"42.2920041900000000","longitude":"-71.064281890000000","publicwifi":"U","url":null,"broadband_type_id":6}
{"id":null,"anchorname":"Pope John Paul II Academy (Neponset)","address":"239 Neponset Avenue, Dorchester, MA 02122","bldgnbr":"239","predir":null,"streetname":"Neponset","streettype":"Avenue","suffdir":null,"city":"Dorchester","state_code":"MA","zip5":"02122","latitude":"42.2904477140000000","longitude":"-71.049521469000000","publicwifi":"U","url":null,"broadband_type_id":6}
{"id":null,"anchorname":"St Brendan Elementary","address":"29 Rita Road, Dorchester, MA 02124","bldgnbr":"29","predir":null,"streetname":"Rita","streettype":"Road","suffdir":null,"city":"Dorchester","state_code":"MA","zip5":"02124","latitude":"42.2819183990000000","longitude":"-71.051245322000000","publicwifi":"U","url":null,"broadband_type_id":6}
{"id":null,"anchorname":"Adams Street Branch","address":"690 ADAMS Street, Dorchester, MA 02122","bldgnbr":"690","predir":null,"streetname":"ADAMS","streettype":"Street","suffdir":null,"city":"Dorchester","state_code":"MA","zip5":"02122","latitude":"42.2860027490000000","longitude":"-71.054706085000000","publicwifi":"U","url":null,"broadband_type_id":6}
{"id":null,"anchorname":"Pope John Paul II Academy (Lower MIlls)","address":"2214 Dorchester Avenue, Dorchester, MA 02124","bldgnbr":"2214","predir":null,"streetname":"Dorchester","streettype":"Avenue","suffdir":null,"city":"Dorchester","state_code":"MA","zip5":"02124","latitude":"42.2744406360000000","longitude":"-71.067174313000000","publicwifi":"U","url":null,"broadband_type_id":6}
{"id":null,"anchorname":"Joseph Lee","address":"155 Talbot Avenue, Dorchester, MA 02124","bldgnbr":"155","predir":null,"streetname":"Talbot","streettype":"Avenue","suffdir":null,"city":"Dorchester","state_code":"MA","zip5":"02124","latitude":"42.2921459330000000","longitude":"-71.080447896000000","publicwifi":"U","url":null,"broadband_type_id":null}
{"id":null,"anchorname":"Berea SDA Acad","address":"800 Morton Street, Mattapan, MA 02126","bldgnbr":"800","predir":null,"streetname":"Morton","streettype":"Street","suffdir":null,"city":"Mattapan","state_code":"MA","zip5":"02126","latitude":"42.2826572110000000","longitude":"-71.087714986000000","publicwifi":"U","url":null,"broadband_type_id":null}
{"id":null,"anchorname":"Codman Square Branch","address":"433 CENTRE Street, Dorchester, MA 02124","bldgnbr":"433","predir":null,"streetname":"CENTRE","streettype":"Street","suffdir":null,"city":"Dorchester","state_code":"MA","zip5":"02124","latitude":"42.2877763730000000","longitude":"-71.071140611000000","publicwifi":"U","url":null,"broadband_type_id":null}
{"id":null,"anchorname":"Thomas J Kenny","address":"19 Oakton Avenue, Dorchester, MA 02122","bldgnbr":"19","predir":null,"streetname":"Oakton","streettype":"Avenue","suffdir":null,"city":"Dorchester","state_code":"MA","zip5":"02122","latitude":"42.2865960650000000","longitude":"-71.053404142000000","publicwifi":"U","url":null,"broadband_type_id":null}
{"id":null,"anchorname":"Smith Leadership Academy Charter Public School","address":"23 Leonard Street, Boston, MA 02122","bldgnbr":"23","predir":null,"streetname":"Leonard","streettype":"Street","suffdir":null,"city":"Boston","state_code":"MA","zip5":"02122","latitude":"42.3012934630000000","longitude":"-71.058673278000000","publicwifi":"U","url":null,"broadband_type_id":6}
{"id":null,"anchorname":"BOSTON POLICE DEPT DISTRICT C-11","address":"40 Gibson Street, BOSTON, MA 02122","bldgnbr":"40","predir":null,"streetname":"Gibson","streettype":"Street","suffdir":null,"city":"BOSTON","state_code":"MA","zip5":"02122","latitude":"42.2980363040000000","longitude":"-71.059089226000000","publicwifi":"U","url":null,"broadband_type_id":4}
{"id":null,"anchorname":"Epiphany School","address":"154 Centre Street, Dorchester, MA 02124","bldgnbr":"154","predir":null,"streetname":"Centre","streettype":"Street","suffdir":null,"city":"Dorchester","state_code":"MA","zip5":"02124","latitude":"42.2925647180000000","longitude":"-71.066137460000000","publicwifi":"U","url":null,"broadband_type_id":6}
{"id":null,"anchorname":"BOSTON FIRE DEPARTMENT","address":"975 Blue Hill Avenue, BOSTON, MA 02124","bldgnbr":"975","predir":null,"streetname":"Blue Hill","streettype":"Avenue","suffdir":null,"city":"BOSTON","state_code":"MA","zip5":"02124","latitude":"42.2908000000000000","longitude":"-71.089449564000000","publicwifi":"U","url":null,"broadband_type_id":5}
{"id":null,"anchorname":"BOSTON POLICE DEPT DISTRICT B-3","address":"1165 Blue Hill Street, BOSTON, MA 02124","bldgnbr":"1165","predir":null,"streetname":"Blue Hill","streettype":"Street","suffdir":null,"city":"BOSTON","state_code":"MA","zip5":"02124","latitude":"42.2846912440000000","longitude":"-71.091691118000000","publicwifi":"U","url":null,"broadband_type_id":4}
{"id":null,"anchorname":"Dorchester High School Health Center","address":"9 Peacevale Road, Dorchester, MA 02124","bldgnbr":"9","predir":null,"streetname":"Peacevale","streettype":"Road","suffdir":null,"city":"Dorchester","state_code":"MA","zip5":"02124","latitude":"42.2851684790000000","longitude":"-71.075920752000000","publicwifi":"U","url":null,"broadband_type_id":3}
{"id":null,"anchorname":"The Great Hall","address":"6 Norfolk Street, Dorchester, MA 02124","bldgnbr":"6","predir":null,"streetname":"Norfolk","streettype":"Street","suffdir":null,"city":"Dorchester","state_code":"MA","zip5":"02124","latitude":"42.2899574870000000","longitude":"-71.072006477000000","publicwifi":"U","url":null,"broadband_type_id":1}
{"id":null,"anchorname":"Codman Academy Charter Public School","address":"637 Washington Street, Dorchester, MA 02124","bldgnbr":"637","predir":null,"streetname":"Washington","streettype":"Street","suffdir":null,"city":"Dorchester","state_code":"MA","zip5":"02124","latitude":"42.2894483240000000","longitude":"-71.071931185000000","publicwifi":"U","url":null,"broadband_type_id":6}
{"id":null,"anchorname":"Codman Academy Charter Public School","address":"637 Washington Street, Dorchester, MA 02124","bldgnbr":"637","predir":null,"streetname":"Washington","streettype":"Street","suffdir":null,"city":"Dorchester","state_code":"MA","zip5":"02124","latitude":"42.2894483240000000","longitude":"-71.071931185000000","publicwifi":"U","url":null,"broadband_type_id":6}
{"id":null,"anchorname":"Codman Square Health Center","address":"637 Washington, Boston, MA 02124","bldgnbr":"637","predir":null,"streetname":"Washington","streettype":null,"suffdir":null,"city":"Boston","state_code":"MA","zip5":"02124","latitude":"42.2894279730000000","longitude":"-71.071431165000000","publicwifi":"U","url":null,"broadband_type_id":3}
{"id":null,"anchorname":"Codman Square Health Center","address":"637 Washington Street, Dorchester, MA 02125","bldgnbr":"637","predir":null,"streetname":"Washington","streettype":"Street","suffdir":null,"city":"Dorchester","state_code":"MA","zip5":"02125","latitude":"42.2896607690000000","longitude":"-71.071996481000000","publicwifi":"U","url":null,"broadband_type_id":3}
{"id":null,"anchorname":"Neighborhood House Charter School","address":"21 Queen Street, Dorchester, MA 02122","bldgnbr":"21","predir":null,"streetname":"Queen","streettype":"Street","suffdir":null,"city":"Dorchester","state_code":"MA","zip5":"02122","latitude":"42.2933442630000000","longitude":"-71.053471970000000","publicwifi":"U","url":null,"broadband_type_id":6}
{"id":null,"anchorname":"Harbor Health Services","address":"398 Neponset Avenue, Dorchester, MA 02122","bldgnbr":"398","predir":null,"streetname":"Neponset","streettype":"Avenue","suffdir":null,"city":"Dorchester","state_code":"MA","zip5":"02122","latitude":"42.2867722300000000","longitude":"-71.044028253000000","publicwifi":"U","url":null,"broadband_type_id":3}
{"id":null,"anchorname":"Neponset Health Center","address":"398 Neponset Avenue, Dorchester, MA 02122","bldgnbr":"398","predir":null,"streetname":"Neponset","streettype":"Avenue","suffdir":null,"city":"Dorchester","state_code":"MA","zip5":"02122","latitude":"42.2867722300000000","longitude":"-71.044028253000000","publicwifi":"U","url":null,"broadband_type_id":3}
{"id":null,"anchorname":"BOSTON FIRE DEPARTMENT","address":"301 Neponset Avenue, BOSTON, MA 02122","bldgnbr":"301","predir":null,"streetname":"Neponset","streettype":"Avenue","suffdir":null,"city":"BOSTON","state_code":"MA","zip5":"02122","latitude":"42.2885793880000000","longitude":"-71.047799491000000","publicwifi":"U","url":null,"broadband_type_id":5}
{"id":null,"anchorname":"BOSTON FIRE DEPARTMENT","address":"1884 Dorchester Avenue, BOSTON, MA 02124","bldgnbr":"1884","predir":null,"streetname":"Dorchester","streettype":"Avenue","suffdir":null,"city":"BOSTON","state_code":"MA","zip5":"02124","latitude":"42.2865116250000000","longitude":"-71.063809700000000","publicwifi":"U","url":null,"broadband_type_id":5}
{"id":null,"anchorname":"Caritas Carney Hospital","address":"2100 Dorchester Avenue, Boston, MA 02124","bldgnbr":"2100","predir":null,"streetname":"Dorchester","streettype":"Avenue","suffdir":null,"city":"Boston","state_code":"MA","zip5":"02124","latitude":"42.2774418450000000","longitude":"-71.065501366000000","publicwifi":"U","url":null,"broadband_type_id":3}
{"id":null,"anchorname":"Laboure College","address":"2120 Dorchester Avenue, Boston, MA 02124-5698","bldgnbr":"2120","predir":null,"streetname":"Dorchester","streettype":"Avenue","suffdir":null,"city":"Boston","state_code":"MA","zip5":"02124","latitude":"42.2772321090000000","longitude":"-71.064977421000000","publicwifi":"U","url":null,"broadband_type_id":6}
{"id":null,"anchorname":"Charles H Taylor","address":"1060 Morton Street, Mattapan, MA 02126","bldgnbr":"1060","predir":null,"streetname":"Morton","streettype":"Street","suffdir":null,"city":"Mattapan","state_code":"MA","zip5":"02126","latitude":"42.2779655610000000","longitude":"-71.077511707000000","publicwifi":"U","url":null,"broadband_type_id":6}
{"id":null,"anchorname":"Lower Mills Branch","address":"10 HAZELTON Street, Dorchester, MA 02124","bldgnbr":"10","predir":null,"streetname":"HAZELTON","streettype":"Street","suffdir":null,"city":"Dorchester","state_code":"MA","zip5":"02124","latitude":"42.2737900480000000","longitude":"-71.067670553000000","publicwifi":"U","url":null,"broadband_type_id":null}
{"id":null,"anchorname":"Dennis C Haley","address":"570 American Legion Highway, Roslindale, MA 02131","bldgnbr":"570","predir":null,"streetname":"American Legion","streettype":"Highway","suffdir":null,"city":"Roslindale","state_code":"MA","zip5":"02131","latitude":"42.2865570660000000","longitude":"-71.107429460000000","publicwifi":"U","url":null,"broadband_type_id":6}
{"id":null,"anchorname":"Pope John Paul II Academy (Mattapan)","address":"120 Babson, Mattapan, MA 02126","bldgnbr":"120","predir":null,"streetname":"Babson","streettype":null,"suffdir":null,"city":"Mattapan","state_code":"MA","zip5":"02126","latitude":"42.2707667720000000","longitude":"-71.092221985000000","publicwifi":"U","url":null,"broadband_type_id":6}
{"id":null,"anchorname":"Charles Sumner","address":"15 Basile Street, Roslindale, MA 02131","bldgnbr":"15","predir":null,"streetname":"Basile","streettype":"Street","suffdir":null,"city":"Roslindale","state_code":"MA","zip5":"02131","latitude":"42.2865063300000000","longitude":"-71.126836889000000","publicwifi":"U","url":null,"broadband_type_id":6}
{"id":null,"anchorname":"Mattahunt","address":"100 Hebron Street, Mattapan, MA 02126","bldgnbr":"100","predir":null,"streetname":"Hebron","streettype":"Street","suffdir":null,"city":"Mattapan","state_code":"MA","zip5":"02126","latitude":"42.2761544120000000","longitude":"-71.103285672000000","publicwifi":"U","url":null,"broadband_type_id":null}
{"id":null,"anchorname":"Sacred Heart Elementary","address":"1035 Canterbury, Roslindale, MA 02131","bldgnbr":"1035","predir":null,"streetname":"Canterbury","streettype":null,"suffdir":null,"city":"Roslindale","state_code":"MA","zip5":"02131","latitude":"42.2783133680000000","longitude":"-71.122281172000000","publicwifi":"U","url":null,"broadband_type_id":6}
{"id":null,"anchorname":"Washington Irving Middle","address":"105 Cummins Highway, Roslindale, MA 02131","bldgnbr":"105","predir":null,"streetname":"Cummins","streettype":"Highway","suffdir":null,"city":"Roslindale","state_code":"MA","zip5":"02131","latitude":"42.2836066810000000","longitude":"-71.125245305000000","publicwifi":"U","url":null,"broadband_type_id":6}
{"id":null,"anchorname":"Mattapan Branch","address":"25 PARMENTER Street, Mattapan, MA 02126","bldgnbr":"25","predir":null,"streetname":"PARMENTER","streettype":"Street","suffdir":null,"city":"Mattapan","state_code":"MA","zip5":"02126","latitude":"42.2775567970000000","longitude":"-71.093297971000000","publicwifi":"U","url":null,"broadband_type_id":null}
{"id":null,"anchorname":"Phineas Bates","address":"426 Beech Street, Roslindale, MA 02131","bldgnbr":"426","predir":null,"streetname":"Beech","streettype":"Street","suffdir":null,"city":"Roslindale","state_code":"MA","zip5":"02131","latitude":"42.2778058040000000","longitude":"-71.135326810000000","publicwifi":"U","url":null,"broadband_type_id":6}
{"id":null,"anchorname":"The English High","address":"144 McBride Street, Jamaica Plain, MA 02130","bldgnbr":"144","predir":null,"streetname":"McBride","streettype":"Street","suffdir":null,"city":"Jamaica Plain","state_code":"MA","zip5":"02130","latitude":"42.3063760080000000","longitude":"-71.109226803000000","publicwifi":"U","url":null,"broadband_type_id":6}
{"id":null,"anchorname":"Ellis Mendell","address":"164 School Street, Roxbury, MA 02119","bldgnbr":"164","predir":null,"streetname":"School","streettype":"Street","suffdir":null,"city":"Roxbury","state_code":"MA","zip5":"02119","latitude":"42.3165770330000000","longitude":"-71.101733632000000","publicwifi":"U","url":null,"broadband_type_id":6}
{"id":null,"anchorname":"Young Achievers","address":"25 Walk Hill Street, Jamaica Plain, MA 02130","bldgnbr":"25","predir":null,"streetname":"Walk Hill","streettype":"Street","suffdir":null,"city":"Jamaica Plain","state_code":"MA","zip5":"02130","latitude":"42.2945779850000000","longitude":"-71.116047532000000","publicwifi":"U","url":null,"broadband_type_id":null}
{"id":null,"anchorname":"John D Philbrick","address":"40 Philbrick Street, Roslindale, MA 02131","bldgnbr":"40","predir":null,"streetname":"Philbrick","streettype":"Street","suffdir":null,"city":"Roslindale","state_code":"MA","zip5":"02131","latitude":"42.2854968310000000","longitude":"-71.117748887000000","publicwifi":"U","url":null,"broadband_type_id":null}
{"id":null,"anchorname":"George H Conley","address":"450 Poplar Street, Roslindale, MA 02131","bldgnbr":"450","predir":null,"streetname":"Poplar","streettype":"Street","suffdir":null,"city":"Roslindale","state_code":"MA","zip5":"02131","latitude":"42.2747799030000000","longitude":"-71.127005616000000","publicwifi":"U","url":null,"broadband_type_id":null}
{"id":null,"anchorname":"Mozart","address":"236 Beech Street, Roslindale, MA 02131","bldgnbr":"236","predir":null,"streetname":"Beech","streettype":"Street","suffdir":null,"city":"Roslindale","state_code":"MA","zip5":"02131","latitude":"42.2812556760000000","longitude":"-71.141073587000000","publicwifi":"U","url":null,"broadband_type_id":null}
{"id":null,"anchorname":"Roslindale Branch","address":"646 East Broadway, Roslindale, MA 02131","bldgnbr":"646","predir":"East","streetname":"Broadway","streettype":null,"suffdir":null,"city":"Roslindale","state_code":"MA","zip5":"02131","latitude":"42.2859758240000000","longitude":"-71.128543729000000","publicwifi":"U","url":null,"broadband_type_id":null}
{"id":null,"anchorname":"Hebrew Rehabilitation Center","address":"1200 Centre St, Roslindale, MA 02131","bldgnbr":"1200","predir":null,"streetname":"Centre","streettype":"St","suffdir":null,"city":"Roslindale","state_code":"MA","zip5":"02131","latitude":"42.2975285810000000","longitude":"-71.131082668000000","publicwifi":"U","url":null,"broadband_type_id":null}
{"id":null,"anchorname":"Joseph P Manning","address":"130 Louders Lane, Jamaica Plain, MA 02130","bldgnbr":"130","predir":null,"streetname":"Louders","streettype":"Lane","suffdir":null,"city":"Jamaica Plain","state_code":"MA","zip5":"02130","latitude":"42.3056738090000000","longitude":"-71.131556817000000","publicwifi":"U","url":null,"broadband_type_id":null}
{"id":null,"anchorname":"BOSTON FIRE DEPARTMENT","address":"9 Gallivan Boulevard, BOSTON, MA 02124","bldgnbr":"9","predir":null,"streetname":"Gallivan","streettype":"Boulevard","suffdir":null,"city":"BOSTON","state_code":"MA","zip5":"02124","latitude":"42.2782778250000000","longitude":"-71.078748033000000","publicwifi":"U","url":null,"broadband_type_id":5}
{"id":null,"anchorname":"Harbor Health Services","address":"1135 Morton St, Mattapan, MA 02126","bldgnbr":"1135","predir":null,"streetname":"Morton","streettype":"St","suffdir":null,"city":"Mattapan","state_code":"MA","zip5":"02126","latitude":"42.2758506190000000","longitude":"-71.074010780000000","publicwifi":"U","url":null,"broadband_type_id":3}
{"id":null,"anchorname":"Dr. Catherine Ellison-Rosa Parks Early Ed School","address":"108 Babson Street, Mattapan, MA 02126","bldgnbr":"108","predir":null,"streetname":"Babson","streettype":"Street","suffdir":null,"city":"Mattapan","state_code":"MA","zip5":"02126","latitude":"42.2717671990000000","longitude":"-71.091742780000000","publicwifi":"U","url":null,"broadband_type_id":6}
{"id":null,"anchorname":"Mildred Avenue Middle School","address":"5 Mildred Avenue, Mattapan, MA 02126","bldgnbr":"5","predir":null,"streetname":"Mildred","streettype":"Avenue","suffdir":null,"city":"Mattapan","state_code":"MA","zip5":"02126","latitude":"42.2762522640000000","longitude":"-71.090987826000000","publicwifi":"U","url":null,"broadband_type_id":6}
{"id":null,"anchorname":"Mattapan Community Health Center","address":"1425 Blue Hill Avenue, Mattapan, MA 02126","bldgnbr":"1425","predir":null,"streetname":"Blue Hill","streettype":"Avenue","suffdir":null,"city":"Mattapan","state_code":"MA","zip5":"02126","latitude":"42.2755604700000000","longitude":"-71.093893190000000","publicwifi":"U","url":null,"broadband_type_id":3}
{"id":null,"anchorname":"Lemuel Shattuck Hospital","address":"170 Morton Street, Jamaica Plain, MA 02130","bldgnbr":"170","predir":null,"streetname":"Morton","streettype":"Street","suffdir":null,"city":"Jamaica Plain","state_code":"MA","zip5":"02130","latitude":"42.3002509490000000","longitude":"-71.107379471000000","publicwifi":"U","url":null,"broadband_type_id":3}
{"id":null,"anchorname":"BOSTON FIRE DEPARTMENT","address":"945 Canterbury Street, BOSTON, MA 02131","bldgnbr":"945","predir":null,"streetname":"Canterbury","streettype":"Street","suffdir":null,"city":"BOSTON","state_code":"MA","zip5":"02131","latitude":"42.2790041710000000","longitude":"-71.117466675000000","publicwifi":"U","url":null,"broadband_type_id":5}
{"id":null,"anchorname":"Greater Roslindale Medical \u0026 Dental Center","address":"6 Cummins Highway, Roslindale, MA 02131","bldgnbr":"6","predir":null,"streetname":"Cummins","streettype":"Highway","suffdir":null,"city":"Roslindale","state_code":"MA","zip5":"02131","latitude":"42.2865854010000000","longitude":"-71.127639761000000","publicwifi":"U","url":null,"broadband_type_id":3}
{"id":null,"anchorname":"Edward Brooke Charter School","address":"190 Cummins Highway, Roslindale, MA 02131","bldgnbr":"190","predir":null,"streetname":"Cummins","streettype":"Highway","suffdir":null,"city":"Roslindale","state_code":"MA","zip5":"02131","latitude":"42.2818727160000000","longitude":"-71.121898469000000","publicwifi":"U","url":null,"broadband_type_id":6}
{"id":null,"anchorname":"Greater Roslindale Medical And Dental Center","address":"4199 Washington St, Roslindale, MA 02131","bldgnbr":"4199","predir":null,"streetname":"Washington","streettype":"St","suffdir":null,"city":"Roslindale","state_code":"MA","zip5":"02131","latitude":"42.2871497710000000","longitude":"-71.127492986000000","publicwifi":"U","url":null,"broadband_type_id":3}
{"id":null,"anchorname":"Spaulding Nursing And Therapy Center West Roxbury","address":"1245 Centre St, W Roxbury, MA 02132","bldgnbr":"1245","predir":null,"streetname":"Centre","streettype":"St","suffdir":null,"city":"W Roxbury","state_code":"MA","zip5":"02132","latitude":"42.2980171410000000","longitude":"-71.130484135000000","publicwifi":"U","url":null,"broadband_type_id":3}
{"id":null,"anchorname":"British School of Boston","address":"416-420 Pond Street, Jamaica Plain, MA 02130","bldgnbr":"416-420","predir":null,"streetname":"Pond","streettype":"Street","suffdir":null,"city":"Jamaica Plain","state_code":"MA","zip5":"02130","latitude":"42.3065929950000000","longitude":"-71.130150211000000","publicwifi":"U","url":null,"broadband_type_id":6}
{"id":null,"anchorname":"Brigham And Womens Faulkner Hospital","address":"1153 Centre St, Boston, MA 02130","bldgnbr":"1153","predir":null,"streetname":"Centre","streettype":"St","suffdir":null,"city":"Boston","state_code":"MA","zip5":"02130","latitude":"42.3002225370000000","longitude":"-71.127897303000000","publicwifi":"U","url":null,"broadband_type_id":3}
{"id":null,"anchorname":"Faulkner Hospital","address":"1153 Centre Street, Boston, MA 02130","bldgnbr":"1153","predir":null,"streetname":"Centre","streettype":"Street","suffdir":null,"city":"Boston","state_code":"MA","zip5":"02130","latitude":"42.3013586130000000","longitude":"-71.128276698000000","publicwifi":"U","url":null,"broadband_type_id":3}
{"id":null,"anchorname":"Boston International High School","address":"25 Glen Road, Jamaica Plain, MA 02130","bldgnbr":"25","predir":null,"streetname":"Glen","streettype":"Road","suffdir":null,"city":"Jamaica Plain","state_code":"MA","zip5":"02130","latitude":"42.3089297010000000","longitude":"-71.103418342000000","publicwifi":"U","url":null,"broadband_type_id":6}
{"id":null,"anchorname":"Parkside Christian","address":"215 Forest Hill, Jamaica Plain, MA 02130","bldgnbr":"215","predir":null,"streetname":"Forest Hill","streettype":"Hl","suffdir":null,"city":"Jamaica Plain","state_code":"MA","zip5":"02130","latitude":"42.3050612410000000","longitude":"-71.103401335000000","publicwifi":"U","url":null,"broadband_type_id":2}
{"id":null,"anchorname":"Egleston Comm High School","address":"80 School Street, Roxbury, MA 02119","bldgnbr":"80","predir":null,"streetname":"School","streettype":"Street","suffdir":null,"city":"Roxbury","state_code":"MA","zip5":"02119","latitude":"42.3141565970000000","longitude":"-71.099224790000000","publicwifi":"U","url":null,"broadband_type_id":6}
{"id":null,"anchorname":"BUCHANAN COUNTY -- OPERATION THRESHOLD","address":"1707 1ST ST. EAST  PO BOX 204 INDEPENDENCE, IA 50644-0204","bldgnbr":"1707","predir":null,"streetname":"1ST ST. EAST","streettype":null,"suffdir":null,"city":"INDEPENDENCE","state_code":"IA","zip5":"50644","latitude":"42.4687640000000000","longitude":"-91.872913000000000","publicwifi":"U","url":null,"broadband_type_id":6}
{"id":null,"anchorname":"Urban Science Academy","address":"1205 V.F.W. Parkway, West Roxbury, MA 02132","bldgnbr":"1205","predir":null,"streetname":"V.F.W.","streettype":"Parkway","suffdir":null,"city":"West Roxbury","state_code":"MA","zip5":"02132","latitude":"42.2820736760000000","longitude":"-71.174904290000000","publicwifi":"U","url":null,"broadband_type_id":6}
{"id":null,"anchorname":"ELC - West Zone","address":"200 Heath Street, Jamaica Plain, MA 02130","bldgnbr":"200","predir":null,"streetname":"Heath","streettype":"Street","suffdir":null,"city":"Jamaica Plain","state_code":"MA","zip5":"02130","latitude":"42.3259216910000000","longitude":"-71.106844019000000","publicwifi":"U","url":null,"broadband_type_id":6}
{"id":null,"anchorname":"Holy Name Elementary","address":"535 West Roxbury Parkway, West Roxbury, MA 02132","bldgnbr":"535","predir":"West","streetname":"Roxbury","streettype":"Parkway","suffdir":null,"city":"West Roxbury","state_code":"MA","zip5":"02132","latitude":"42.2880696800000000","longitude":"-71.148452660000000","publicwifi":"U","url":null,"broadband_type_id":6}
{"id":null,"anchorname":"West Roxbury Branch","address":"1961 Centre Street, West Roxbury, MA 02132","bldgnbr":"1961","predir":null,"streetname":"Centre","streettype":"Street","suffdir":null,"city":"West Roxbury","state_code":"MA","zip5":"02132","latitude":"42.2832551040000000","longitude":"-71.157232283000000","publicwifi":"U","url":null,"broadband_type_id":6}
{"id":null,"anchorname":"St Theresa Elementary","address":"40 St Theresa Avenue, West Roxbury, MA 02132","bldgnbr":"40","predir":null,"streetname":"St Theresa","streettype":"Avenue","suffdir":null,"city":"West Roxbury","state_code":"MA","zip5":"02132","latitude":"42.2783041100000000","longitude":"-71.157944243000000","publicwifi":"U","url":null,"broadband_type_id":6}
{"id":null,"anchorname":"Jamaica Plain Branch","address":"27 RICHMOND Street, Jamaica Plain, MA 02130","bldgnbr":"27","predir":null,"streetname":"RICHMOND","streettype":"Street","suffdir":null,"city":"Jamaica Plain","state_code":"MA","zip5":"02130","latitude":"42.3085854980000000","longitude":"-71.115055997000000","publicwifi":"U","url":null,"broadband_type_id":null}
{"id":null,"anchorname":"Agassiz","address":"20 Child Street, Jamaica Plain, MA 02130","bldgnbr":"20","predir":null,"streetname":"Child","streettype":"Street","suffdir":null,"city":"Jamaica Plain","state_code":"MA","zip5":"02130","latitude":"42.3071591970000000","longitude":"-71.114170646000000","publicwifi":"U","url":null,"broadband_type_id":null}
{"id":null,"anchorname":"Connolly Branch","address":"65 WARREN Street, Jamaica Plain, MA 02130","bldgnbr":"65","predir":null,"streetname":"WARREN","streettype":"Street","suffdir":null,"city":"Jamaica Plain","state_code":"MA","zip5":"02130","latitude":"42.3207262660000000","longitude":"-71.110792630000000","publicwifi":"U","url":null,"broadband_type_id":null}
{"id":null,"anchorname":"John F Kennedy","address":"7 Bolster Street, Jamaica Plain, MA 02130","bldgnbr":"7","predir":null,"streetname":"Bolster","streettype":"Street","suffdir":null,"city":"Jamaica Plain","state_code":"MA","zip5":"02130","latitude":"42.3218145950000000","longitude":"-71.105518418000000","publicwifi":"U","url":null,"broadband_type_id":null}
{"id":null,"anchorname":"Lyndon","address":"20 Mt. Vernon Street, West Roxbury, MA 02132","bldgnbr":"20","predir":null,"streetname":"Mt. Vernon","streettype":"Street","suffdir":null,"city":"West Roxbury","state_code":"MA","zip5":"02132","latitude":"42.2926671780000000","longitude":"-71.152290945000000","publicwifi":"U","url":null,"broadband_type_id":null}
{"id":null,"anchorname":"Catholic Memorial","address":"235 Baker Street, West Roxbury, MA 02132","bldgnbr":"235","predir":null,"streetname":"Baker","streettype":"Street","suffdir":null,"city":"West Roxbury","state_code":"MA","zip5":"02132","latitude":"42.2777009300000000","longitude":"-71.165780824000000","publicwifi":"U","url":null,"broadband_type_id":null}
{"id":null,"anchorname":"Joyce Kilmer","address":"35 Baker Street, West Roxbury, MA 02132","bldgnbr":"35","predir":null,"streetname":"Baker","streettype":"Street","suffdir":null,"city":"West Roxbury","state_code":"MA","zip5":"02132","latitude":"42.2720262400000000","longitude":"-71.162517169000000","publicwifi":"U","url":null,"broadband_type_id":null}
{"id":null,"anchorname":"Roxbury Latin","address":"101 St Theresa Avenue, West Roxbury, MA 02132","bldgnbr":"101","predir":null,"streetname":"St Theresa","streettype":"Avenue","suffdir":null,"city":"West Roxbury","state_code":"MA","zip5":"02132","latitude":"42.2761250800000000","longitude":"-71.157088610000000","publicwifi":"U","url":null,"broadband_type_id":null}
{"id":null,"anchorname":"Beethoven","address":"5125 Washington Street, West Roxbury, MA 02132","bldgnbr":"5125","predir":null,"streetname":"Washington","streettype":"Street","suffdir":null,"city":"West Roxbury","state_code":"MA","zip5":"02132","latitude":"42.2634640600000000","longitude":"-71.156074250000000","publicwifi":"U","url":null,"broadband_type_id":null}
{"id":null,"anchorname":"East Boston ECC","address":"135 Grove Street, East Boston, MA 02128","bldgnbr":"135","predir":null,"streetname":"Grove","streettype":"Street","suffdir":null,"city":"East Boston","state_code":"MA","zip5":"02128","latitude":"42.2648554290000000","longitude":"-71.158924821000000","publicwifi":"U","url":null,"broadband_type_id":null}
{"id":null,"anchorname":"William H Ohrenberger","address":"175 West Boundary Road, West Roxbury, MA 02132","bldgnbr":"175","predir":"West","streetname":"Boundary","streettype":"Road","suffdir":null,"city":"West Roxbury","state_code":"MA","zip5":"02132","latitude":"42.2609002420000000","longitude":"-71.149575614000000","publicwifi":"U","url":null,"broadband_type_id":null}
{"id":null,"anchorname":"Brookside Community Health Center","address":"3297 Washington Street, Jamaica Plain, MA 02130","bldgnbr":"3297","predir":null,"streetname":"Washington","streettype":"Street","suffdir":null,"city":"Jamaica Plain","state_code":"MA","zip5":"02130","latitude":"42.3109356310000000","longitude":"-71.104058650000000","publicwifi":"U","url":null,"broadband_type_id":3}
{"id":null,"anchorname":"Brookside Community Health Center","address":"3297 Washington St, Boston, MA 02130","bldgnbr":"3297","predir":null,"streetname":"Washington","streettype":"St","suffdir":null,"city":"Boston","state_code":"MA","zip5":"02130","latitude":"42.3106758630000000","longitude":"-71.103444067000000","publicwifi":"U","url":null,"broadband_type_id":3}
{"id":null,"anchorname":"BOSTON POLICE DEPT DISTRICT E-13","address":"3345 Washington Street, BOSTON, MA 02130","bldgnbr":"3345","predir":null,"streetname":"Washington","streettype":"Street","suffdir":null,"city":"BOSTON","state_code":"MA","zip5":"02130","latitude":"42.3096945680000000","longitude":"-71.104612422000000","publicwifi":"U","url":null,"broadband_type_id":4}
{"id":null,"anchorname":"BOSTON FIRE DEPARTMENT","address":"746 Center Street, BOSTON, MA 02130","bldgnbr":"746","predir":null,"streetname":"Center","streettype":"Street","suffdir":null,"city":"BOSTON","state_code":"MA","zip5":"02130","latitude":"42.3105501300000000","longitude":"-71.114418702000000","publicwifi":"U","url":null,"broadband_type_id":5}
{"id":null,"anchorname":"Hollow Reed School","address":"93 Sedgewick, Jamaica Plain, MA 02130","bldgnbr":"93","predir":null,"streetname":"Sedgewick","streettype":null,"suffdir":null,"city":"Jamaica Plain","state_code":"MA","zip5":"02130","latitude":"42.3082425770000000","longitude":"-71.112024735000000","publicwifi":"U","url":null,"broadband_type_id":6}
{"id":null,"anchorname":"Arbour Health System","address":"49 Robinwood Ave, Boston, MA 02130","bldgnbr":"49","predir":null,"streetname":"Robinwood","streettype":"Ave","suffdir":null,"city":"Boston","state_code":"MA","zip5":"02130","latitude":"42.3159597420000000","longitude":"-71.111786195000000","publicwifi":"U","url":null,"broadband_type_id":3}
{"id":null,"anchorname":"Arbour Hospital","address":"49 Robinwood Ave, Jamaica Plain, MA 02130","bldgnbr":"49","predir":null,"streetname":"Robinwood","streettype":"Ave","suffdir":null,"city":"Jamaica Plain","state_code":"MA","zip5":"02130","latitude":"42.3159597420000000","longitude":"-71.111786195000000","publicwifi":"U","url":null,"broadband_type_id":3}
{"id":null,"anchorname":"Southern Jamaica Plain Health Center","address":"640 Centre St, Boston, MA 02130","bldgnbr":"640","predir":null,"streetname":"Centre","streettype":"St","suffdir":null,"city":"Boston","state_code":"MA","zip5":"02130","latitude":"42.3134252870000000","longitude":"-71.113995957000000","publicwifi":"U","url":null,"broadband_type_id":3}
{"id":null,"anchorname":"Curley K-8 School","address":"493 Centre Street, Jamaica Plain, MA 02130","bldgnbr":"493","predir":null,"streetname":"Centre","streettype":"Street","suffdir":null,"city":"Jamaica Plain","state_code":"MA","zip5":"02130","latitude":"42.3185708360000000","longitude":"-71.113364509000000","publicwifi":"U","url":null,"broadband_type_id":6}
{"id":null,"anchorname":"Nativity Prep School","address":"39 Lamartine Street, Jamaica Plain, MA 02130-0947","bldgnbr":"39","predir":null,"streetname":"Lamartine","streettype":"Street","suffdir":null,"city":"Jamaica Plain","state_code":"MA","zip5":"02130","latitude":"42.3215569110000000","longitude":"-71.101727412000000","publicwifi":"U","url":null,"broadband_type_id":6}
{"id":null,"anchorname":"Va Boston Healthcare Jamaica Plain","address":"150 S Huntington Ave, Jamaica Plain, MA 02130","bldgnbr":"150","predir":"S","streetname":"Huntington","streettype":"Ave","suffdir":null,"city":"Jamaica Plain","state_code":"MA","zip5":"02130","latitude":"42.3278663920000000","longitude":"-71.110739133000000","publicwifi":"U","url":null,"broadband_type_id":3}
{"id":null,"anchorname":"Brook Farm Business and Service Career Academy","address":"1205 V.F.W. Parkway, West Roxbury, MA 02132","bldgnbr":"1205","predir":null,"streetname":"V.F.W.","streettype":"Parkway","suffdir":null,"city":"West Roxbury","state_code":"MA","zip5":"02132","latitude":"42.2822889450000000","longitude":"-71.174875056000000","publicwifi":"U","url":null,"broadband_type_id":3}
{"id":null,"anchorname":"Media Communications Technology High School","address":"1205 V.F.W. Parkway, West Roxbury, MA 02132","bldgnbr":"1205","predir":null,"streetname":"V.F.W.","streettype":"Parkway","suffdir":null,"city":"West Roxbury","state_code":"MA","zip5":"02132","latitude":"42.2821712760000000","longitude":"-71.175034729000000","publicwifi":"U","url":null,"broadband_type_id":6}
{"id":null,"anchorname":"Parkway Academy of Technology and Health","address":"1205 V.F.W. Parkway, West Roxbury, MA 02132","bldgnbr":"1205","predir":null,"streetname":"V.F.W.","streettype":"Parkway","suffdir":null,"city":"West Roxbury","state_code":"MA","zip5":"02132","latitude":"42.2821426220000000","longitude":"-71.174707524000000","publicwifi":"U","url":null,"broadband_type_id":3}
{"id":null,"anchorname":"BOSTON FIRE DEPARTMENT","address":"1940 Center Street, BOSTON, MA 02132","bldgnbr":"1940","predir":null,"streetname":"Center","streettype":"Street","suffdir":null,"city":"BOSTON","state_code":"MA","zip5":"02132","latitude":"42.2840332750000000","longitude":"-71.156530384000000","publicwifi":"U","url":null,"broadband_type_id":5}
{"id":null,"anchorname":"BOSTON POLICE DEPT DISTRICT E-5","address":"1708 Centre Street, BOSTON, MA 02132","bldgnbr":"1708","predir":null,"streetname":"Centre","streettype":"Street","suffdir":null,"city":"BOSTON","state_code":"MA","zip5":"02132","latitude":"42.2871037080000000","longitude":"-71.148510460000000","publicwifi":"U","url":null,"broadband_type_id":4}
{"id":null,"anchorname":"Massachusetts School Of Professional Psychology","address":"221 Rivermoor Street, Boston, MA 02132","bldgnbr":"221","predir":null,"streetname":"Rivermoor","streettype":"Street","suffdir":null,"city":"Boston","state_code":"MA","zip5":"02132","latitude":"42.2786575420000000","longitude":"-71.181316815000000","publicwifi":"U","url":null,"broadband_type_id":6}
{"id":null,"anchorname":"Va Boston Healthcare West Roxbury","address":"1400 Vfw Pkwy, W Roxbury, MA 02132","bldgnbr":"1400","predir":null,"streetname":"Vfw","streettype":"Pky","suffdir":null,"city":"W Roxbury","state_code":"MA","zip5":"02132","latitude":"42.2760107290000000","longitude":"-71.172437777000000","publicwifi":"U","url":null,"broadband_type_id":3}
{"id":null,"anchorname":"BOSTON FIRE DEPARTMENT","address":"5115 Washington Street, BOSTON, MA 02132","bldgnbr":"5115","predir":null,"streetname":"Washington","streettype":"Street","suffdir":null,"city":"BOSTON","state_code":"MA","zip5":"02132","latitude":"42.2639954850000000","longitude":"-71.154806008000000","publicwifi":"U","url":null,"broadband_type_id":5}
{"id":null,"anchorname":"William Ellery Channing","address":"35 Sunnyside Street, Hyde Park, MA 02136","bldgnbr":"35","predir":null,"streetname":"Sunnyside","streettype":"Street","suffdir":null,"city":"Hyde Park","state_code":"MA","zip5":"02136","latitude":"42.2516502210000000","longitude":"-71.133368262000000","publicwifi":"U","url":null,"broadband_type_id":null}
{"id":null,"anchorname":"BUTLER COUNTY OUTREACH CENTER -- NORTH IOWA COMMUNITY ACTION ORGANIZATION","address":"219 N. MATHER  PO BOX 187 CLARKSVILLE, IA 50619","bldgnbr":"219","predir":null,"streetname":"N. MATHER","streettype":null,"suffdir":null,"city":"CLARKSVILLE","state_code":"IA","zip5":"50619","latitude":"42.7857740000000000","longitude":"-92.666553000000000","publicwifi":"U","url":null,"broadband_type_id":1}
{"id":null,"anchorname":"Boston Trinity Academy","address":"17 Hale Street, Boston, MA 02136","bldgnbr":"17","predir":null,"streetname":"Hale","streettype":"Street","suffdir":null,"city":"Boston","state_code":"MA","zip5":"02136","latitude":"42.2592390770000000","longitude":"-71.128687060000000","publicwifi":"U","url":null,"broadband_type_id":6}
{"id":null,"anchorname":"James J Chittick","address":"154 Ruskindale Road, Mattapan, MA 02126","bldgnbr":"154","predir":null,"streetname":"Ruskindale","streettype":"Road","suffdir":null,"city":"Mattapan","state_code":"MA","zip5":"02126","latitude":"42.2672066600000000","longitude":"-71.104465466000000","publicwifi":"U","url":null,"broadband_type_id":6}
{"id":null,"anchorname":"Henry Grew","address":"40 Gordon Avenue, Hyde Park, MA 02136","bldgnbr":"40","predir":null,"streetname":"Gordon","streettype":"Avenue","suffdir":null,"city":"Hyde Park","state_code":"MA","zip5":"02136","latitude":"42.2569689940000000","longitude":"-71.127144032000000","publicwifi":"U","url":null,"broadband_type_id":null}
{"id":null,"anchorname":"Chelsea High","address":"299 Everett Avenue, Chelsea, MA 02150","bldgnbr":"299","predir":null,"streetname":"Everett","streettype":"Avenue","suffdir":null,"city":"Chelsea","state_code":"MA","zip5":"02150","latitude":"42.3987647020000000","longitude":"-71.040373513000000","publicwifi":"U","url":null,"broadband_type_id":6}
{"id":null,"anchorname":"Franklin D Roosevelt","address":"95 Needham Road, Hyde Park, MA 02136","bldgnbr":"95","predir":null,"streetname":"Needham","streettype":"Road","suffdir":null,"city":"Hyde Park","state_code":"MA","zip5":"02136","latitude":"42.2428518060000000","longitude":"-71.124105722000000","publicwifi":"U","url":null,"broadband_type_id":null}
{"id":null,"anchorname":"St Rose Elementary","address":"580 Broadway, Chelsea, MA 02150","bldgnbr":"580","predir":null,"streetname":"Broadway","streettype":null,"suffdir":null,"city":"Chelsea","state_code":"MA","zip5":"02150","latitude":"42.3945544870000000","longitude":"-71.032076750000000","publicwifi":"U","url":null,"broadband_type_id":6}
{"id":null,"anchorname":"New Beginnings Academy","address":"20 Central Avenue, Hyde Park, MA 02136","bldgnbr":"20","predir":null,"streetname":"Central","streettype":"Avenue","suffdir":null,"city":"Hyde Park","state_code":"MA","zip5":"02136","latitude":"42.2572950850000000","longitude":"-71.121912964000000","publicwifi":"U","url":null,"broadband_type_id":6}
{"id":null,"anchorname":"Social Justice Academy","address":"655 Metropolitan Avenue, Hyde Park, MA 02136","bldgnbr":"655","predir":null,"streetname":"Metropolitan","streettype":"Avenue","suffdir":null,"city":"Hyde Park","state_code":"MA","zip5":"02136","latitude":"42.2626742040000000","longitude":"-71.117851675000000","publicwifi":"U","url":null,"broadband_type_id":6}
{"id":null,"anchorname":"Elihu Greenwood","address":"612 Metropolitan Avenue, Hyde Park, MA 02136","bldgnbr":"612","predir":null,"streetname":"Metropolitan","streettype":"Avenue","suffdir":null,"city":"Hyde Park","state_code":"MA","zip5":"02136","latitude":"42.2652578240000000","longitude":"-71.117693548000000","publicwifi":"U","url":null,"broadband_type_id":null}
{"id":null,"anchorname":"Shurtleff Early Childhood","address":"99 Hawthorn Street, Chelsea, MA 02150","bldgnbr":"99","predir":null,"streetname":"Hawthorn","streettype":"Street","suffdir":null,"city":"Chelsea","state_code":"MA","zip5":"02150","latitude":"42.3899499990000000","longitude":"-71.035392491000000","publicwifi":"U","url":null,"broadband_type_id":null}
