{"id":null,"anchorname":"Town of Warrenton Fire Department","address":"119 E Market St, Warrenton, NC","bldgnbr":"119","predir":"E","streetname":"Markey","streettype":"St","suffdir":null,"city":"Warrenton","state_code":"NC","zip5":"27589","latitude":"36.3975000000000000","longitude":"-78.156600000000000","publicwifi":"U","url":null,"broadband_type_id":5}
{"id":null,"anchorname":"Early Childhood Education Center","address":"4001 Waco Road, Columbia, MO 65202","bldgnbr":"4001","predir":null,"streetname":"Waco","streettype":"Road","suffdir":null,"city":"Columbia","state_code":"MO","zip5":"65202","latitude":"39.0118474770000000","longitude":"-92.276731722000000","publicwifi":"Y","url":"http://www.columbia.k12.mo.us/depts/earlych.php","broadband_type_id":6}
{"id":null,"anchorname":"Community Corrections","address":"204 E WATER ST Plymouth, NC 27962","bldgnbr":"204","predir":"E","streetname":"WATER","streettype":"ST","suffdir":null,"city":"Plymouth","state_code":"NC","zip5":"27962","latitude":"35.8679942970000000","longitude":"-76.749325169000000","publicwifi":"U","url":null,"broadband_type_id":1}
{"id":null,"anchorname":"Community Corrections","address":"133 N WATER ST Boone, NC 28607-3515","bldgnbr":"133","predir":"N","streetname":"WATER","streettype":"ST","suffdir":null,"city":"Boone","state_code":"NC","zip5":"28607","latitude":"36.2203988440000000","longitude":"-81.685990437000000","publicwifi":"U","url":null,"broadband_type_id":1}
{"id":null,"anchorname":"CDSA - Plymouth Satelite Center","address":"204 NC Highway #45 North Plymouth, NC 27962","bldgnbr":"204","predir":null,"streetname":"NC 45","streettype":"Highway","suffdir":"N","city":"Plymouth","state_code":"NC","zip5":"27962","latitude":"35.8404037000000000","longitude":"-76.736625364000000","publicwifi":"U","url":null,"broadband_type_id":null}
{"id":null,"anchorname":"PLYMOUTH HIGH","address":"E MAIN ST, PLYMOUTH, NC 27962","bldgnbr":"0","predir":"E","streetname":"MAIN","streettype":"ST","suffdir":null,"city":"PLYMOUTH","state_code":"NC","zip5":"27962","latitude":"35.8671100000000000","longitude":"-76.722324000000000","publicwifi":"U","url":"http://www.washingtonco.k12.nc.us/PHS/index.htm","broadband_type_id":6}
{"id":null,"anchorname":"Washington County Senior Center","address":"198 NC 45 Hwy N Plymouth, NC 27962","bldgnbr":"198","predir":null,"streetname":"NC 45","streettype":"Hwy","suffdir":"N","city":"Plymouth","state_code":"NC","zip5":"27962","latitude":"35.8402988010000000","longitude":"-76.736727698000000","publicwifi":"U","url":null,"broadband_type_id":1}
{"id":null,"anchorname":"Juvenile Justice","address":"112 ADAMS ST Plymouth, NC 27962","bldgnbr":"112","predir":null,"streetname":"ADAMS","streettype":"ST","suffdir":null,"city":"Plymouth","state_code":"NC","zip5":"27962","latitude":"35.8675704980000000","longitude":"-76.749350359000000","publicwifi":"U","url":null,"broadband_type_id":null}
{"id":null,"anchorname":"PINES ELEMENTARY","address":"3177 US HWY 64E, PLYMOUTH, NC 27962","bldgnbr":"3177","predir":null,"streetname":"US 64","streettype":"HWY","suffdir":"EAST","city":"PLYMOUTH","state_code":"NC","zip5":"27962","latitude":"35.8714400000000000","longitude":"-76.694460000000000","publicwifi":"U","url":"http://www.washingtonco.k12.nc.us/PES/pes.htm","broadband_type_id":6}
{"id":null,"anchorname":"GREEN VALLEY ELEMENTARY","address":"189 BIG HILL RD, BOONE, NC 28607","bldgnbr":"189","predir":null,"streetname":"BIG HILL","streettype":"RD","suffdir":null,"city":"BOONE","state_code":"NC","zip5":"28607","latitude":"36.2773880000000000","longitude":"-81.648344000000000","publicwifi":"U","url":"http://www.watauga.k12.nc.us/gv/","broadband_type_id":6}
{"id":null,"anchorname":"ACTS/DSS combo","address":"211 WASHINGTON ST Plymouth, NC 27962-1321","bldgnbr":"211","predir":null,"streetname":"WASHINGTON","streettype":"ST","suffdir":null,"city":"Plymouth","state_code":"NC","zip5":"27962","latitude":"35.8659177550000000","longitude":"-76.750226733000000","publicwifi":"U","url":null,"broadband_type_id":null}
{"id":null,"anchorname":"DOT Mobile Van F/R Connection Area 101","address":"302 WATERS ST Plymouth, NC 27962","bldgnbr":"302","predir":null,"streetname":"WATERS","streettype":"ST","suffdir":null,"city":"Plymouth","state_code":"NC","zip5":"27962","latitude":"35.8658140000000000","longitude":"-76.754228000000000","publicwifi":"U","url":null,"broadband_type_id":null}
{"id":null,"anchorname":"DMV Tag Office","address":"383 USHY 64 W Plymouth, NC 27962","bldgnbr":"383","predir":null,"streetname":"US Hwy 64","streettype":null,"suffdir":"W","city":"Plymouth","state_code":"NC","zip5":"27962","latitude":"35.8546816870000000","longitude":"-76.750173089000000","publicwifi":"U","url":null,"broadband_type_id":null}
{"id":null,"anchorname":"Somerset Place dmarc-Colony House-2nd fl","address":"2572 LAKE SHORE RD Creswell, NC 27926","bldgnbr":"2572","predir":null,"streetname":"Lake Shore","streettype":"Road","suffdir":null,"city":"Creswell","state_code":"NC","zip5":"27926","latitude":"35.7894832090000000","longitude":"-76.404598883000000","publicwifi":"U","url":null,"broadband_type_id":null}
{"id":null,"anchorname":"MABEL ELEMENTARY","address":"404 MABEL SCHOOL RD, ZIONVILLE, NC 28698","bldgnbr":"404","predir":null,"streetname":"MABEL SCHOOL","streettype":"RD","suffdir":null,"city":"ZIONVILLE","state_code":"NC","zip5":"28698","latitude":"36.3216540000000000","longitude":"-81.745356000000000","publicwifi":"U","url":"http://www.watauga.k12.nc.us/ma/","broadband_type_id":6}
{"id":null,"anchorname":"BETHEL ELEMENTARY","address":"138 BETHEL SCHOOL RD, SUGAR GROVE, NC 28679","bldgnbr":"138","predir":null,"streetname":"BETHEL SCHOOL","streettype":"RD","suffdir":null,"city":"SUGAR GROVE","state_code":"NC","zip5":"28679","latitude":"36.2936690000000000","longitude":"-81.848809000000000","publicwifi":"U","url":"http://www.cabarrus.k12.nc.us/bethel/index.html","broadband_type_id":6}
{"id":null,"anchorname":"Western Watauga Senior Center","address":"1081 Old US 421 Hwy Sugar Grove, NC 28679","bldgnbr":"1081","predir":null,"streetname":"Old US 421","streettype":"Hwy","suffdir":null,"city":"Sugar Grove","state_code":"NC","zip5":"28679","latitude":"36.2670097330000000","longitude":"-81.886054503000000","publicwifi":"U","url":"http://www.wataugacounty.org/main/APP_Pages/Dept/Aging/home.aspx","broadband_type_id":6}
{"id":null,"anchorname":"DOT DIV. 11 District Engineer's Office","address":"1829 STHY 194 Boone, NC 28607","bldgnbr":"1829","predir":null,"streetname":"State Hwy 194","streettype":null,"suffdir":null,"city":"Boone","state_code":"NC","zip5":"28607","latitude":"36.2382031780000000","longitude":"-81.656324979000000","publicwifi":"U","url":null,"broadband_type_id":6}
{"id":null,"anchorname":"NORTH CAROLINA STATE HIGHWAY PATROL TROOP F DIST","address":"184 HODGES GAP ROAD BOONE, NC 28607","bldgnbr":"184","predir":null,"streetname":"HODGES GAP","streettype":"ROAD","suffdir":null,"city":"BOONE","state_code":"NC","zip5":"28607","latitude":"36.2207275000000000","longitude":"-81.706366300000000","publicwifi":"U","url":null,"broadband_type_id":4}
{"id":null,"anchorname":"DMV Vehicle Registration Office","address":"835 W KING ST Boone, NC 28607","bldgnbr":"835","predir":"W","streetname":"KING","streettype":"ST","suffdir":null,"city":"Boone","state_code":"NC","zip5":"28607","latitude":"36.2201359270000000","longitude":"-81.686820444000000","publicwifi":"U","url":null,"broadband_type_id":6}
{"id":null,"anchorname":"MTW District Health Department","address":"198 NC Hway 45 N Plymouth, NC 27962","bldgnbr":"198","predir":null,"streetname":"NC 45","streettype":"Hway","suffdir":"N","city":"Plymouth","state_code":"NC","zip5":"27962","latitude":"35.8403641580000000","longitude":"-76.736719219000000","publicwifi":"U","url":null,"broadband_type_id":3}
{"id":null,"anchorname":"CITY OF PLYMOUTH POLICE DEPARTMENT","address":"132 E WATER ST PLYMOUTH, NC 27962","bldgnbr":"132","predir":"E","streetname":"WATER","streettype":"ST","suffdir":null,"city":"PLYMOUTH","state_code":"NC","zip5":"27962","latitude":"35.8671272000000000","longitude":"-76.750258100000000","publicwifi":"U","url":null,"broadband_type_id":4}
{"id":null,"anchorname":"Washington County Library","address":"201 East Third Street Plymouth, NC 27962","bldgnbr":"201","predir":"E","streetname":"Third","streettype":"Street","suffdir":null,"city":"Plymouth","state_code":"NC","zip5":"27962","latitude":"35.8654460420000000","longitude":"-76.747722415000000","publicwifi":"Y","url":null,"broadband_type_id":6}
{"id":null,"anchorname":"Pettigrew State Park","address":"2252 LAKE SHORE RD Creswell, NC 27928","bldgnbr":"2252","predir":null,"streetname":"Lake Shore","streettype":"Road","suffdir":null,"city":"Creswell","state_code":"NC","zip5":"27928","latitude":"35.7920771230000000","longitude":"-76.409579547000000","publicwifi":"U","url":null,"broadband_type_id":2}
{"id":null,"anchorname":"NORTH CAROLINA DIVISION OF PARKS - PETTIGREW STA","address":"2252 LAKE SHORE ROAD CRESWELL, NC 27928","bldgnbr":"2252","predir":null,"streetname":"LAKE SHORE","streettype":"ROAD","suffdir":null,"city":"CRESWELL","state_code":"NC","zip5":"27928","latitude":"35.7920644000000000","longitude":"-76.409579900000000","publicwifi":"U","url":null,"broadband_type_id":2}
{"id":null,"anchorname":"Long Acre Volunteer Fire Dept","address":"23177 Nc Highway 32 N Pinetown, NC 27865-0056","bldgnbr":"23177","predir":null,"streetname":"Sthy 32","streettype":null,"suffdir":"N","city":"Pinetown","state_code":"NC","zip5":"27865","latitude":"35.7420000000000000","longitude":"-76.739800000000000","publicwifi":"U","url":null,"broadband_type_id":5}
{"id":null,"anchorname":"NORTH CAROLINA PARK RANGERS - ELK KNOB STATE PAR","address":"5564 MEAT CAMP ROAD TODD, NC 28684","bldgnbr":"5564","predir":null,"streetname":"MEAT CAMP","streettype":"ROAD","suffdir":null,"city":"TODD","state_code":"NC","zip5":"28684","latitude":"36.3288434000000000","longitude":"-81.692150800000000","publicwifi":"U","url":null,"broadband_type_id":2}
{"id":null,"anchorname":"Elk Knob State Park","address":"5564 MEAT CAMP RD Todd, NC 28684","bldgnbr":"5564","predir":null,"streetname":"Meat Camp","streettype":"Road","suffdir":null,"city":"Todd","state_code":"NC","zip5":"28684","latitude":"36.3334771950000000","longitude":"-81.696373019000000","publicwifi":"U","url":null,"broadband_type_id":2}
{"id":null,"anchorname":"Todd Volunteer Fire \u0026 Rescue","address":"1062 Nc Hwy 194 N Todd, NC 28684-0080","bldgnbr":"1062","predir":null,"streetname":"Sthy 194","streettype":null,"suffdir":"N","city":"Todd","state_code":"NC","zip5":"28684","latitude":"36.3155000000000000","longitude":"-81.640000000000000","publicwifi":"U","url":null,"broadband_type_id":5}
{"id":null,"anchorname":"Zionville Volunteer Fire","address":"6610 Old US Highway 421","bldgnbr":"6610","predir":null,"streetname":"Old US Highway 421","streettype":null,"suffdir":null,"city":"Zionville","state_code":"NC","zip5":"28698","latitude":"36.3117000000000000","longitude":"-81.752900000000000","publicwifi":"U","url":null,"broadband_type_id":5}
{"id":null,"anchorname":"Western Watauga Branch Library","address":"1085 Old US Highway 421 Sugar Grove, NC 28679","bldgnbr":"1085","predir":null,"streetname":"Old US Highway 421","streettype":null,"suffdir":null,"city":"Sugar Grove","state_code":"NC","zip5":"28679","latitude":"36.2661078700000000","longitude":"-81.783043297000000","publicwifi":"Y","url":null,"broadband_type_id":6}
{"id":null,"anchorname":"HARDIN PARK ELEMENTARY","address":"361 JEFFERSON RD, BOONE, NC 28607","bldgnbr":"361","predir":null,"streetname":"JEFFERSON","streettype":"RD","suffdir":null,"city":"BOONE","state_code":"NC","zip5":"28607","latitude":"36.2216690000000000","longitude":"-81.660010000000000","publicwifi":"U","url":"http://www.watauga.k12.nc.us/hp/","broadband_type_id":2}
{"id":null,"anchorname":"Watauga County Public Library","address":"140 Queen Street Boone, NC 28607","bldgnbr":"140","predir":null,"streetname":"Queen","streettype":"Street","suffdir":null,"city":"Boone","state_code":"NC","zip5":"28607","latitude":"36.2196008680000000","longitude":"-81.682879521000000","publicwifi":"Y","url":null,"broadband_type_id":6}
{"id":null,"anchorname":"Watauga County Government Courthouse","address":"842 W KING ST Boone, NC 28607-3457","bldgnbr":"842","predir":"W","streetname":"KING","streettype":"ST","suffdir":"W","city":"Boone","state_code":"NC","zip5":"28607","latitude":"36.2204113820000000","longitude":"-81.686720852000000","publicwifi":"U","url":null,"broadband_type_id":1}
{"id":null,"anchorname":"WATAUGA COUNTY SHERIFF DEPARTMENT / WATAUGA COUN","address":"184 HODGES GAP ROAD BOONE, NC 28607","bldgnbr":"184","predir":null,"streetname":"HODGES GAP","streettype":"ROAD","suffdir":null,"city":"BOONE","state_code":"NC","zip5":"28607","latitude":"36.2207292000000000","longitude":"-81.706363800000000","publicwifi":"U","url":null,"broadband_type_id":4}
{"id":null,"anchorname":"Office of Juvenile Justice","address":"842 W KING ST Boone, NC 28705","bldgnbr":"842","predir":"W","streetname":"KING","streettype":"ST","suffdir":null,"city":"Boone","state_code":"NC","zip5":"28705","latitude":"36.2204802740000000","longitude":"-81.687798152000000","publicwifi":"U","url":null,"broadband_type_id":null}
{"id":null,"anchorname":"L. E. Harrill Senior Center","address":"132 Poplar Grove Connector Boone, NC 28607","bldgnbr":"132","predir":null,"streetname":"Poplar Grove","streettype":"Connector","suffdir":null,"city":"Boone","state_code":"NC","zip5":"28607","latitude":"36.2205869690000000","longitude":"-81.691205291000000","publicwifi":"U","url":"http://www.wataugacounty.org/main/APP_Pages/Dept/Aging/home.aspx","broadband_type_id":null}
{"id":null,"anchorname":"RAYTOWN CHRISTIAN CHURCH","address":"6108 Blue Ridge Blvd.","bldgnbr":"6108","predir":null,"streetname":"Blue Ridge Blvd.","streettype":null,"suffdir":null,"city":"KANSAS CITY","state_code":"MO","zip5":"64133","latitude":"39.0121890000000000","longitude":"-94.461817000000000","publicwifi":null,"url":null,"broadband_type_id":6}
{"id":null,"anchorname":"TWO RIVERS COMMUNITY","address":"1018 ARCHIE CARROLL RD, BOONE, NC 28607","bldgnbr":"1018","predir":null,"streetname":"ARCHIE CARROLL","streettype":"RD","suffdir":null,"city":"BOONE","state_code":"NC","zip5":"28607","latitude":"36.2271870000000000","longitude":"-81.615034000000000","publicwifi":"U","url":null,"broadband_type_id":1}
{"id":null,"anchorname":"NC Employment Security Commission","address":"207 WINKLERS CREEK RD Boone, NC 28607-7838","bldgnbr":"207","predir":null,"streetname":"Winklers Creek","streettype":"Road","suffdir":null,"city":"Boone","state_code":"NC","zip5":"28607","latitude":"36.2034801990000000","longitude":"-81.669525098000000","publicwifi":"U","url":null,"broadband_type_id":6}
{"id":null,"anchorname":"WATAUGA HIGH","address":"400 HIGH SCHOOL DR, BOONE, NC 28607","bldgnbr":"400","predir":null,"streetname":"HIGH SCHOOL","streettype":"DR","suffdir":null,"city":"BOONE","state_code":"NC","zip5":"28607","latitude":"36.2004040000000000","longitude":"-81.676230000000000","publicwifi":"U","url":"http://www.watauga.k12.nc.us/whs/","broadband_type_id":6}
{"id":null,"anchorname":"DOT Resident Engineer Office","address":"160 DEN MAC DR Boone, NC 28607","bldgnbr":"160","predir":null,"streetname":"DENMARC","streettype":"DR","suffdir":null,"city":"Boone","state_code":"NC","zip5":"28607","latitude":"36.2140720000000000","longitude":"-81.636770000000000","publicwifi":"U","url":null,"broadband_type_id":6}
{"id":null,"anchorname":"BLOWING ROCK ELEMENTARY","address":"165 MORRIS ST, BLOWING ROCK, NC 28605","bldgnbr":"165","predir":null,"streetname":"MORRIS","streettype":"ST","suffdir":null,"city":"BLOWING ROCK","state_code":"NC","zip5":"28605","latitude":"36.1314780000000000","longitude":"-81.676057000000000","publicwifi":"U","url":"http://www.watauga.k12.nc.us/br/","broadband_type_id":6}
{"id":null,"anchorname":"ACTS","address":"400 SHADOW LINE DR Boone, NC 28607-3467","bldgnbr":"400","predir":null,"streetname":"Shadow Line","streettype":"Drive","suffdir":null,"city":"Boone","state_code":"NC","zip5":"28607","latitude":"36.2035465630000000","longitude":"-81.658899087000000","publicwifi":"U","url":null,"broadband_type_id":null}
{"id":null,"anchorname":"VALLE CRUCIS ELEMENTARY","address":"2998 BROADSTONE RD, SUGAR GROVE, NC 28679","bldgnbr":"2998","predir":null,"streetname":"BROADSTONE","streettype":"RD","suffdir":null,"city":"SUGAR GROVE","state_code":"NC","zip5":"28679","latitude":"36.2160870000000000","longitude":"-81.786336000000000","publicwifi":"U","url":"http://www.watauga.k12.nc.us/vc/","broadband_type_id":6}
{"id":null,"anchorname":"NORTHWEST ELEMENTARY","address":"1769 PIKEVILLE PRINCETON HW, PIKEVILLE, NC 27863","bldgnbr":"1769","predir":null,"streetname":"PIKEVILLE PRINCETON","streettype":"HWY","suffdir":null,"city":"PIKEVILLE","state_code":"NC","zip5":"27863","latitude":"35.4953820000000000","longitude":"-78.039321000000000","publicwifi":"U","url":"http://www.davidson.k12.nc.us/nwest/nwest.htm","broadband_type_id":6}
{"id":null,"anchorname":"Commerce","address":"206 SOUTHGATE DR Boone, NC 28607","bldgnbr":"206","predir":null,"streetname":"SOUTHGATE","streettype":"DR","suffdir":null,"city":"Boone","state_code":"NC","zip5":"28607","latitude":"36.1984621670000000","longitude":"-81.660268525000000","publicwifi":"U","url":null,"broadband_type_id":null}
{"id":null,"anchorname":"Boone Ind. Living","address":"245 WINKLERS CREEK RD Boone, NC 28697","bldgnbr":"245","predir":null,"streetname":"Winklers Creek","streettype":"Road","suffdir":null,"city":"Boone","state_code":"NC","zip5":"28697","latitude":"36.2034261290000000","longitude":"-81.669770395000000","publicwifi":"U","url":null,"broadband_type_id":null}
{"id":null,"anchorname":"CDSA -Blue Ridge Developmental Eval Ctr","address":"2359 STHY 105 Boone, NC 28607-4996","bldgnbr":"2359","predir":null,"streetname":"State Hwy 105","streettype":null,"suffdir":null,"city":"Boone","state_code":"NC","zip5":"28607","latitude":"36.2045871790000000","longitude":"-81.692979737000000","publicwifi":"U","url":null,"broadband_type_id":null}
{"id":null,"anchorname":"NORWAYNE MIDDLE","address":"1394 NORWAYNE SCHOOL RD, FREMONT, NC 27830","bldgnbr":"1394","predir":null,"streetname":"NORWAYNE SCHOOL","streettype":"RD","suffdir":null,"city":"FREMONT","state_code":"NC","zip5":"27830","latitude":"35.5153760000000000","longitude":"-77.952090000000000","publicwifi":"U","url":"http://www.waynecountyschools.org/360/","broadband_type_id":6}
{"id":null,"anchorname":"DMV Driver's License","address":"4469 BAMBOO RD Boone, NC 28607","bldgnbr":"4469","predir":null,"streetname":"BAMBOO","streettype":"RD","suffdir":null,"city":"Boone","state_code":"NC","zip5":"28607","latitude":"36.2054133300000000","longitude":"-81.622901117000000","publicwifi":"U","url":null,"broadband_type_id":null}
{"id":null,"anchorname":"Pikeville-Pleasant Grove","address":"105 SW Railroad St Pikeville, NC 27863-0457","bldgnbr":"105","predir":"SW","streetname":"Railroad","streettype":"St","suffdir":null,"city":"Pikeville","state_code":"NC","zip5":"27863","latitude":"35.4966000000000000","longitude":"-78.033800000000000","publicwifi":"U","url":null,"broadband_type_id":null}
{"id":null,"anchorname":"Fremont","address":"202 N. Goldsboro St. Fremont, NC 27830","bldgnbr":"202","predir":"N","streetname":"Goldsboro","streettype":"St.","suffdir":null,"city":"Fremont","state_code":"NC","zip5":"27830","latitude":"35.5451661220000000","longitude":"-77.974237347000000","publicwifi":"Y","url":null,"broadband_type_id":null}
{"id":null,"anchorname":"Town of Boone Fire Department","address":"729 W King St Boone, NC 28607-3423","bldgnbr":"729","predir":"W","streetname":"King","streettype":"St","suffdir":null,"city":"Boone","state_code":"NC","zip5":"28607","latitude":"36.2192000000000000","longitude":"-81.685100000000000","publicwifi":"U","url":null,"broadband_type_id":5}
{"id":null,"anchorname":"ADHD Watauga Co Health Dept","address":"126 Poplar Grove Connector Boone, NC 28607","bldgnbr":"126","predir":null,"streetname":"Poplar Grove","streettype":"Grove","suffdir":null,"city":"Boone","state_code":"NC","zip5":"28607","latitude":"36.2190162980000000","longitude":"-81.687579831000000","publicwifi":"U","url":null,"broadband_type_id":3}
{"id":null,"anchorname":"APPALACHIAN STATE UNIVERSITY CAMPUS POLICE","address":"461 RIVERS STREET BOONE, NC 28608","bldgnbr":"461","predir":null,"streetname":"RIVERS","streettype":"STREET","suffdir":null,"city":"BOONE","state_code":"NC","zip5":"28608","latitude":"36.2122205000000000","longitude":"-81.680623200000000","publicwifi":"U","url":null,"broadband_type_id":4}
{"id":null,"anchorname":"Appalachian Regional Healthcare System: Watauga Medical Center, Inc. (H043)","address":"336 Deerfield Road Boone, NC 28607","bldgnbr":"336","predir":null,"streetname":"Deerfield","streettype":"Road","suffdir":null,"city":"Boone","state_code":"NC","zip5":"28607","latitude":"36.2009456450000000","longitude":"-81.650538479000000","publicwifi":"U","url":null,"broadband_type_id":3}
{"id":null,"anchorname":"BOONE POLICE DEPARTMENT","address":"1500 BLOWING ROCK ROAD BOONE, NC 28607","bldgnbr":"1500","predir":null,"streetname":"BLOWING ROCK","streettype":"ROAD","suffdir":null,"city":"BOONE","state_code":"NC","zip5":"28607","latitude":"36.2010115000000000","longitude":"-81.662570400000000","publicwifi":"U","url":null,"broadband_type_id":4}
{"id":null,"anchorname":"Beech Mountain Volunteer Fire","address":"Parking Lot 4 Banner Elk, NC 28604","bldgnbr":"0","predir":null,"streetname":"Parking Lot 4","streettype":null,"suffdir":null,"city":"Banner Elk","state_code":"NC","zip5":"28604","latitude":"36.1805000000000000","longitude":"-81.745000000000000","publicwifi":"U","url":null,"broadband_type_id":5}
{"id":null,"anchorname":"PARKWAY ELEMENTARY","address":"160 PARKWAY SCHOOL DR, BOONE, NC 28607","bldgnbr":"160","predir":null,"streetname":"PARKWAY SCHOOL","streettype":"DR","suffdir":null,"city":"BOONE","state_code":"NC","zip5":"28607","latitude":"36.2306360000000000","longitude":"-81.563160000000000","publicwifi":"U","url":"http://www.watauga.k12.nc.us/pk/","broadband_type_id":2}
{"id":null,"anchorname":"Town of Blowing Rock Fire Department","address":"8001 Valley Blvd Blowing Rock, NC 28605-9049","bldgnbr":"8001","predir":null,"streetname":"Vly","streettype":"Blvd","suffdir":null,"city":"Blowing Rock","state_code":"NC","zip5":"28605","latitude":"36.1316000000000000","longitude":"-81.671300000000000","publicwifi":"U","url":null,"broadband_type_id":5}
{"id":null,"anchorname":"BLOWING ROCK POLICE DEPARTMENT","address":"143 PARK AVENUE BLOWING ROCK, NC 28605","bldgnbr":"143","predir":null,"streetname":"PARK","streettype":"AVENUE","suffdir":null,"city":"BLOWING ROCK","state_code":"NC","zip5":"28605","latitude":"36.1336453000000000","longitude":"-81.679134700000000","publicwifi":"U","url":null,"broadband_type_id":4}
{"id":null,"anchorname":"Shawneehaw Volunteer Fire Dept","address":"171 Rominger Rd Banner Elk, NC 28604-8312","bldgnbr":"171","predir":null,"streetname":"Rominger","streettype":"Rd","suffdir":null,"city":"Banner Elk","state_code":"NC","zip5":"28604","latitude":"36.1934000000000000","longitude":"-81.809900000000000","publicwifi":"U","url":null,"broadband_type_id":5}
{"id":null,"anchorname":"SEVEN DEVILS POLICE DEPARTMENT","address":"1356 SEVEN DEVILS ROAD SEVEN DEVILS, NC 28604","bldgnbr":"1356","predir":null,"streetname":"SEVEN DEVILS","streettype":"ROAD","suffdir":null,"city":"SEVEN DEVILS","state_code":"NC","zip5":"28604","latitude":"36.1558001000000000","longitude":"-81.799262800000000","publicwifi":"U","url":null,"broadband_type_id":4}
{"id":null,"anchorname":"Foscoe Volunteer Fire Dept","address":"9230 Nc Highway 105 S Banner Elk, NC 28604-8644","bldgnbr":"9230","predir":null,"streetname":"Sthy 105","streettype":null,"suffdir":"S","city":"Banner Elk","state_code":"NC","zip5":"28604","latitude":"36.1566000000000000","longitude":"-81.778800000000000","publicwifi":"U","url":null,"broadband_type_id":5}
{"id":null,"anchorname":"Little River Volunteer Fire","address":"622 Gurley Dairy Rd NW Pikeville, NC 27863-8721","bldgnbr":"622","predir":null,"streetname":"Gurley Dairy","streettype":"Rd","suffdir":"NW","city":"Pikeville","state_code":"NC","zip5":"27863","latitude":"35.4688000000000000","longitude":"-78.070700000000000","publicwifi":"U","url":null,"broadband_type_id":5}
{"id":null,"anchorname":"PIKEVILLE POLICE DEPARTMENT","address":"112 SOUTHWEST RAILROAD STREET PIKEVILLE, NC 27863","bldgnbr":"112","predir":"SW","streetname":"RAILROAD","streettype":"STREET","suffdir":null,"city":"PIKEVILLE","state_code":"NC","zip5":"27863","latitude":"35.4964838000000000","longitude":"-77.983981100000000","publicwifi":"U","url":null,"broadband_type_id":4}
{"id":null,"anchorname":"Town of Fremont Fire Department","address":"406 N Sycamore St Fremont, NC 27830-0417","bldgnbr":"406","predir":"N","streetname":"Sycamore","streettype":"St","suffdir":null,"city":"Fremont","state_code":"NC","zip5":"27830","latitude":"35.5475000000000000","longitude":"-77.971800000000000","publicwifi":"U","url":null,"broadband_type_id":5}
{"id":null,"anchorname":"CITY OF FREMONT POLICE DEPARTMENT","address":"120 E MAIN ST FREMONT, NC 27830","bldgnbr":"120","predir":"E","streetname":"MAIN","streettype":"ST","suffdir":null,"city":"FREMONT","state_code":"NC","zip5":"27830","latitude":"35.5437277000000000","longitude":"-77.974785800000000","publicwifi":"U","url":null,"broadband_type_id":4}
{"id":null,"anchorname":"Aycock Birth Place","address":"264 GOVERNOR AYCOCK RD Fremont, NC 27830","bldgnbr":"264","predir":null,"streetname":"Governor Aycock","streettype":"Road","suffdir":null,"city":"Fremont","state_code":"NC","zip5":"27830","latitude":"35.5201746250000000","longitude":"-77.976044300000000","publicwifi":"U","url":null,"broadband_type_id":null}
{"id":null,"anchorname":"Memorial Missionary Baptist Church","address":"11424 Hickman Mills Dr.","bldgnbr":"11424","predir":null,"streetname":"Hickman Mills Dr.","streettype":null,"suffdir":null,"city":"KANSAS CITY","state_code":"MO","zip5":"64134","latitude":"38.9164010000000000","longitude":"-94.523702700000000","publicwifi":null,"url":null,"broadband_type_id":6}
{"id":null,"anchorname":"EASTERN WAYNE HIGH","address":"1135 NEW HOPE RD, GOLDSBORO, NC 27534","bldgnbr":"1135","predir":null,"streetname":"NEW HOPE","streettype":"RD","suffdir":null,"city":"GOLDSBORO","state_code":"NC","zip5":"27534","latitude":"35.3666010000000000","longitude":"-77.876103000000000","publicwifi":"U","url":"http://www.waynecountyschools.org/330/","broadband_type_id":6}
{"id":null,"anchorname":"Community Correction","address":"108 W MAIN ST Mount Olive, NC 28365","bldgnbr":"108","predir":"W","streetname":"MAIN","streettype":"ST","suffdir":null,"city":"Mount Olive","state_code":"NC","zip5":"28365","latitude":"35.1962453690000000","longitude":"-78.067460546000000","publicwifi":"U","url":null,"broadband_type_id":1}
{"id":null,"anchorname":"Pikeville, Town of Inc","address":"2830 Antioch Rd NE Pikeville, NC 27863-8955","bldgnbr":"2830","predir":null,"streetname":"Antioch","streettype":"Rd","suffdir":"NE","city":"Pikeville","state_code":"NC","zip5":"27863","latitude":"35.4981000000000000","longitude":"-77.927300000000000","publicwifi":"U","url":null,"broadband_type_id":null}
{"id":null,"anchorname":"EASTERN WAYNE MIDDLE","address":"3518 CENTRAL HEIGHTS RD, GOLDSBORO, NC 27534","bldgnbr":"3518","predir":null,"streetname":"CENTRAL HEIGHTS","streettype":"RD","suffdir":null,"city":"GOLDSBORO","state_code":"NC","zip5":"27534","latitude":"35.3837140000000000","longitude":"-77.910592000000000","publicwifi":"U","url":"http://www.waynecountyschools.org/331/","broadband_type_id":6}
{"id":null,"anchorname":"Mechanic's Shop","address":"4685 N USHY 117 Pikeville, NC 27863","bldgnbr":"4685","predir":"N","streetname":"USHY 117","streettype":null,"suffdir":null,"city":"Pikeville","state_code":"NC","zip5":"27863","latitude":"35.4895502720000000","longitude":"-77.981880908000000","publicwifi":"U","url":null,"broadband_type_id":null}
{"id":null,"anchorname":"CHARLES B AYCOCK HIGH","address":"5460 US 117 NORTH, PIKEVILLE, NC 27863","bldgnbr":"5460","predir":null,"streetname":"US 117","streettype":"HWY","suffdir":"NORTH","city":"PIKEVILLE","state_code":"NC","zip5":"27863","latitude":"35.5067960000000000","longitude":"-77.981412000000000","publicwifi":"U","url":"http://www.waynecountyschools.org/324/","broadband_type_id":6}
{"id":null,"anchorname":"BROGDEN PRIMARY","address":"2253 OLD MT OLIVE HWY, DUDLEY, NC 28333","bldgnbr":"2253","predir":null,"streetname":"OLD MT OLIVE","streettype":"HWY","suffdir":null,"city":"DUDLEY","state_code":"NC","zip5":"28333","latitude":"35.2707600000000000","longitude":"-78.037043000000000","publicwifi":"U","url":"http://www.waynecountyschools.org/314/","broadband_type_id":null}
{"id":null,"anchorname":"Mountain Gateway Tourism MOH","address":"212 E MAIN ST Old Fort, NC 28762","bldgnbr":"212","predir":"E","streetname":"MAIN","streettype":"ST","suffdir":null,"city":"Old Fort","state_code":"NC","zip5":"28762","latitude":"35.4969575360000000","longitude":"-77.979075340000000","publicwifi":"U","url":null,"broadband_type_id":2}
{"id":null,"anchorname":"NORTHEAST ELEMENTARY","address":"4665 NC HWY 111 NORTH, PIKEVILLE, NC 27863","bldgnbr":"4665","predir":null,"streetname":"NC 111","streettype":"HWY","suffdir":"NORTH","city":"PIKEVILLE","state_code":"NC","zip5":"27863","latitude":"35.4808880000000000","longitude":"-77.908690000000000","publicwifi":"U","url":"http://www.beaufort.k12.nc.us/nes/","broadband_type_id":6}
{"id":null,"anchorname":"D4 Goldsboro Res. Eng. Field Off.","address":"327 TOMMY'S RD Goldsboro, NC 27530","bldgnbr":"327","predir":null,"streetname":"TOMMY'S","streettype":"RD","suffdir":null,"city":"Goldsboro","state_code":"NC","zip5":"27530","latitude":"35.4256112080000000","longitude":"-77.971890671000000","publicwifi":"U","url":null,"broadband_type_id":6}
{"id":null,"anchorname":"SPRING CREEK ELEMENTARY","address":"1050 ST JOHN CHURCH RD, GOLDSBORO, NC 27534","bldgnbr":"1050","predir":null,"streetname":"ST JOHN CHURCH","streettype":"RD","suffdir":null,"city":"GOLDSBORO","state_code":"NC","zip5":"27534","latitude":"35.2796610000000000","longitude":"-77.863970000000000","publicwifi":"U","url":"http://www.waynecountyschools.org/382/","broadband_type_id":6}
{"id":null,"anchorname":"Seven Springs","address":"506 Church St. Seven Springs, NC 28578","bldgnbr":"506","predir":null,"streetname":"Church","streettype":"St.","suffdir":null,"city":"Seven Springs","state_code":"NC","zip5":"28578","latitude":"35.2246250000000000","longitude":"-77.845750000000000","publicwifi":"Y","url":null,"broadband_type_id":null}
{"id":null,"anchorname":"SPRING CREEK HIGH","address":"4340 INDIAN SPRINGS RD, SEVEN SPRINGS, NC 28578","bldgnbr":"4340","predir":null,"streetname":"INDIAN SPRINGS","streettype":"RD","suffdir":null,"city":"SEVEN SPRINGS","state_code":"NC","zip5":"28578","latitude":"35.2278120000000000","longitude":"-77.894947000000000","publicwifi":"U","url":"http://www.waynecountyschools.org/386/","broadband_type_id":6}
{"id":null,"anchorname":"CARVER ELEMENTARY","address":"400 OLD SEVEN SPRINGS RD, MOUNT OLIVE, NC 28365","bldgnbr":"400","predir":null,"streetname":"OLD SEVEN SPRINGS","streettype":"RD","suffdir":null,"city":"MOUNT OLIVE","state_code":"NC","zip5":"28365","latitude":"35.2006000000000000","longitude":"-78.052840000000000","publicwifi":"U","url":"http://www.vcs.k12.nc.us/Carver","broadband_type_id":6}
{"id":null,"anchorname":"SOUTHERN WAYNE HIGH","address":"124 WALTER FULCHER RD, DUDLEY, NC 28333","bldgnbr":"124","predir":null,"streetname":"WALTER FULCHER","streettype":"RD","suffdir":null,"city":"DUDLEY","state_code":"NC","zip5":"28333","latitude":"35.2546860000000000","longitude":"-78.045258000000000","publicwifi":"U","url":"http://www.waynecountyschools.org/380/","broadband_type_id":6}
{"id":null,"anchorname":"DMV Driver's License","address":"110 N CHESTNUT ST Mount Olive, NC 28365","bldgnbr":"110","predir":"N","streetname":"CHESTNUT","streettype":"ST","suffdir":null,"city":"Mount Olive","state_code":"NC","zip5":"28365","latitude":"35.1966330530000000","longitude":"-78.067416349000000","publicwifi":"U","url":null,"broadband_type_id":null}
{"id":null,"anchorname":"BROGDEN MIDDLE","address":"3761 US 117 SOUTH ALT, DUDLEY, NC 28333","bldgnbr":"3761","predir":null,"streetname":"US 117 ALT","streettype":"HWY","suffdir":"SOUTH","city":"DUDLEY","state_code":"NC","zip5":"28333","latitude":"35.2873940000000000","longitude":"-78.037446000000000","publicwifi":"U","url":"http://www.brogden.dpsnc.net/","broadband_type_id":6}
{"id":null,"anchorname":"DMV Tag Office","address":"1130E N BREAZEALE AVE Mt Olive, NC 28365","bldgnbr":"1130","predir":"N","streetname":"BREAZEALE","streettype":"AVE","suffdir":null,"city":"Mount Olive","state_code":"NC","zip5":"28365","latitude":"35.2196915340000000","longitude":"-78.057624519000000","publicwifi":"U","url":null,"broadband_type_id":null}
{"id":null,"anchorname":"GRANTHAM","address":"174 GRANTHAM SCHOOL RD, GOLDSBORO, NC 27530","bldgnbr":"174","predir":null,"streetname":"GRANTHAM SCHOOL","streettype":"RD","suffdir":null,"city":"GOLDSBORO","state_code":"NC","zip5":"27530","latitude":"35.2946690000000000","longitude":"-78.165798000000000","publicwifi":"U","url":"http://www.waynecountyschools.org/336/","broadband_type_id":null}
{"id":null,"anchorname":"New Hope Volunteer Fire Dept","address":"583 Mark Edwards Rd La Grange, NC 28551-7551","bldgnbr":"583","predir":null,"streetname":"Mark Edwards","streettype":"Rd","suffdir":null,"city":"La Grange","state_code":"NC","zip5":"28551","latitude":"35.3874000000000000","longitude":"-77.867200000000000","publicwifi":"U","url":null,"broadband_type_id":5}
{"id":null,"anchorname":"Pikeville Public Library","address":"107 W. Main St. Pikeville, NC 27863","bldgnbr":"107","predir":"W","streetname":"Main","streettype":"St.","suffdir":null,"city":"Pikeville","state_code":"NC","zip5":"27863","latitude":"35.4973077890000000","longitude":"-77.982313872000000","publicwifi":"Y","url":null,"broadband_type_id":6}
{"id":null,"anchorname":"WALNUT CREEK POLICE DEPARTMENT","address":"100 VILLAGE DRIVE GOLDSBORO, NC 27534","bldgnbr":"100","predir":null,"streetname":"VILLAGE","streettype":"DRIVE","suffdir":null,"city":"GOLDSBORO","state_code":"NC","zip5":"27534","latitude":"35.3012228000000000","longitude":"-77.866545300000000","publicwifi":"U","url":null,"broadband_type_id":4}
{"id":null,"anchorname":"Cliffs of the Neuse State Park","address":"345A PARK ENTRANCE RD Seven Springs, NC 28578","bldgnbr":"345","predir":null,"streetname":"Park Entrance","streettype":"Road","suffdir":null,"city":"Seven Springs","state_code":"NC","zip5":"28578","latitude":"35.2358334050000000","longitude":"-77.892286353000000","publicwifi":"U","url":null,"broadband_type_id":2}
{"id":null,"anchorname":"East District Office/Parks and Rec","address":"345B PARK ENTRANCE RD Seven Springs, NC 28578","bldgnbr":"345","predir":null,"streetname":"Park Entrance","streettype":"Road","suffdir":null,"city":"Seven Springs","state_code":"NC","zip5":"28578","latitude":"35.2358334050000000","longitude":"-77.892286353000000","publicwifi":"U","url":null,"broadband_type_id":2}
{"id":null,"anchorname":"NORTH CAROLINA DIVISION OF PARKS - CLIFFS OF THE","address":"345 PARK ENTRANCE ROAD SEVEN SPRINGS, NC 28578","bldgnbr":"345","predir":null,"streetname":"PARK ENTRANCE","streettype":"ROAD","suffdir":null,"city":"SEVEN SPRINGS","state_code":"NC","zip5":"28578","latitude":"35.2377701000000000","longitude":"-77.890162600000000","publicwifi":"U","url":null,"broadband_type_id":2}
{"id":null,"anchorname":"Pricetown Volunteer Fire Dept","address":"2021 Zion Church Rd Mount Olive, NC 28365-9057","bldgnbr":"2021","predir":null,"streetname":"Zion Church","streettype":"Rd","suffdir":null,"city":"Mount Olive","state_code":"NC","zip5":"28365","latitude":"35.1689000000000000","longitude":"-77.892700000000000","publicwifi":"U","url":null,"broadband_type_id":5}
{"id":null,"anchorname":"MOUNT OLIVE POLICE DEPARTMENT","address":"114 EAST JAMES STREET MOUNT OLIVE, NC 28365","bldgnbr":"114","predir":"E","streetname":"JAMES","streettype":"STREET","suffdir":null,"city":"MOUNT OLIVE","state_code":"NC","zip5":"28365","latitude":"35.1958308000000000","longitude":"-78.065848100000000","publicwifi":"U","url":null,"broadband_type_id":4}
{"id":null,"anchorname":"Steele Memorial Library","address":"111 N. Chestnut St Mt. Olive, NC 28365","bldgnbr":"111","predir":"N","streetname":"Chestnut","streettype":"St","suffdir":null,"city":"Mt Olive","state_code":"NC","zip5":"28365","latitude":"35.1964259190000000","longitude":"-78.068127348000000","publicwifi":"Y","url":null,"broadband_type_id":6}
{"id":null,"anchorname":"Mount Olive College","address":"634 Henderson St. Mount Olive, NC  28365","bldgnbr":"634","predir":null,"streetname":"Henderson","streettype":"St.","suffdir":null,"city":"Mount Olive","state_code":"NC","zip5":"28365","latitude":"35.2078201890000000","longitude":"-78.071050000000000","publicwifi":"U","url":null,"broadband_type_id":6}
{"id":null,"anchorname":"Town of Mount Olive Fire Department","address":"401 NW Center St Mount Olive, NC 28365-1609","bldgnbr":"401","predir":"NW","streetname":"Center","streettype":"St","suffdir":null,"city":"Mount Olive","state_code":"NC","zip5":"28365","latitude":"35.1986000000000000","longitude":"-78.064600000000000","publicwifi":"U","url":null,"broadband_type_id":5}
{"id":null,"anchorname":"Mar Mac Volunteer Fire Dept","address":"583 Old Grantham Rd Goldsboro, NC 27530-8519","bldgnbr":"583","predir":null,"streetname":"Old Grantham","streettype":"Rd","suffdir":null,"city":"Goldsboro","state_code":"NC","zip5":"27530","latitude":"35.3360000000000000","longitude":"-78.047400000000000","publicwifi":"U","url":null,"broadband_type_id":5}
{"id":null,"anchorname":"Grantham Volunteer Fire Dept","address":"3430 US Highway 13 S Goldsboro, NC 27530-1025","bldgnbr":"3430","predir":null,"streetname":"US Hwy 13","streettype":null,"suffdir":"S","city":"Goldsboro","state_code":"NC","zip5":"27530","latitude":"35.2967000000000000","longitude":"-78.166000000000000","publicwifi":"U","url":null,"broadband_type_id":5}
{"id":null,"anchorname":"MUG - Neuse Correctional Facility","address":"701 STEVENS MILL RD Goldsboro, NC 27530-9712","bldgnbr":"701","predir":null,"streetname":"Stevens Mill","streettype":"Road","suffdir":null,"city":"Goldsboro","state_code":"NC","zip5":"27530","latitude":"35.3867489440000000","longitude":"-78.038252778000000","publicwifi":"U","url":null,"broadband_type_id":null}
{"id":null,"anchorname":"WAYNE ACADEMY","address":"801 NORTH LIONEL ST, GOLDSBORO, NC 27530","bldgnbr":"801","predir":"NORTH","streetname":"LIONEL","streettype":"ST","suffdir":null,"city":"GOLDSBORO","state_code":"NC","zip5":"27530","latitude":"35.3876800000000000","longitude":"-77.982374000000000","publicwifi":"U","url":"http://www.waynecountyschools.org/337/","broadband_type_id":6}
{"id":null,"anchorname":"Second Missionary Baptist Church","address":"5111 Harry Truman Dr.","bldgnbr":"5111","predir":null,"streetname":"Harry Truman Dr.","streettype":null,"suffdir":null,"city":"GRANDVIEW","state_code":"MO","zip5":"64030","latitude":"38.8985791000000000","longitude":"-94.532188900000000","publicwifi":null,"url":null,"broadband_type_id":6}
{"id":null,"anchorname":"ROSEWOOD HIGH","address":"900 ROSEWOOD RD, GOLDSBORO, NC 27530","bldgnbr":"900","predir":null,"streetname":"ROSEWOOD","streettype":"RD","suffdir":null,"city":"GOLDSBORO","state_code":"NC","zip5":"27530","latitude":"35.4140870000000000","longitude":"-78.073068000000000","publicwifi":"U","url":"http://www.waynecountyschools.org/372/","broadband_type_id":6}
{"id":null,"anchorname":"O'BERRY CENTER","address":"400 OLD SMITHFIELD RD, GOLDSBORO, NC 27530","bldgnbr":"400","predir":null,"streetname":"OLD SMITHFIELD","streettype":"RD","suffdir":null,"city":"GOLDSBORO","state_code":"NC","zip5":"27530","latitude":"35.3984310000000000","longitude":"-78.035062000000000","publicwifi":"U","url":null,"broadband_type_id":null}
{"id":null,"anchorname":"DHR - O'Berry Center","address":"400 OLD SMITHFIELD RD Goldsboro, NC 27530-8464","bldgnbr":"400","predir":null,"streetname":"Old Smithfield","streettype":"Road","suffdir":null,"city":"Goldsboro","state_code":"NC","zip5":"27530","latitude":"35.4008953800000000","longitude":"-78.032294190000000","publicwifi":"U","url":null,"broadband_type_id":null}
{"id":null,"anchorname":"Enterprise - Chase Laundry","address":"201 STEPHEN MILLS RD Goldsboro, NC 27530","bldgnbr":"201","predir":null,"streetname":"Stephens Mills","streettype":"Road","suffdir":null,"city":"Goldsboro","state_code":"NC","zip5":"27530","latitude":"35.3915714960000000","longitude":"-78.029736085000000","publicwifi":"U","url":null,"broadband_type_id":6}
{"id":null,"anchorname":"DOT Div 4 District Engineer","address":"2671 USHY 70  W Goldsboro, NC 27530-9555","bldgnbr":"2671","predir":null,"streetname":"US Hwy 70","streettype":null,"suffdir":"W","city":"Goldsboro","state_code":"NC","zip5":"27530","latitude":"35.4276236380000000","longitude":"-78.063615450000000","publicwifi":"U","url":null,"broadband_type_id":6}
{"id":null,"anchorname":"Civil War Office","address":"801 USHY 117 BYPASS Goldsboro, NC 27530","bldgnbr":"801","predir":null,"streetname":"US Hwy 117 Bypass","streettype":null,"suffdir":null,"city":"Goldsboro","state_code":"NC","zip5":"27530","latitude":"35.4045206620000000","longitude":"-77.989172155000000","publicwifi":"U","url":null,"broadband_type_id":null}
{"id":null,"anchorname":"DOT-Image","address":"701 GRANTHAM ST Goldsboro, NC 27530-1916","bldgnbr":"701","predir":null,"streetname":"GRANTHAM","streettype":"ST","suffdir":null,"city":"Goldsboro","state_code":"NC","zip5":"27530","latitude":"35.3984660370000000","longitude":"-78.001753644000000","publicwifi":"U","url":null,"broadband_type_id":null}
{"id":null,"anchorname":"Goldsboro Voc Rehab","address":"2719 GRAVES DR Goldsboro, NC 27534","bldgnbr":"2719","predir":null,"streetname":"GRAVES","streettype":"DR","suffdir":null,"city":"Goldsboro","state_code":"NC","zip5":"27534","latitude":"35.3700333190000000","longitude":"-77.945916646000000","publicwifi":"U","url":null,"broadband_type_id":null}
{"id":null,"anchorname":"Forest Resources","address":"762 CLARIDGE NURSERY RD Goldsboro, NC 27530-7965","bldgnbr":"762","predir":null,"streetname":"Claridge Nursery","streettype":"Road","suffdir":null,"city":"Goldsboro","state_code":"NC","zip5":"27530","latitude":"35.4273859830000000","longitude":"-78.017587669000000","publicwifi":"U","url":null,"broadband_type_id":2}
{"id":null,"anchorname":"DART - Cherry","address":"1302 ASH ST Goldsboro, NC 27530","bldgnbr":"1302","predir":null,"streetname":"ASH","streettype":"ST","suffdir":null,"city":"Goldsboro","state_code":"NC","zip5":"27530","latitude":"35.3800440000000000","longitude":"-77.976736238000000","publicwifi":"U","url":null,"broadband_type_id":null}
{"id":null,"anchorname":"CARVER HEIGHTS","address":"411 BUNCHE DR, GOLDSBORO, NC 27530","bldgnbr":"411","predir":null,"streetname":"BUNCHE","streettype":"DR","suffdir":null,"city":"GOLDSBORO","state_code":"NC","zip5":"27530","latitude":"35.3661840000000000","longitude":"-77.996248000000000","publicwifi":"U","url":"http://www.waynecountyschools.org/318/","broadband_type_id":null}
{"id":null,"anchorname":"DMV - LTB","address":"201 W ASHE ST Goldsboro, NC 27530","bldgnbr":"201","predir":"W","streetname":"ASHE","streettype":"ST","suffdir":null,"city":"Goldsboro","state_code":"NC","zip5":"27530","latitude":"35.3866142060000000","longitude":"-77.997720729000000","publicwifi":"U","url":null,"broadband_type_id":null}
{"id":null,"anchorname":"DMV Tag Office","address":"511 N WILLIAMS ST Goldsboro, NC 27530","bldgnbr":"511","predir":"N","streetname":"WILLIAMS","streettype":"ST","suffdir":null,"city":"Goldsboro","state_code":"NC","zip5":"27530","latitude":"35.3882640000000000","longitude":"-77.991437000000000","publicwifi":"U","url":null,"broadband_type_id":null}
{"id":null,"anchorname":"Eastern Region VOC Rehab","address":"902 CORPORATE DR Goldsboro, NC 27534","bldgnbr":"902","predir":null,"streetname":"Corporate","streettype":"Drive","suffdir":null,"city":"Goldsboro","state_code":"NC","zip5":"27534","latitude":"35.3970443550000000","longitude":"-77.975124892000000","publicwifi":"U","url":null,"broadband_type_id":null}
{"id":null,"anchorname":"NORTH CAROLINA STATE HIGHWAY PATROL TROOP C DIST","address":"701 WEST GRANTHAM STREET GOLDSBORO, NC 27530","bldgnbr":"701","predir":"W","streetname":"GRANTHAM","streettype":"STREET","suffdir":null,"city":"GOLDSBORO","state_code":"NC","zip5":"27530","latitude":"35.3984429000000000","longitude":"-78.001794100000000","publicwifi":"U","url":null,"broadband_type_id":4}
{"id":null,"anchorname":"TOMMYS ROAD ELEMENTARY","address":"1150 TOMMY'S RD, GOLDSBORO, NC 27534","bldgnbr":"1150","predir":null,"streetname":"TOMMY'S","streettype":"RD","suffdir":null,"city":"GOLDSBORO","state_code":"NC","zip5":"27534","latitude":"35.4153290000000000","longitude":"-77.938261000000000","publicwifi":"U","url":"http://www.waynecountyschools.org/388/","broadband_type_id":6}
{"id":null,"anchorname":"GREENWOOD MIDDLE","address":"3209 EAST ASH ST, GOLDSBORO, NC 27534","bldgnbr":"3209","predir":"EAST","streetname":"ASH","streettype":"ST","suffdir":null,"city":"GOLDSBORO","state_code":"NC","zip5":"27534","latitude":"35.3655970000000000","longitude":"-77.942596000000000","publicwifi":"U","url":"http://www.waynecountyschools.org/340/","broadband_type_id":6}
{"id":null,"anchorname":"EDGEWOOD CMTY DEVELOPMENTAL","address":"1601 PEACHTREE ST, GOLDSBORO, NC 27530","bldgnbr":"1601","predir":null,"streetname":"PEACHTREE","streettype":"ST","suffdir":null,"city":"GOLDSBORO","state_code":"NC","zip5":"27530","latitude":"35.3803020000000000","longitude":"-77.972148000000000","publicwifi":"U","url":"http://www.waynecountyschools.org/332/","broadband_type_id":null}
{"id":null,"anchorname":"Oakland Volunteer Fire Dept","address":"674 Oakland Church Rd Princeton, NC 27569-7165","bldgnbr":"674","predir":null,"streetname":"Oakland Church","streettype":"Rd","suffdir":null,"city":"Princeton","state_code":"NC","zip5":"27569","latitude":"35.4097000000000000","longitude":"-78.127400000000000","publicwifi":"U","url":null,"broadband_type_id":5}
{"id":null,"anchorname":"DHR Cherry Hospital","address":"201 STEVENS MILL RD Goldsboro, NC 27530-1056","bldgnbr":"201","predir":null,"streetname":"Stevens Mill","streettype":"Road","suffdir":null,"city":"Goldsboro","state_code":"NC","zip5":"27530","latitude":"35.3915714960000000","longitude":"-78.029736085000000","publicwifi":"U","url":null,"broadband_type_id":3}
{"id":null,"anchorname":"RIVERBEND SCH, CHERRY HOSPITAL","address":"201 STEVENS MILL RD, GOLDSBORO, NC 27533","bldgnbr":"201","predir":null,"streetname":"STEVENS MILL","streettype":"RD","suffdir":null,"city":"GOLDSBORO","state_code":"NC","zip5":"27533","latitude":"35.3919730000000000","longitude":"-78.028454000000000","publicwifi":"U","url":null,"broadband_type_id":3}
{"id":null,"anchorname":"Wayne Community College","address":"3000 Wayne Memorial Dr Goldsboro, NC 27530","bldgnbr":"3000","predir":null,"streetname":"Wayne Memorial","streettype":"Drive","suffdir":null,"city":"Goldsboro","state_code":"NC","zip5":"27530","latitude":"35.4029890010000000","longitude":"-77.945839946000000","publicwifi":"U","url":null,"broadband_type_id":6}
{"id":null,"anchorname":"WAYNE SCHOOL OF ENGINEERING AT GOL","address":"901 EAST BEECH ST, GOLDSBORO, NC 27530","bldgnbr":"901","predir":"EAST","streetname":"BEECH","streettype":"ST","suffdir":null,"city":"GOLDSBORO","state_code":"NC","zip5":"27530","latitude":"35.3859740000000000","longitude":"-77.981178000000000","publicwifi":"U","url":"http://www.waynecountyschools.org/700/","broadband_type_id":6}
{"id":null,"anchorname":"Wayne County Public Library","address":"1001 E. Ash St Goldsboro, NC 27530","bldgnbr":"1001","predir":"E","streetname":"Ash","streettype":"St","suffdir":null,"city":"Goldsboro","state_code":"NC","zip5":"27530","latitude":"35.3819148990000000","longitude":"-77.980295604000000","publicwifi":"Y","url":null,"broadband_type_id":6}
{"id":null,"anchorname":"Wayne County Health Department","address":"301 N. Herman Street Goldsboro, NC 27530","bldgnbr":"301","predir":"N","streetname":"Herman","streettype":"Street","suffdir":null,"city":"Goldsboro","state_code":"NC","zip5":"27530","latitude":"35.3825650110000000","longitude":"-77.983319918000000","publicwifi":"U","url":null,"broadband_type_id":3}
{"id":null,"anchorname":"MEADOW LANE ELEMENTARY","address":"3500 EAST ASH ST, GOLDSBORO, NC 27534","bldgnbr":"3500","predir":"EAST","streetname":"ASH","streettype":"ST","suffdir":null,"city":"GOLDSBORO","state_code":"NC","zip5":"27534","latitude":"35.3637750000000000","longitude":"-77.936984000000000","publicwifi":"U","url":"http://www.waynecountyschools.org/344/","broadband_type_id":6}
{"id":null,"anchorname":"WAYNE EARLY/MIDDLE C","address":"3000 WAYNE MEMORIAL, GOLDSBORO, NC 27533","bldgnbr":"3000","predir":null,"streetname":"WAYNE MEMORIAL","streettype":null,"suffdir":null,"city":"GOLDSBORO","state_code":"NC","zip5":"27533","latitude":"35.4040400000000000","longitude":"-77.948070000000000","publicwifi":"U","url":"http://www.waynecountyschools.org/490/","broadband_type_id":6}
{"id":null,"anchorname":"ESC-Job Link","address":"309 N WILLIAM ST Goldsboro, NC 27530-3705","bldgnbr":"309","predir":"N","streetname":"WILLIAM","streettype":"ST","suffdir":null,"city":"Goldsboro","state_code":"NC","zip5":"27530","latitude":"35.3858660670000000","longitude":"-77.992393214000000","publicwifi":"U","url":null,"broadband_type_id":6}
{"id":null,"anchorname":"NORTH DRIVE ELEMENTARY","address":"1108 NORTH DR, GOLDSBORO, NC 27530","bldgnbr":"1108","predir":"NORTH","streetname":"DR","streettype":null,"suffdir":null,"city":"GOLDSBORO","state_code":"NC","zip5":"27530","latitude":"35.3873200000000000","longitude":"-77.963470000000000","publicwifi":"U","url":"http://www.waynecountyschools.org/390/","broadband_type_id":6}
{"id":null,"anchorname":"Wayne County Services On Aging","address":"2001 E Ash Street Goldsboro, NC 27530","bldgnbr":"2001","predir":"E","streetname":"Ash","streettype":"Street","suffdir":null,"city":"Goldsboro","state_code":"NC","zip5":"27530","latitude":"35.3779076050000000","longitude":"-77.965033056000000","publicwifi":"U","url":null,"broadband_type_id":6}
{"id":null,"anchorname":"GOLDSBORO HIGH","address":"901 EAST BEECH ST, GOLDSBORO, NC 27530","bldgnbr":"901","predir":"EAST","streetname":"BEECH","streettype":"ST","suffdir":null,"city":"GOLDSBORO","state_code":"NC","zip5":"27530","latitude":"35.3859740000000000","longitude":"-77.981178000000000","publicwifi":"U","url":"http://www.waynecountyschools.org/335/","broadband_type_id":6}
{"id":null,"anchorname":"John Knox Village","address":"520 NW. Murray Rd.","bldgnbr":"520","predir":null,"streetname":"NW. Murray Rd.","streettype":null,"suffdir":null,"city":"LEES SUMMIT","state_code":"MO","zip5":"64081","latitude":"38.9233193000000000","longitude":"-94.403943200000000","publicwifi":null,"url":null,"broadband_type_id":1}
{"id":null,"anchorname":"Department of Community Corrections","address":"221 E WALNUT ST Goldsboro, NC 27530","bldgnbr":"221","predir":"E","streetname":"WALNUT","streettype":"ST","suffdir":null,"city":"Goldsboro","state_code":"NC","zip5":"27530","latitude":"35.3839563160000000","longitude":"-77.999558751000000","publicwifi":"U","url":null,"broadband_type_id":1}
{"id":null,"anchorname":"C B ELLER ELEMENTARY","address":"1288 CB ELLER SCHOOL RD, ELKIN, NC 28621","bldgnbr":"1288","predir":null,"streetname":"CB ELLER SCHOOL","streettype":"RD","suffdir":null,"city":"ELKIN","state_code":"NC","zip5":"28621","latitude":"36.2704780000000000","longitude":"-80.884508000000000","publicwifi":"U","url":"http://www.wilkes.k12.nc.us/cbe/default.htm","broadband_type_id":6}
{"id":null,"anchorname":"Wayne Co Office of Juvenile Justice","address":"109 ORMOND AVE Goldsboro, NC 27530","bldgnbr":"109","predir":null,"streetname":"ORMOND","streettype":"AVE","suffdir":null,"city":"Goldsboro","state_code":"NC","zip5":"27530","latitude":"35.3818798620000000","longitude":"-77.995282649000000","publicwifi":"U","url":null,"broadband_type_id":null}
{"id":null,"anchorname":"Wayne Co. DCC","address":"109 ORMOND AVE Goldsboro, NC 27530-4858","bldgnbr":"109","predir":null,"streetname":"ORMOND","streettype":"AVE","suffdir":null,"city":"Goldsboro","state_code":"NC","zip5":"27530","latitude":"35.3818798620000000","longitude":"-77.995282649000000","publicwifi":"U","url":null,"broadband_type_id":null}
{"id":null,"anchorname":"Department of Community Corrections","address":"301 S CENTER ST Goldsboro, NC 27530-4848","bldgnbr":"301","predir":"S","streetname":"CENTER","streettype":"ST","suffdir":null,"city":"Goldsboro","state_code":"NC","zip5":"27530","latitude":"35.3804630220000000","longitude":"-77.998709930000000","publicwifi":"U","url":null,"broadband_type_id":1}
{"id":null,"anchorname":"EAST WILKES MIDDLE","address":"2202 MACEDONIA RD, RONDA, NC 28670","bldgnbr":"2202","predir":null,"streetname":"MACEDONIA","streettype":"RD","suffdir":null,"city":"RONDA","state_code":"NC","zip5":"28670","latitude":"36.2442930000000000","longitude":"-80.905456000000000","publicwifi":"U","url":"http://www.wilkes.k12.nc.us/ewms/","broadband_type_id":6}
{"id":null,"anchorname":"EAST WILKES HIGH","address":"13315 ELKIN HWY 268, RONDA, NC 28670","bldgnbr":"13315","predir":null,"streetname":"ELKIN 268","streettype":"HWY","suffdir":null,"city":"RONDA","state_code":"NC","zip5":"28670","latitude":"36.2288760000000000","longitude":"-80.923955000000000","publicwifi":"U","url":null,"broadband_type_id":6}
{"id":null,"anchorname":"ROARING RIVER ELEMENTARY","address":"283 WHITE PLAINS RD, ROARING RIVER, NC 28669","bldgnbr":"283","predir":null,"streetname":"WHITE PLAINS","streettype":"RD","suffdir":null,"city":"ROARING RIVER","state_code":"NC","zip5":"28669","latitude":"36.2069910000000000","longitude":"-81.003446000000000","publicwifi":"U","url":null,"broadband_type_id":6}
{"id":null,"anchorname":"TRAPHILL ELEMENTARY","address":"9794 TRAPHILL RD, TRAPHILL, NC 28685","bldgnbr":"9794","predir":null,"streetname":"TRAPHILL","streettype":"RD","suffdir":null,"city":"TRAPHILL","state_code":"NC","zip5":"28685","latitude":"36.3448190000000000","longitude":"-81.025358000000000","publicwifi":"U","url":"http://www.wilkes.k12.nc.us/traphill/default.htm","broadband_type_id":6}
{"id":null,"anchorname":"DILLARD ACADEMY","address":"504 WEST ELM ST, GOLDSBORO, NC 27530","bldgnbr":"504","predir":"WEST","streetname":"ELM","streettype":"ST","suffdir":null,"city":"GOLDSBORO","state_code":"NC","zip5":"27530","latitude":"35.3793490000000000","longitude":"-78.004562000000000","publicwifi":"U","url":null,"broadband_type_id":6}
{"id":null,"anchorname":"NORTH WILKES HIGH","address":"2986 TRAPHILL RD, HAYS, NC 28635","bldgnbr":"2986","predir":null,"streetname":"TRAPHILL","streettype":"RD","suffdir":null,"city":"HAYS","state_code":"NC","zip5":"28635","latitude":"36.2816030000000000","longitude":"-81.100111000000000","publicwifi":"U","url":null,"broadband_type_id":6}
{"id":null,"anchorname":"MOUNTAIN VIEW ELEMENTARY","address":"5464 MOUNTAIN VIEW RD, HAYS, NC 28635","bldgnbr":"5464","predir":null,"streetname":"MOUNTAIN VIEW","streettype":"RD","suffdir":null,"city":"HAYS","state_code":"NC","zip5":"28635","latitude":"36.2477800000000000","longitude":"-81.120302000000000","publicwifi":"U","url":"http://www.ashe.k12.nc.us/mves/web/home.htm","broadband_type_id":2}
{"id":null,"anchorname":"NORTH WILKES MIDDLE","address":"2776 YELLOW BANKS RD, NORTH WILKESBORO, NC 28659","bldgnbr":"2776","predir":null,"streetname":"YELLOW BANKS","streettype":"RD","suffdir":null,"city":"NORTH WILKESBORO","state_code":"NC","zip5":"28659","latitude":"36.2642720000000000","longitude":"-81.147915000000000","publicwifi":"U","url":null,"broadband_type_id":6}
{"id":null,"anchorname":"MULBERRY ELEMENTARY","address":"190 MULBERRY SCHOOL RD, NORTH WILKESBORO, NC 28659","bldgnbr":"190","predir":null,"streetname":"MULBERRY SCHOOL","streettype":"RD","suffdir":null,"city":"NORTH WILKESBORO","state_code":"NC","zip5":"28659","latitude":"36.2382490000000000","longitude":"-81.179952000000000","publicwifi":"U","url":null,"broadband_type_id":6}
{"id":null,"anchorname":"Wilkes Senior Resources","address":"228 Fairplains School Road North Wilkesboro, NC 28659","bldgnbr":"228","predir":null,"streetname":"Fairplains School","streettype":"Road","suffdir":null,"city":"North Wilkesboro","state_code":"NC","zip5":"28659","latitude":"36.1959636500000000","longitude":"-81.149316947000000","publicwifi":"U","url":"www.wilkesseniorcenter.org/","broadband_type_id":6}
{"id":null,"anchorname":"NORTH WILKESBORO ELEMENTARY","address":"200 FLINT HILL RD, NORTH WILKESBORO, NC 28659","bldgnbr":"200","predir":null,"streetname":"FLINT HILL","streettype":"RD","suffdir":null,"city":"NORTH WILKESBORO","state_code":"NC","zip5":"28659","latitude":"36.1783530000000000","longitude":"-81.141083000000000","publicwifi":"U","url":"http://www.wilkes.k12.nc.us/nwilkesboro/","broadband_type_id":6}
{"id":null,"anchorname":"NC Employment Security Commission","address":"320 WILKESBORO AVE North Wilkesboro, NC 28659-4228","bldgnbr":"320","predir":null,"streetname":"WILKESBORO","streettype":"AVE","suffdir":"N","city":"Wilkesboro","state_code":"NC","zip5":"28659","latitude":"36.1549844550000000","longitude":"-81.145124082000000","publicwifi":"U","url":null,"broadband_type_id":6}
{"id":null,"anchorname":"Vocational Rehabilitation","address":"318 WILKESBORO AVE North Wilkesboro, NC 28697","bldgnbr":"318","predir":null,"streetname":"WILKESBORO","streettype":"AVE","suffdir":null,"city":"North Wilkesboro","state_code":"NC","zip5":"28697","latitude":"36.1551295840000000","longitude":"-81.145052694000000","publicwifi":"U","url":null,"broadband_type_id":null}
{"id":null,"anchorname":"Children's Developmental Services","address":"505 THIRTEENTH ST North Wilkesboro, NC 28659","bldgnbr":"505","predir":null,"streetname":"THIRTEENTH","streettype":"ST","suffdir":"N","city":"Wilkesboro","state_code":"NC","zip5":"28659","latitude":"36.1594044600000000","longitude":"-81.153159376000000","publicwifi":"U","url":null,"broadband_type_id":6}
{"id":null,"anchorname":"DOT-Loc. \u0026 Survey","address":"723 MAIN ST N. Wilkesboro, NC 28659-4211","bldgnbr":"723","predir":null,"streetname":"MAIN","streettype":"ST","suffdir":"N.","city":"Wilkesboro","state_code":"NC","zip5":"28659","latitude":"36.1605055570000000","longitude":"-81.143888891000000","publicwifi":"U","url":null,"broadband_type_id":null}
{"id":null,"anchorname":"WAYNE COUNTY SHERIFF DEPARTMENT / WAYNE COUNTY J","address":"207 EAST CHESTNUT STREET GOLDSBORO, NC 27530","bldgnbr":"207","predir":"E","streetname":"CHESTNUT","streettype":"STREET","suffdir":null,"city":"GOLDSBORO","state_code":"NC","zip5":"27530","latitude":"35.3812712000000000","longitude":"-77.994675100000000","publicwifi":"U","url":null,"broadband_type_id":4}
{"id":null,"anchorname":"City of Goldsboro Fire Department","address":"204 S Center St Goldsboro, NC 27533-0008","bldgnbr":"204","predir":"S","streetname":"Center","streettype":"St","suffdir":null,"city":"Goldsboro","state_code":"NC","zip5":"27533","latitude":"35.3817000000000000","longitude":"-77.997500000000000","publicwifi":"U","url":null,"broadband_type_id":5}
{"id":null,"anchorname":"Goldsboro Fire Department","address":"204 S Center St Ste A Goldsboro, NC 27530-4867","bldgnbr":"204","predir":"S","streetname":"Center","streettype":"St","suffdir":null,"city":"Goldsboro","state_code":"NC","zip5":"27530","latitude":"35.3817000000000000","longitude":"-77.997500000000000","publicwifi":"U","url":null,"broadband_type_id":5}
{"id":null,"anchorname":"CITY OF GOLDSBORO POLICE DEPARTMENT","address":"204 S CENTER ST GOLDSBORO, NC 27530","bldgnbr":"204","predir":"S","streetname":"CENTER","streettype":"ST","suffdir":null,"city":"GOLDSBORO","state_code":"NC","zip5":"27530","latitude":"35.3813567000000000","longitude":"-77.997302200000000","publicwifi":"U","url":null,"broadband_type_id":4}
{"id":null,"anchorname":"Pleasant Hill Volunteer Fire","address":"1069 Austin Traphill Rd Elkin, NC 28621-0729","bldgnbr":"1069","predir":null,"streetname":"Austin Traphill","streettype":"Rd","suffdir":null,"city":"Elkin","state_code":"NC","zip5":"28621","latitude":"36.2594000000000000","longitude":"-80.890800000000000","publicwifi":"U","url":null,"broadband_type_id":5}
{"id":null,"anchorname":"Austin Volunteer Fire Dept","address":"7170 Austin Traphill Rd Elkin, NC 28621-9223","bldgnbr":"7170","predir":null,"streetname":"Austin Traphill","streettype":"Rd","suffdir":null,"city":"Elkin","state_code":"NC","zip5":"28621","latitude":"36.3140000000000000","longitude":"-80.960300000000000","publicwifi":"U","url":null,"broadband_type_id":5}
{"id":null,"anchorname":"Traphill Public Library","address":"6938 Traphill Road Traphill, NC 28685","bldgnbr":"6938","predir":null,"streetname":"Traphill","streettype":"Road","suffdir":null,"city":"Traphill","state_code":"NC","zip5":"28685","latitude":"36.3184785470000000","longitude":"-81.055289091000000","publicwifi":"Y","url":null,"broadband_type_id":6}
{"id":null,"anchorname":"Mount View Fire Department","address":"5416 Mountain View Rd North Wilkesboro, NC 28659","bldgnbr":"5416","predir":null,"streetname":"Mountain View","streettype":"Rd","suffdir":null,"city":"North Wilkesboro","state_code":"NC","zip5":"28659","latitude":"36.2331000000000000","longitude":"-81.129100000000000","publicwifi":"U","url":null,"broadband_type_id":5}
{"id":null,"anchorname":"McGrady Volunteer Fire Dept","address":"11461 Sparta Rd Mc Grady, NC 28649-0087","bldgnbr":"11461","predir":null,"streetname":"Sparta","streettype":"Rd","suffdir":null,"city":"Mc Grady","state_code":"NC","zip5":"28649","latitude":"36.3285000000000000","longitude":"-81.225700000000000","publicwifi":"U","url":null,"broadband_type_id":5}
{"id":null,"anchorname":"Mulberry Fairplains Fire","address":"2055 Sparta Rd North Wilkesboro, NC 28659-9708","bldgnbr":"2055","predir":null,"streetname":"Sparta","streettype":"Rd","suffdir":null,"city":"North Wilkesboro","state_code":"NC","zip5":"28659","latitude":"36.1774000000000000","longitude":"-81.145100000000000","publicwifi":"U","url":null,"broadband_type_id":5}
{"id":null,"anchorname":"North Wilkesboro Fire Dep","address":"709 9th St North Wilkesboro, NC 28659-4033","bldgnbr":"709","predir":null,"streetname":"9th","streettype":"St","suffdir":null,"city":"North Wilkesboro","state_code":"NC","zip5":"28659","latitude":"36.1649000000000000","longitude":"-81.150000000000000","publicwifi":"U","url":null,"broadband_type_id":5}
{"id":null,"anchorname":"Goshen Volunteer Fire Dept","address":"450 Hwy 268 Wilkesboro, NC 28697","bldgnbr":"450","predir":null,"streetname":"Hwy 268","streettype":null,"suffdir":null,"city":"Wilkesboro","state_code":"NC","zip5":"28697","latitude":"36.1535000000000000","longitude":"-81.146700000000000","publicwifi":"U","url":null,"broadband_type_id":5}
{"id":null,"anchorname":"CITY OF N WILKESBORO POLICE DEPARTMENT","address":"801 MAIN ST N WILKESBORO, NC 28659","bldgnbr":"801","predir":null,"streetname":"MAIN","streettype":"ST","suffdir":"N","city":"N WILKESBORO","state_code":"NC","zip5":"28659","latitude":"36.1596127000000000","longitude":"-81.145351800000000","publicwifi":"U","url":null,"broadband_type_id":4}
{"id":null,"anchorname":"Town Of Sims Fire Department","address":"264 Alt Sims Sims, NC 27880-0095","bldgnbr":"264","predir":null,"streetname":"Alt Sims","streettype":null,"suffdir":null,"city":"Sims","state_code":"NC","zip5":"27880","latitude":"35.7369000000000000","longitude":"-78.101300000000000","publicwifi":"U","url":null,"broadband_type_id":5}
{"id":null,"anchorname":"FIRST BAPTIST CHURCH OF OAK GROVE","address":"400 SE. 14th St.","bldgnbr":"400","predir":null,"streetname":"SE. 14th St.","streettype":null,"suffdir":null,"city":"OAK GROVE","state_code":"MO","zip5":"64075","latitude":"39.0025014990000000","longitude":"-94.125689469000000","publicwifi":null,"url":null,"broadband_type_id":6}
{"id":null,"anchorname":"DMV Tag Office","address":"85 BOONE TRAIL North Wilkesboro, NC 28659-3512","bldgnbr":"85","predir":null,"streetname":"Boone Trail","streettype":null,"suffdir":null,"city":"North Wilkesboro","state_code":"NC","zip5":"28659","latitude":"36.1591525960000000","longitude":"-81.164970134000000","publicwifi":"U","url":null,"broadband_type_id":null}
{"id":null,"anchorname":"WEST WILKES HIGH","address":"6598 BOONE TRAIL, MILLERS CREEK, NC 28651","bldgnbr":"6598","predir":null,"streetname":"BOONE","streettype":"TRAIL","suffdir":null,"city":"MILLERS CREEK","state_code":"NC","zip5":"28651","latitude":"36.1835750000000000","longitude":"-81.261503000000000","publicwifi":"U","url":"http://www.wilkes.k12.nc.us/WWHS/default.htm","broadband_type_id":6}
{"id":null,"anchorname":"Department of Community Corrections","address":"500 COURTHOUSE DR Wilkesboro, NC 28697","bldgnbr":"500","predir":null,"streetname":"COURTHOUSE","streettype":"DR","suffdir":null,"city":"Wilkesboro","state_code":"NC","zip5":"28697","latitude":"36.1435612740000000","longitude":"-81.150626263000000","publicwifi":"U","url":null,"broadband_type_id":1}
{"id":null,"anchorname":"WEST WILKES MIDDLE","address":"1677 NORTH NC HWY 16, WILKESBORO, NC 28697","bldgnbr":"1677","predir":"NORTH","streetname":"NC 16","streettype":"HWY","suffdir":null,"city":"WILKESBORO","state_code":"NC","zip5":"28697","latitude":"36.1724840000000000","longitude":"-81.240678000000000","publicwifi":"U","url":"http://www.wilkes.k12.nc.us/wwms/default.htm","broadband_type_id":6}
{"id":null,"anchorname":"MOUNT PLEASANT ELEMENTARY","address":"532 CHAMPION MT PLEASANT RD, FERGUSON, NC 28624","bldgnbr":"532","predir":null,"streetname":"CHAMPION MT PLEASANT","streettype":"RD","suffdir":null,"city":"FERGUSON","state_code":"NC","zip5":"28624","latitude":"36.1073230000000000","longitude":"-81.363205000000000","publicwifi":"U","url":"http://www.cabarrus.k12.nc.us/mpes/index.htm","broadband_type_id":6}
{"id":null,"anchorname":"BOOMER-FERGUSON ELEMENTARY","address":"556 BOOMERFERGUSON SCH RD, BOOMER, NC 28606","bldgnbr":"556","predir":null,"streetname":"BOOMERFERGUSON SCHOOL","streettype":"RD","suffdir":null,"city":"BOOMER","state_code":"NC","zip5":"28606","latitude":"36.0951940000000000","longitude":"-81.276305000000000","publicwifi":"U","url":"http://www.wilkes.k12.nc.us/boomer/default.htm","broadband_type_id":6}
{"id":null,"anchorname":"NORTH CAROLINA STATE HIGHWAY PATROL TROOP F DIST","address":"1230 SCHOOL STREET WILKESBORO, NC 28697","bldgnbr":"1230","predir":null,"streetname":"SCHOOL","streettype":"STREET","suffdir":null,"city":"WILKESBORO","state_code":"NC","zip5":"28697","latitude":"36.1365893000000000","longitude":"-81.177243900000000","publicwifi":"U","url":null,"broadband_type_id":4}
{"id":null,"anchorname":"WILKESBORO ELEMENTARY","address":"1248 SCHOOL ST, WILKESBORO, NC 28697","bldgnbr":"1248","predir":null,"streetname":"SCHOOL","streettype":"ST","suffdir":null,"city":"WILKESBORO","state_code":"NC","zip5":"28697","latitude":"36.1371650000000000","longitude":"-81.176724000000000","publicwifi":"U","url":"http://www.wilkes.k12.nc.us/wilkesboro/default.htm","broadband_type_id":6}
{"id":null,"anchorname":"WILKES CENTRAL HIGH","address":"1179 MORAVIAN FALLS RD, WILKESBORO, NC 28697","bldgnbr":"1179","predir":null,"streetname":"MORAVIAN FALLS","streettype":"RD","suffdir":null,"city":"WILKESBORO","state_code":"NC","zip5":"28697","latitude":"36.1046870000000000","longitude":"-81.180839000000000","publicwifi":"U","url":"http://www.wilkes.k12.nc.us/central/default.htm","broadband_type_id":6}
{"id":null,"anchorname":"CENTRAL WILKES MIDDLE","address":"3541 SOUTH NC HWY 16, MORAVIAN FALLS, NC 28654","bldgnbr":"3541","predir":"SOUTH","streetname":"NC 16","streettype":"HWY","suffdir":null,"city":"MORAVIAN FALLS","state_code":"NC","zip5":"28654","latitude":"36.0969500000000000","longitude":"-81.176780000000000","publicwifi":"U","url":"http://www.wilkes.k12.nc.us/cwms/","broadband_type_id":6}
{"id":null,"anchorname":"DMV Driver's License","address":"1230 SCHOOL ST Wilkesboro, NC 28697-2625","bldgnbr":"1230","predir":null,"streetname":"SCHOOL","streettype":"ST","suffdir":null,"city":"Wilkesboro","state_code":"NC","zip5":"28697","latitude":"36.1364614710000000","longitude":"-81.177122991000000","publicwifi":"U","url":null,"broadband_type_id":null}
{"id":null,"anchorname":"Quality Assurance Lab","address":"361 COTHREN ST Wilkesboro, NC 28697-2521","bldgnbr":"361","predir":null,"streetname":"COTHREN","streettype":"ST","suffdir":null,"city":"Wilkesboro","state_code":"NC","zip5":"28697","latitude":"36.1511517480000000","longitude":"-81.147806299000000","publicwifi":"U","url":null,"broadband_type_id":null}
{"id":null,"anchorname":"DOT D11 DIVISION COMPLEX","address":"709 STATESVILLE RD North Wilkesboro, NC 28659","bldgnbr":"709","predir":null,"streetname":"STATESVILLE","streettype":"RD","suffdir":"N","city":"Wilkesboro","state_code":"NC","zip5":"28659","latitude":"36.1651008930000000","longitude":"-81.130521606000000","publicwifi":"U","url":null,"broadband_type_id":6}
{"id":null,"anchorname":"Wilkes Correctional Center","address":"404 STATESVILLE RD North Wilkesboro, NC 28659-4707","bldgnbr":"404","predir":null,"streetname":"STATESVILLE","streettype":"RD","suffdir":null,"city":"North Wilkesboro","state_code":"NC","zip5":"28659","latitude":"36.1651848150000000","longitude":"-81.133297930000000","publicwifi":"U","url":null,"broadband_type_id":6}
{"id":null,"anchorname":"WILKES REGIONAL DETENTION CTR","address":"404 STATESVILLE RD, NORTH WILKESBORO, NC 28659","bldgnbr":"404","predir":null,"streetname":"STATESVILLE","streettype":"RD","suffdir":null,"city":"NORTH WILKESBORO","state_code":"NC","zip5":"28659","latitude":"36.1652240000000000","longitude":"-81.131436000000000","publicwifi":"U","url":null,"broadband_type_id":6}
{"id":null,"anchorname":"DOT- Right of Way - Div 11","address":"407 Oakwoods RD Wilkesboro, NC 28697","bldgnbr":"407","predir":null,"streetname":"Brushy Mountain","streettype":"Road","suffdir":null,"city":"North Wilkesboro","state_code":"NC","zip5":"28697","latitude":"36.1394260000000000","longitude":"-81.145889000000000","publicwifi":"U","url":null,"broadband_type_id":null}
{"id":null,"anchorname":"Wilkes Co DSS-ACTS","address":"304 COLLEGE ST Wilkesboro, NC 28697-2855","bldgnbr":"304","predir":null,"streetname":"COLLEGE","streettype":"ST","suffdir":null,"city":"Wilkesboro","state_code":"NC","zip5":"28697","latitude":"36.1439329660000000","longitude":"-81.156974546000000","publicwifi":"U","url":null,"broadband_type_id":6}
{"id":null,"anchorname":"Dept of Juvenile Justice District 23","address":"500 COURTHOUSE DR Wilkesboro, NC 28697","bldgnbr":"500","predir":null,"streetname":"Courthose","streettype":"Drive","suffdir":null,"city":"Wilkesboro","state_code":"NC","zip5":"28697","latitude":"36.1435612740000000","longitude":"-81.150626263000000","publicwifi":"U","url":null,"broadband_type_id":6}
{"id":null,"anchorname":"Cricket Volunteer Fire Dept","address":"1399 Boone Trl North Wilkesboro, NC 28659-8994","bldgnbr":"1399","predir":null,"streetname":"Boone","streettype":"Trl","suffdir":null,"city":"North Wilkesboro","state_code":"NC","zip5":"28659","latitude":"36.1627000000000000","longitude":"-81.185100000000000","publicwifi":"U","url":null,"broadband_type_id":5}
{"id":null,"anchorname":"Millers Creek Volunteer Fire","address":"5180 Boone Trl Millers Creek, NC 28651-8476","bldgnbr":"5180","predir":null,"streetname":"Boone","streettype":"Trl","suffdir":null,"city":"Millers Creek","state_code":"NC","zip5":"28651","latitude":"36.1874000000000000","longitude":"-81.247000000000000","publicwifi":"U","url":null,"broadband_type_id":5}
{"id":null,"anchorname":"WILKES EARLY COLLEGE HIGH","address":"1328 SOUTH COLLEGIATE DR, WILKESBORO, NC 28697","bldgnbr":"1328","predir":"SOUTH","streetname":"COLLEGIATE","streettype":"DR","suffdir":null,"city":"WILKESBORO","state_code":"NC","zip5":"28697","latitude":"36.1392060000000000","longitude":"-81.178676000000000","publicwifi":"U","url":null,"broadband_type_id":6}
{"id":null,"anchorname":"Wilkes Community College","address":"1328 Collegiate Drive Wilkesboro, NC 28697-2101","bldgnbr":"1328","predir":null,"streetname":"Collegiate","streettype":"Drive","suffdir":null,"city":"Wilkesboro","state_code":"NC","zip5":"28697","latitude":"36.1381297840000000","longitude":"-81.181234598000000","publicwifi":"U","url":null,"broadband_type_id":6}
{"id":null,"anchorname":"Wilkes County of Fire Marshal","address":"580 Poplar Grove Rd Wilkesboro, NC 28697-7456","bldgnbr":"580","predir":null,"streetname":"Poplar Grove","streettype":"Rd","suffdir":null,"city":"Wilkesboro","state_code":"NC","zip5":"28697","latitude":"36.1202000000000000","longitude":"-81.201200000000000","publicwifi":"U","url":null,"broadband_type_id":5}
{"id":null,"anchorname":"Boomer Volunteer Fire Dept","address":"5990 Hwy 18 S Boomer, NC 28606-0028","bldgnbr":"5990","predir":null,"streetname":"Hwy 18","streettype":null,"suffdir":"S","city":"Boomer","state_code":"NC","zip5":"28606","latitude":"36.0565000000000000","longitude":"-81.268200000000000","publicwifi":"U","url":null,"broadband_type_id":5}
{"id":null,"anchorname":"Moravian Falls Volunteer Fire","address":"251 W Brocktown Rd Moravian Falls, NC 28654-0100","bldgnbr":"251","predir":"W","streetname":"Brocktown","streettype":"Rd","suffdir":null,"city":"Moravian Falls","state_code":"NC","zip5":"28654","latitude":"36.0916000000000000","longitude":"-81.181400000000000","publicwifi":"U","url":null,"broadband_type_id":5}
{"id":null,"anchorname":"WILKESBORO POLICE DEPARTMENT","address":"100 WEST STREET WILKESBORO, NC 28697","bldgnbr":"100","predir":"W","streetname":"STREET","streettype":null,"suffdir":null,"city":"WILKESBORO","state_code":"NC","zip5":"28697","latitude":"36.1481922000000000","longitude":"-81.153388300000000","publicwifi":"U","url":null,"broadband_type_id":4}
{"id":null,"anchorname":"WILKES COUNTY SHERIFF DEPARTMENT","address":"201 CURTIS BRIDGE RD WILKESBORO, NC 28697","bldgnbr":"201","predir":null,"streetname":"CURTIS BRIDGE","streettype":"RD","suffdir":null,"city":"WILKESBORO","state_code":"NC","zip5":"28697","latitude":"36.1450282000000000","longitude":"-81.166098000000000","publicwifi":"U","url":null,"broadband_type_id":4}
{"id":null,"anchorname":"Wilkes County Health Department","address":"306 College Street Wilkesboro, NC 28697","bldgnbr":"306","predir":null,"streetname":"College","streettype":"Street","suffdir":null,"city":"Wilkesboro","state_code":"NC","zip5":"28697","latitude":"36.1439464010000000","longitude":"-81.156933855000000","publicwifi":"U","url":null,"broadband_type_id":3}
{"id":null,"anchorname":"Town of North Wilkesboro Fire Department","address":"5225 Speedway Rd North Wilkesboro, NC 28659-7523","bldgnbr":"5225","predir":null,"streetname":"Speedway","streettype":"Rd","suffdir":null,"city":"North Wilkesboro","state_code":"NC","zip5":"28659","latitude":"36.1518000000000000","longitude":"-81.019000000000000","publicwifi":"U","url":null,"broadband_type_id":5}
{"id":null,"anchorname":"Wilkes Iredell Fire Department","address":"259 Howard Mountain Rd North Wilkesboro, NC 28659-7556","bldgnbr":"259","predir":null,"streetname":"Howard Mountain","streettype":"Rd","suffdir":null,"city":"North Wilkesboro","state_code":"NC","zip5":"28659","latitude":"36.0824000000000000","longitude":"-80.971300000000000","publicwifi":"U","url":null,"broadband_type_id":5}
{"id":null,"anchorname":"RONDA-CLINGMAN ELEMENTARY","address":"316 RONDACLINGMAN SCHOOL R, RONDA, NC 28670","bldgnbr":"316","predir":null,"streetname":"RONDACLINGMAN SCHOOL","streettype":"RD","suffdir":null,"city":"RONDA","state_code":"NC","zip5":"28670","latitude":"36.2050200000000000","longitude":"-80.934990000000000","publicwifi":"U","url":null,"broadband_type_id":6}
{"id":null,"anchorname":"Jackson County MU Extension Center at Blue Springs","address":"1106 West Main Street, Blue Springs, MO 64015","bldgnbr":"1106","predir":"West","streetname":"Main","streettype":"Street","suffdir":null,"city":"Blue Springs","state_code":"MO","zip5":"64015","latitude":"39.0181400310000000","longitude":"-94.277957506000000","publicwifi":"N","url":"http://extension.missouri.edu/jackson","broadband_type_id":1}
{"id":null,"anchorname":"Lakeland Group Home- Gemini Village","address":"15555 Little Blue Road, Kansas City, MO 64139","bldgnbr":"15015","predir":null,"streetname":"Little Blue Road 64138","streettype":"Road","suffdir":null,"city":"Kansas City","state_code":"MO","zip5":"64139","latitude":"38.9761035800000000","longitude":"-94.397415772000000","publicwifi":"U","url":null,"broadband_type_id":1}
{"id":null,"anchorname":"ACTS","address":"100 GOLD ST NE Wilson, NC 27893-4020","bldgnbr":"100","predir":null,"streetname":"GOLD","streettype":"ST","suffdir":"NE","city":"Wilson","state_code":"NC","zip5":"27893","latitude":"35.7300406480000000","longitude":"-77.905920159000000","publicwifi":"U","url":null,"broadband_type_id":null}
{"id":null,"anchorname":"ESC-Wilson","address":"302 W TARBORO ST Wilson, NC 27893-3911","bldgnbr":"302","predir":"W","streetname":"TARBORO","streettype":"ST","suffdir":null,"city":"Wilson","state_code":"NC","zip5":"27893","latitude":"35.7241545200000000","longitude":"-77.914454742000000","publicwifi":"U","url":null,"broadband_type_id":6}
{"id":null,"anchorname":"Wilson Voc Rehab","address":"306 W NASH ST Wilson, NC 27893","bldgnbr":"306","predir":"W","streetname":"NASH","streettype":"ST","suffdir":"W","city":"Wilson","state_code":"NC","zip5":"27893","latitude":"35.7273855710000000","longitude":"-77.912683280000000","publicwifi":"U","url":null,"broadband_type_id":null}
{"id":null,"anchorname":"WINSTEAD ELEMENTARY","address":"1713 DOWNING ST SW, WILSON, NC 27893","bldgnbr":"1713","predir":null,"streetname":"DOWNING","streettype":"ST","suffdir":"SW","city":"WILSON","state_code":"NC","zip5":"27893","latitude":"35.7137340000000000","longitude":"-77.930259000000000","publicwifi":"U","url":"http://www.wilson.k12.nc.us","broadband_type_id":6}
{"id":null,"anchorname":"Office of Juvenile Justice","address":"113 E NASH ST Wilson, NC 27893","bldgnbr":"113","predir":"E","streetname":"NASH","streettype":"ST","suffdir":null,"city":"Wilson","state_code":"NC","zip5":"27893","latitude":"35.7251500410000000","longitude":"-77.910402530000000","publicwifi":"U","url":null,"broadband_type_id":null}
{"id":null,"anchorname":"Wilson County Senior Center","address":"1808 S Goldsboro Street Wilson, NC 27893","bldgnbr":"1808","predir":"S","streetname":"Goldsboro","streettype":"Street","suffdir":null,"city":"Wilson","state_code":"NC","zip5":"27893","latitude":"35.7056623200000000","longitude":"-77.927469966000000","publicwifi":"U","url":null,"broadband_type_id":1}
{"id":null,"anchorname":"WELLS ELEMENTARY","address":"1400 GROVE ST NORTH, WILSON, NC 27893","bldgnbr":"1400","predir":null,"streetname":"GROVE","streettype":"ST","suffdir":"NORTH","city":"WILSON","state_code":"NC","zip5":"27893","latitude":"35.7438490000000000","longitude":"-77.918276000000000","publicwifi":"U","url":"http://www.wilson.k12.nc.us","broadband_type_id":6}
{"id":null,"anchorname":"FIKE HIGH","address":"500 HARRISON DR NORTH, WILSON, NC 27893","bldgnbr":"500","predir":null,"streetname":"HARRISON","streettype":"DR","suffdir":"NORTH","city":"WILSON","state_code":"NC","zip5":"27893","latitude":"35.7537920000000000","longitude":"-77.924276000000000","publicwifi":"U","url":"http://www.wilson.k12.nc.us","broadband_type_id":6}
{"id":null,"anchorname":"JOHN W JONES ELEMENTARY","address":"4028 HWY 42 WEST, WILSON, NC 27893","bldgnbr":"4028","predir":null,"streetname":"42","streettype":"HWY","suffdir":"WEST","city":"WILSON","state_code":"NC","zip5":"27893","latitude":"35.7392500000000000","longitude":"-77.903360000000000","publicwifi":"U","url":null,"broadband_type_id":6}
{"id":null,"anchorname":"TOISNOT MIDDLE","address":"1301 CORBETT AVE NORTH, WILSON, NC 27893","bldgnbr":"1301","predir":null,"streetname":"CORBETT","streettype":"AVE","suffdir":"NORTH","city":"WILSON","state_code":"NC","zip5":"27893","latitude":"35.7431330000000000","longitude":"-77.910340000000000","publicwifi":"U","url":"http://www.wilson.k12.nc.us","broadband_type_id":6}
{"id":null,"anchorname":"DSDHH - Wilson RCC","address":"1901 S TARBORO ST Wilson, NC 27893","bldgnbr":"1901","predir":"S","streetname":"TARBORO","streettype":"ST","suffdir":null,"city":"Wilson","state_code":"NC","zip5":"27893","latitude":"35.7195630350000000","longitude":"-77.948483228000000","publicwifi":"U","url":null,"broadband_type_id":null}
{"id":null,"anchorname":"Veteran's Affairs","address":"1901 TARBORO ST SW Wilson, NC 27893","bldgnbr":"1901","predir":null,"streetname":"TARBORO","streettype":"ST","suffdir":"SW","city":"Wilson","state_code":"NC","zip5":"27893","latitude":"35.7191868050000000","longitude":"-77.948003350000000","publicwifi":"U","url":null,"broadband_type_id":null}
{"id":null,"anchorname":"DOT Right of Way","address":"2416 BEDGOOD DR Wilson, NC 27893","bldgnbr":"2416","predir":null,"streetname":"BEDGOOD","streettype":"DR","suffdir":null,"city":"Wilson","state_code":"NC","zip5":"27893","latitude":"35.7013516630000000","longitude":"-77.933757745000000","publicwifi":"U","url":null,"broadband_type_id":null}
{"id":null,"anchorname":"DMV Driver License -Imaging","address":"1822 GOLDSBORO ST SW Wilson, NC 27893","bldgnbr":"1822","predir":null,"streetname":"Goldsboro","streettype":"Street","suffdir":"SW","city":"Wilson","state_code":"NC","zip5":"27893","latitude":"35.7050611400000000","longitude":"-77.927402128000000","publicwifi":"U","url":null,"broadband_type_id":null}
{"id":null,"anchorname":"DOT-div 4 of HWY","address":"509 WARD BLVD Wilson, NC 27893-1670","bldgnbr":"509","predir":null,"streetname":"WARD","streettype":"BLVD","suffdir":null,"city":"Wilson","state_code":"NC","zip5":"27893","latitude":"35.7084676350000000","longitude":"-77.933850414000000","publicwifi":"U","url":null,"broadband_type_id":null}
{"id":null,"anchorname":"DMV Tag Office","address":"4000 WARD BLVD Wilson, NC 27893","bldgnbr":"4000","predir":null,"streetname":"WARD","streettype":"BLVD","suffdir":null,"city":"Wilson","state_code":"NC","zip5":"27893","latitude":"35.7384637380000000","longitude":"-77.905277786000000","publicwifi":"U","url":null,"broadband_type_id":null}
{"id":null,"anchorname":"East Branch","address":"1006-C Ward Blvd Wilson, NC 27893","bldgnbr":"1006","predir":null,"streetname":"Ward","streettype":"Blvd","suffdir":null,"city":"Wilson","state_code":"NC","zip5":"27893","latitude":"35.7371336370000000","longitude":"-77.903209823000000","publicwifi":"Y","url":null,"broadband_type_id":null}
{"id":null,"anchorname":"Barton College","address":"400 N. ACC Drive Wilson, NC  27893","bldgnbr":"400","predir":"N","streetname":"ACC","streettype":"Drive","suffdir":null,"city":"Wilson","state_code":"NC","zip5":"27893","latitude":"35.7332776900000000","longitude":"-77.916862960000000","publicwifi":"U","url":null,"broadband_type_id":6}
{"id":null,"anchorname":"Wilson County Public Library","address":"249 Nash St. W. Wilson, NC 27893","bldgnbr":"249","predir":null,"streetname":"Nash","streettype":"St.","suffdir":"W","city":"Wilson","state_code":"NC","zip5":"27893","latitude":"35.7275931230000000","longitude":"-77.914185939000000","publicwifi":"Y","url":null,"broadband_type_id":6}
{"id":null,"anchorname":"Wilson Fire/Rescue Services - Headquarters","address":"307 Hines St W Wilson, NC 27893-3838","bldgnbr":"307","predir":null,"streetname":"Hines","streettype":"St","suffdir":"W","city":"Wilson","state_code":"NC","zip5":"27893","latitude":"35.7260000000000000","longitude":"-77.918800000000000","publicwifi":"U","url":null,"broadband_type_id":5}
{"id":null,"anchorname":"Wilson Police Department - Headquarters","address":"120 Goldsboro Street East Wilson, NC 27893","bldgnbr":"120","predir":null,"streetname":"Goldsboro","streettype":"Street","suffdir":"E","city":"Wilson","state_code":"NC","zip5":"27893","latitude":"35.7254010000000000","longitude":"-77.908875500000000","publicwifi":"U","url":null,"broadband_type_id":4}
{"id":null,"anchorname":"Wilson Police Department - Train Station","address":"108 Lodge St E Wilson, NC 27893","bldgnbr":"108","predir":null,"streetname":"Lodge","streettype":"St","suffdir":"E","city":"Wilson","state_code":"NC","zip5":"27893","latitude":"35.7234795000000000","longitude":"-77.907710100000000","publicwifi":"U","url":null,"broadband_type_id":4}
{"id":null,"anchorname":"Wilson Police Department - Homicide Task Force","address":"1001 Goldsboro Street Southwest Wilson, NC 27893","bldgnbr":"1001","predir":null,"streetname":"Goldsboro","streettype":"Street","suffdir":"SW","city":"Wilson","state_code":"NC","zip5":"27893","latitude":"35.7161210000000000","longitude":"-77.922678000000000","publicwifi":"U","url":null,"broadband_type_id":4}
{"id":null,"anchorname":"Wilson County Health","address":"1817 GLENDALE DR Wilson, NC 27893","bldgnbr":"1817","predir":null,"streetname":"GLENDALE","streettype":"DR","suffdir":null,"city":"Wilson","state_code":"NC","zip5":"27893","latitude":"35.7154489240000000","longitude":"-77.945200944000000","publicwifi":"U","url":null,"broadband_type_id":3}
{"id":null,"anchorname":"Wilson Police Department - West District","address":"1501 Ward Blvd  Ste. 287 Wilson, NC 27893","bldgnbr":"1501","predir":null,"streetname":"Ward","streettype":"Blvd","suffdir":null,"city":"Wilson","state_code":"NC","zip5":"27893","latitude":"35.7239558000000000","longitude":"-77.935888200000000","publicwifi":"U","url":null,"broadband_type_id":4}
{"id":null,"anchorname":"Wilson County Health Department","address":"1801 Glendale Dr., SW Wilson, NC 27893","bldgnbr":"1801","predir":null,"streetname":"Glendale","streettype":"Dr.","suffdir":null,"city":"Wilson","state_code":"NC","zip5":"27893","latitude":"35.7173552980000000","longitude":"-77.945999704000000","publicwifi":"U","url":null,"broadband_type_id":3}
{"id":null,"anchorname":"City Of Wilson Fire Department","address":"1807 Forest Hills Rd W Wilson, NC 27893-3412","bldgnbr":"1807","predir":null,"streetname":"Forest Hills","streettype":"Rd","suffdir":"W","city":"Wilson","state_code":"NC","zip5":"27893","latitude":"35.7237000000000000","longitude":"-77.952200000000000","publicwifi":"U","url":null,"broadband_type_id":5}
{"id":null,"anchorname":"Wilson Fire/Rescue Services - Stn 2","address":"1807 FOREST HILLS RD W WILSON NC  27893","bldgnbr":"1807","predir":null,"streetname":"FOREST HILLS","streettype":"RD","suffdir":"W","city":"Wilson","state_code":"NC","zip5":"27894","latitude":"35.7230923000000000","longitude":"-77.952539000000000","publicwifi":"U","url":null,"broadband_type_id":5}
{"id":null,"anchorname":"Wilson Parks And Recreation Department - Park Ra","address":"500 Sunset Road Northwest Wilson, NC 27893","bldgnbr":"500","predir":null,"streetname":"Sunset","streettype":"Road","suffdir":"NW","city":"Wilson","state_code":"NC","zip5":"27893","latitude":"35.7350610000000000","longitude":"-77.925994500000000","publicwifi":"U","url":null,"broadband_type_id":2}
{"id":null,"anchorname":"Wilson Fire/Rescue Services - Stn 5","address":"3530 Airport Blvd Nw Wilson, NC 27896-8642","bldgnbr":"3530","predir":null,"streetname":"Airport","streettype":"Blvd","suffdir":"NW","city":"Wilson","state_code":"NC","zip5":"27896","latitude":"35.7662000000000000","longitude":"-77.945800000000000","publicwifi":"U","url":null,"broadband_type_id":5}
{"id":null,"anchorname":"Wilson Police Department - North District","address":"800 Corbett Ave North Wilson, NC 27896","bldgnbr":"800","predir":null,"streetname":"Corbett","streettype":"Ave","suffdir":"N","city":"Wilson","state_code":"NC","zip5":"27896","latitude":"35.7382143000000000","longitude":"-77.910999900000000","publicwifi":"U","url":null,"broadband_type_id":4}
{"id":null,"anchorname":"Wilson Police Department -  Housing Authority","address":"1804 FOUNTAIN DR NE APT D Wilson, NC 27893","bldgnbr":"1804","predir":null,"streetname":"FOUNTAIN","streettype":"DR","suffdir":"NE","city":"Wilson","state_code":"NC","zip5":"27893","latitude":"35.7379440000000000","longitude":"-77.885456700000000","publicwifi":"U","url":null,"broadband_type_id":4}
{"id":null,"anchorname":"Wilson Utility Operations Center","address":"1800 HERRING AVE Wilson, NC 27894","bldgnbr":"1800","predir":null,"streetname":"HERRING","streettype":"AVE","suffdir":null,"city":"Wilson","state_code":"NC","zip5":"27894","latitude":"35.7351703950000000","longitude":"-77.881170793000000","publicwifi":"U","url":null,"broadband_type_id":null}
{"id":null,"anchorname":"Community Corrections","address":"200 N MAIN ST Farmville, NC 27828","bldgnbr":"200","predir":"N","streetname":"MAIN","streettype":"ST","suffdir":null,"city":"Farmville","state_code":"NC","zip5":"27828","latitude":"35.6076702230000000","longitude":"-77.821276048000000","publicwifi":"U","url":null,"broadband_type_id":1}
{"id":null,"anchorname":"Liggett Trail Education Center","address":"3573 Sw Liggett Rd, Blue Springs MO 64015-7147","bldgnbr":"3573","predir":"SW","streetname":"Liggett","streettype":"Road","suffdir":null,"city":"Blue Springs","state_code":"MO","zip5":"64015","latitude":"38.9844080720000000","longitude":"-94.294319871000000","publicwifi":"U","url":"http://www.bluesprings-schools.net/home","broadband_type_id":6}
{"id":null,"anchorname":"B O BARNES ELEMENTARY","address":"1913 MARTIN L KING PARKWAY, WILSON, NC 27893","bldgnbr":"1913","predir":null,"streetname":"MARTIN L KING","streettype":"PARKWAY","suffdir":null,"city":"WILSON","state_code":"NC","zip5":"27893","latitude":"35.7126600000000000","longitude":"-77.886090000000000","publicwifi":"U","url":"http://www.wilson.k12.nc.us","broadband_type_id":6}
{"id":null,"anchorname":"MILTON M DANIELS LEARNING CTR.","address":"723 ELVIE ST, WILSON, NC 27893","bldgnbr":"723","predir":null,"streetname":"ELVIE","streettype":"ST","suffdir":null,"city":"WILSON","state_code":"NC","zip5":"27893","latitude":"35.7119430000000000","longitude":"-77.907812000000000","publicwifi":"U","url":null,"broadband_type_id":6}
{"id":null,"anchorname":"Gee Corbett Village Senior Center","address":"1817 Butterfield Lane Wilson, NC 27893","bldgnbr":"1817","predir":null,"streetname":"Butterfield","streettype":"Lane","suffdir":null,"city":"Wilson","state_code":"NC","zip5":"27893","latitude":"35.7100721620000000","longitude":"-77.886699244000000","publicwifi":"U","url":null,"broadband_type_id":1}
{"id":null,"anchorname":"BEDDINGFIELD HIGH","address":"4510 OLD STANTONSBURG RD, WILSON, NC 27893","bldgnbr":"4510","predir":null,"streetname":"OLD STANTONSBURG","streettype":"RD","suffdir":null,"city":"WILSON","state_code":"NC","zip5":"27893","latitude":"35.6852900000000000","longitude":"-77.886448000000000","publicwifi":"U","url":"http://www.wilson.k12.nc.us","broadband_type_id":6}
{"id":null,"anchorname":"LEE WOODARD ELEMENTARY","address":"103 CHURCH ST, BLACK CREEK, NC 27813","bldgnbr":"103","predir":null,"streetname":"CHURCH","streettype":"ST","suffdir":null,"city":"BLACK CREEK","state_code":"NC","zip5":"27813","latitude":"35.6372630000000000","longitude":"-77.934992000000000","publicwifi":"U","url":"http://www.wilson.k12.nc.us","broadband_type_id":6}
{"id":null,"anchorname":"SPEIGHT MIDDLE","address":"5514 OLD STANTONSBURG RD, STANTONSBURG, NC 27883","bldgnbr":"5514","predir":null,"streetname":"OLD STANTONSBURG","streettype":"RD","suffdir":null,"city":"STANTONSBURG","state_code":"NC","zip5":"27883","latitude":"35.6341350000000000","longitude":"-77.850392000000000","publicwifi":"U","url":"http://www.wilson.k12.nc.us","broadband_type_id":6}
{"id":null,"anchorname":"STANTONSBURG ELEMENTARY","address":"409 SOUTH MAIN ST, STANTONSBURG, NC 27883","bldgnbr":"409","predir":"SOUTH","streetname":"MAIN","streettype":"ST","suffdir":null,"city":"STANTONSBURG","state_code":"NC","zip5":"27883","latitude":"35.6094050000000000","longitude":"-77.818947000000000","publicwifi":"U","url":"http://www.wilson.k12.nc.us","broadband_type_id":6}
{"id":null,"anchorname":"GARDNERS ELEMENTARY","address":"5404 NC 42 HWY EAST, ELM CITY, NC 27822","bldgnbr":"5404","predir":null,"streetname":"NC 42","streettype":"HWY","suffdir":"EAST","city":"ELM CITY","state_code":"NC","zip5":"27822","latitude":"35.7439400000000000","longitude":"-77.784280000000000","publicwifi":"U","url":"http://www.wilson.k12.nc.us","broadband_type_id":6}
{"id":null,"anchorname":"ELM CITY MIDDLE","address":"215 EAST CHURCH ST, ELM CITY, NC 27822","bldgnbr":"215","predir":"EAST","streetname":"CHURCH","streettype":"ST","suffdir":null,"city":"ELM CITY","state_code":"NC","zip5":"27822","latitude":"35.8075310000000000","longitude":"-77.859622000000000","publicwifi":"U","url":"http://www.wilson.k12.nc.us","broadband_type_id":6}
{"id":null,"anchorname":"ELM CITY ELEMENTARY","address":"5544 LAKE WILSON RD, ELM CITY, NC 27822","bldgnbr":"5544","predir":null,"streetname":"LAKE WILSON","streettype":"RD","suffdir":null,"city":"ELM CITY","state_code":"NC","zip5":"27822","latitude":"35.8057630000000000","longitude":"-77.873081000000000","publicwifi":"U","url":"http://www.wilson.k12.nc.us","broadband_type_id":6}
{"id":null,"anchorname":"NEW HOPE ELEMENTARY","address":"4826 PACKHOUSE RD, WILSON, NC 27896","bldgnbr":"4826","predir":null,"streetname":"PACKHOUSE","streettype":"RD","suffdir":null,"city":"WILSON","state_code":"NC","zip5":"27896","latitude":"35.7817220000000000","longitude":"-77.950910000000000","publicwifi":"U","url":"http://www.gaston.k12.nc.us/schools/newhope/index.htm","broadband_type_id":6}
{"id":null,"anchorname":"JAMES HUNT HIGH","address":"4559 LAMM RD, WILSON, NC 27893","bldgnbr":"4559","predir":null,"streetname":"LAMM","streettype":"RD","suffdir":null,"city":"WILSON","state_code":"NC","zip5":"27893","latitude":"35.7225110000000000","longitude":"-77.995122000000000","publicwifi":"U","url":"http://www.wilson.k12.nc.us","broadband_type_id":6}
{"id":null,"anchorname":"DOT Location \u0026 Surveys Office","address":"2501 AIRPORT RD Wilson, NC 27896","bldgnbr":"2501","predir":null,"streetname":"AIRPORT","streettype":"RD","suffdir":null,"city":"Wilson","state_code":"NC","zip5":"27896","latitude":"35.7588706430000000","longitude":"-77.954707569000000","publicwifi":"U","url":null,"broadband_type_id":null}
{"id":null,"anchorname":"Longleaf Neuro-Medical Treatment","address":"4761 WARD BLVD Wilson, NC 27893","bldgnbr":"4761","predir":null,"streetname":"WARD","streettype":"BLVD","suffdir":null,"city":"Wilson","state_code":"NC","zip5":"27893","latitude":"35.7256213060000000","longitude":"-77.894232137000000","publicwifi":"U","url":null,"broadband_type_id":3}
{"id":null,"anchorname":"Wilson Technical Community College","address":"902 Herring Avenue Wilson, NC 27893-3310","bldgnbr":"902","predir":null,"streetname":"Herring","streettype":"Avenue","suffdir":null,"city":"Wilson","state_code":"NC","zip5":"27893","latitude":"35.7290830630000000","longitude":"-77.897719079000000","publicwifi":"U","url":null,"broadband_type_id":6}
{"id":null,"anchorname":"Wilson Technical Community College - Campus Secu","address":"902 Herring Avenue Wilson, NC 27893","bldgnbr":"902","predir":null,"streetname":"Herring","streettype":"Avenue","suffdir":null,"city":"Wilson","state_code":"NC","zip5":"27893","latitude":"35.7303772000000000","longitude":"-77.895826900000000","publicwifi":"U","url":null,"broadband_type_id":6}
{"id":null,"anchorname":"SALLIE B HOWARD SCHOOL","address":"1004 HERRING AVE, WILSON, NC 27893","bldgnbr":"1004","predir":null,"streetname":"HERRING","streettype":"AVE","suffdir":null,"city":"WILSON","state_code":"NC","zip5":"27893","latitude":"35.7312310000000000","longitude":"-77.894599000000000","publicwifi":"U","url":null,"broadband_type_id":6}
{"id":null,"anchorname":"ETN NC SCHOOL FOR THE DEAF","address":"1311 US HWY 301 SOUTH, WILSON, NC 27894","bldgnbr":"1311","predir":null,"streetname":"US 301","streettype":"HWY","suffdir":"SOUTH","city":"WILSON","state_code":"NC","zip5":"27894","latitude":"35.7255969830000000","longitude":"-77.889745137000000","publicwifi":"U","url":null,"broadband_type_id":6}
{"id":null,"anchorname":"Wilson Fire/Rescue Services - Stn 3","address":"6111 WARD BLVD WILSON NC  27893","bldgnbr":"6111","predir":null,"streetname":"WARD","streettype":"BLVD","suffdir":null,"city":"Wilson","state_code":"NC","zip5":"27895","latitude":"35.7106974000000000","longitude":"-77.900019200000000","publicwifi":"U","url":null,"broadband_type_id":5}
{"id":null,"anchorname":"Black Creeek Police Department","address":"110 West Center Street Black Creek, NC 27813","bldgnbr":"110","predir":"W","streetname":"Center","streettype":"Street","suffdir":null,"city":"Black Creek","state_code":"NC","zip5":"27813","latitude":"35.6365149000000000","longitude":"-77.933722600000000","publicwifi":"U","url":null,"broadband_type_id":4}
{"id":null,"anchorname":"Black Creek Branch Library","address":"103 Central Ave Black Creek, NC 27813","bldgnbr":"103","predir":null,"streetname":"Central","streettype":"Ave","suffdir":null,"city":"Black Creek","state_code":"NC","zip5":"27813","latitude":"35.6353176450000000","longitude":"-77.934367371000000","publicwifi":"Y","url":null,"broadband_type_id":6}
{"id":null,"anchorname":"Crocker Library","address":"114 S. Main St Stantonsburg, NC 27883","bldgnbr":"114","predir":"S","streetname":"Main","streettype":"St","suffdir":null,"city":"Stantonsburg","state_code":"NC","zip5":"27883","latitude":"35.6065822960000000","longitude":"-77.824217156000000","publicwifi":"Y","url":null,"broadband_type_id":6}
{"id":null,"anchorname":"Stantonsburg Police Department","address":"114 East Commercial Avenue Stantonsburg, NC 27883","bldgnbr":"114","predir":"E","streetname":"Commercial","streettype":"Avenue","suffdir":null,"city":"Stantonsburg","state_code":"NC","zip5":"27883","latitude":"35.6062747000000000","longitude":"-77.823163500000000","publicwifi":"U","url":null,"broadband_type_id":4}
{"id":null,"anchorname":"Moyton Volunteer Fire Dprt INC","address":"105 Saratoga St Stantonsburg, NC 27883-0130","bldgnbr":"105","predir":null,"streetname":"Saratoga","streettype":"St","suffdir":null,"city":"Stantonsburg","state_code":"NC","zip5":"27883","latitude":"35.6046000000000000","longitude":"-77.825600000000000","publicwifi":"U","url":null,"broadband_type_id":5}
{"id":null,"anchorname":"Wilson County Sheriffs Office - Saratoga Substat","address":"110 East Main Street Saratoga, NC 27873","bldgnbr":"110","predir":"E","streetname":"Main","streettype":"Street","suffdir":null,"city":"Saratoga","state_code":"NC","zip5":"27873","latitude":"35.6531696000000000","longitude":"-77.775468200000000","publicwifi":"U","url":null,"broadband_type_id":4}
{"id":null,"anchorname":"East Nash Volunteer Fire Dept","address":"4117 Us Highway 264 Alt E Wilson, NC 27894-2208","bldgnbr":"4117","predir":null,"streetname":"US Hwy 264 Alt","streettype":null,"suffdir":"E","city":"Wilson","state_code":"NC","zip5":"27894","latitude":"35.6969000000000000","longitude":"-77.847500000000000","publicwifi":"U","url":null,"broadband_type_id":5}
{"id":null,"anchorname":"City Of Sharpsburg Police Department","address":"108 East Railroad Street Sharpsburg, NC 27878","bldgnbr":"108","predir":"E","streetname":"Railroad","streettype":"Street","suffdir":null,"city":"Sharpsburg","state_code":"NC","zip5":"27878","latitude":"35.8642840000000000","longitude":"-77.829453000000000","publicwifi":"U","url":null,"broadband_type_id":4}
