{"id":null,"anchorname":"MONTEZUMA CREEK COMMUNITY HEALTH CENTER (UTN)","address":"EAST HIGHWAY 262, MONTEZUMA CREEK UT 84534","bldgnbr":"EAST","predir":null,"streetname":"HIGHWAY 262","streettype":null,"suffdir":null,"city":"MONTEZUMA CREEK","state_code":"UT","zip5":"84534","latitude":"37.2618921680000000","longitude":"-109.30545342100000","publicwifi":"U","url":"http://www.utahtelehealth.net/","broadband_type_id":3}
{"id":null,"anchorname":"SAN JUAN COUNTY LIBRARY - MONTEZUMA CREEK SATELLITE BRANCH","address":"HWY 162, MONTEZUMA CREEK UT 84534","bldgnbr":"unknown","predir":null,"streetname":"HWY 162","streettype":null,"suffdir":null,"city":"MONTEZUMA CREEK","state_code":"UT","zip5":"84534","latitude":"37.2596320320000000","longitude":"-109.30091097300000","publicwifi":"U","url":"http://www.sanjuancounty.org/library.html","broadband_type_id":6}
{"id":null,"anchorname":"SAN JUAN FIRE DEPARTMENT - MONTEZUMA CREEK FIRE STATION (EMS)","address":"RED MESA ROAD, MONTEZUMA CREEK UT 84534","bldgnbr":"unknown","predir":null,"streetname":"RED MESA","streettype":"RD","suffdir":null,"city":"MONTEZUMA CREEK","state_code":"UT","zip5":"84534","latitude":"37.2603034920000000","longitude":"-109.30672839100000","publicwifi":"U","url":null,"broadband_type_id":5}
{"id":null,"anchorname":"SAN JUAN FIRE DEPARTMENT - MONTEZUMA CREEK FIRE STATION","address":"TEXACO ROAD, MONTEZUMA CREEK UT 84534","bldgnbr":"unknown","predir":null,"streetname":"TEXACO","streettype":"RD","suffdir":null,"city":"MONTEZUMA CREEK","state_code":"UT","zip5":"84534","latitude":"37.2601921550000000","longitude":"-109.30588877800000","publicwifi":"U","url":null,"broadband_type_id":5}
{"id":null,"anchorname":"MONTEZUMA CREEK SCHOOL (UEN)","address":"STATE HWY 262, MONTEZUMA CREEK UT 84534","bldgnbr":"STATE","predir":null,"streetname":"HWY 262","streettype":null,"suffdir":null,"city":"MONTEZUMA CREEK","state_code":"UT","zip5":"84534","latitude":"37.2605993110000000","longitude":"-109.30489693100000","publicwifi":"U","url":null,"broadband_type_id":6}
{"id":null,"anchorname":"ANETH COMMUNITY SCHOOL (UEN)","address":"PO BOX 600, MONTEZUMA CREEK UT 84534","bldgnbr":"PO","predir":null,"streetname":"BOX 600","streettype":null,"suffdir":null,"city":"MONTEZUMA CREEK","state_code":"UT","zip5":"84534","latitude":"37.2595739790000000","longitude":"-109.30123060200000","publicwifi":"U","url":null,"broadband_type_id":6}
{"id":null,"anchorname":"ANETH COMMUNITY SCHOOL (UEN)","address":"PO BOX 600, MONTEZUMA CREEK UT 84534","bldgnbr":"PO","predir":null,"streetname":"BOX 600","streettype":null,"suffdir":null,"city":"MONTEZUMA CREEK","state_code":"UT","zip5":"84534","latitude":"37.2595739790000000","longitude":"-109.30123060200000","publicwifi":"U","url":null,"broadband_type_id":6}
{"id":null,"anchorname":"SAN JUAN FIRE DEPARTMENT - MONUMENT VALLEY FIRE STATION (EMS)","address":"HWY 163, MONUMENT VALLEY UT 84536","bldgnbr":"unknown","predir":null,"streetname":"HWY 163","streettype":null,"suffdir":null,"city":"MONUMENT VALLEY","state_code":"UT","zip5":"84536","latitude":"37.0100307690000000","longitude":"-110.17074737400000","publicwifi":"U","url":null,"broadband_type_id":5}
{"id":null,"anchorname":"MONUMENT VALLEY HEALTH CARE CENTER","address":"P.O. Box 360-005, MONUMENT VALLEY UT 84536","bldgnbr":"PO","predir":null,"streetname":"BOX 360-005","streettype":null,"suffdir":null,"city":"MONUMENT VALLEY","state_code":"UT","zip5":"84536","latitude":"37.0081882190000000","longitude":"-110.21049808600000","publicwifi":"U","url":null,"broadband_type_id":3}
{"id":null,"anchorname":"MONUMENT VALLEY HEALTH CENTER (UTN)","address":"30 WEST MEDICAL DRIVE, MONUMENT VALLEY UT 84536","bldgnbr":"30","predir":"W","streetname":"MEDICAL","streettype":"DR","suffdir":null,"city":"MONUMENT VALLEY","state_code":"UT","zip5":"84536","latitude":"37.0054957060000000","longitude":"-110.18525328800000","publicwifi":"U","url":"http://www.utahtelehealth.net/","broadband_type_id":3}
{"id":null,"anchorname":"MONUMENT VALLEY HEALTH CENTER","address":"30 WEST MEDICAL DRIVE, MONUMENT VALLEY UT 84536","bldgnbr":"30","predir":"W","streetname":"MEDICAL","streettype":"DR","suffdir":null,"city":"MONUMENT VALLEY","state_code":"UT","zip5":"84536","latitude":"37.0054957060000000","longitude":"-110.18525328800000","publicwifi":"U","url":null,"broadband_type_id":3}
{"id":null,"anchorname":"MONUMENT VALLEY HIGH SCHOOL (UEN)","address":"US STATE HWY 163, MONUMENT VALLEY UT 84536","bldgnbr":"unknown","predir":null,"streetname":"US STATE","streettype":"HWY","suffdir":null,"city":"MONUMENT VALLEY","state_code":"UT","zip5":"84536","latitude":"37.0048840610000000","longitude":"-110.17739438700000","publicwifi":"U","url":null,"broadband_type_id":6}
{"id":null,"anchorname":"New Mexico Department of Game and Fish - Ladd S. Gordon Waterfowl Complex","address":"NM 116 Box 164B","bldgnbr":"N/A","predir":null,"streetname":"NM 116","streettype":null,"suffdir":null,"city":"Bosque","state_code":"NM","zip5":"87006","latitude":"34.4399166970000000","longitude":"-106.82273159700000","publicwifi":"U","url":"http://www.wildlife.state.nm.us/index.htm","broadband_type_id":6}
{"id":null,"anchorname":"NAVAJO MOUNTAIN HIGH (UEN)","address":"ROUTE 16, NAVAJO MOUNTAIN UT 84536","bldgnbr":"ROUTE","predir":null,"streetname":"16","streettype":null,"suffdir":null,"city":"NAVAJO MOUNTAIN","state_code":"UT","zip5":"84536","latitude":"37.0596488180000000","longitude":"-110.77976319800000","publicwifi":"U","url":null,"broadband_type_id":2}
{"id":null,"anchorname":"LA SAL ELEMENTARY MICROWAVE (UEN)","address":"unknown","bldgnbr":"unknown","predir":null,"streetname":"unknown","streettype":null,"suffdir":null,"city":"LA SAL","state_code":"UT","zip5":"84530","latitude":"38.3128524970000000","longitude":"-109.25196781500000","publicwifi":"U","url":null,"broadband_type_id":6}
{"id":null,"anchorname":"HUMAN SERVICES (WAN)","address":"522 E 100 S, MONTICELLO UT 84535","bldgnbr":"522","predir":"E","streetname":"100","streettype":null,"suffdir":"S","city":"MONTICELLO","state_code":"UT","zip5":"84535","latitude":"37.8708979320000000","longitude":"-109.33413335300000","publicwifi":"U","url":null,"broadband_type_id":6}
{"id":null,"anchorname":"LASAL GUARD STATION","address":"unknown","bldgnbr":"unknown","predir":null,"streetname":"unknown","streettype":null,"suffdir":null,"city":"unknown","state_code":"UT","zip5":"84530","latitude":"38.3470560750000000","longitude":"-109.15289461900000","publicwifi":"U","url":null,"broadband_type_id":null}
{"id":null,"anchorname":"MONTICELLO RANGER DISTRICT","address":"496 EAST HWY 666, MONTICELLO UT 84535","bldgnbr":"496","predir":"E","streetname":"HWY 666","streettype":null,"suffdir":null,"city":"MONTICELLO","state_code":"UT","zip5":"84535","latitude":"37.8725818160000000","longitude":"-109.33468491000000","publicwifi":"U","url":null,"broadband_type_id":6}
{"id":null,"anchorname":"LA SAL MAIN POST OFFICE","address":"2 MAIN ST, LA SAL UT 84530","bldgnbr":"2","predir":null,"streetname":"MAIN","streettype":"ST","suffdir":null,"city":"LA SAL","state_code":"UT","zip5":"84530","latitude":"38.3125254630000000","longitude":"-109.25014260600000","publicwifi":"N","url":null,"broadband_type_id":null}
{"id":null,"anchorname":"ABAJO PEAK (MICROWAVE) (WAN)","address":"ABAJO PEAK, MONTICELLO UT 84535","bldgnbr":"unknown","predir":null,"streetname":"ABAJO PEAK","streettype":null,"suffdir":null,"city":"MONTICELLO","state_code":"UT","zip5":"84535","latitude":"37.8394430780000000","longitude":"-109.46233104800000","publicwifi":"U","url":null,"broadband_type_id":null}
{"id":null,"anchorname":"COLD SPRINGS MICROWAVE (UEN)","address":"unknown","bldgnbr":"unknown","predir":null,"streetname":"unknown","streettype":null,"suffdir":null,"city":"COLD SPRINGS","state_code":"UT","zip5":"84535","latitude":"37.8154189310000000","longitude":"-109.42548512600000","publicwifi":"U","url":null,"broadband_type_id":null}
{"id":null,"anchorname":"HOVENWEEP RANGER STATION","address":"unknown","bldgnbr":"unknown","predir":null,"streetname":"unknown","streettype":null,"suffdir":null,"city":"unknown","state_code":"UT","zip5":"84511","latitude":"37.3837670020000000","longitude":"-109.07256981600000","publicwifi":"U","url":null,"broadband_type_id":null}
{"id":null,"anchorname":"NECK RANGER STATION","address":"unknown","bldgnbr":"unknown","predir":null,"streetname":"unknown","streettype":null,"suffdir":null,"city":"unknown","state_code":"UT","zip5":"84532","latitude":"38.4594945710000000","longitude":"-109.82371987600000","publicwifi":"U","url":null,"broadband_type_id":null}
{"id":null,"anchorname":"BAKER RANGER STATION","address":"unknown","bldgnbr":"unknown","predir":null,"streetname":"unknown","streettype":null,"suffdir":null,"city":"unknown","state_code":"UT","zip5":"84535","latitude":"37.8699390980000000","longitude":"-109.35818415700000","publicwifi":"U","url":null,"broadband_type_id":null}
{"id":null,"anchorname":"BUREAU OF LAND MANAGEMENT - MONTICELLO FIELD OFFICE","address":"365 N MAIN STREET, MONTICELLO UT 84535","bldgnbr":"365","predir":"N","streetname":"MAIN","streettype":"ST","suffdir":null,"city":"MONTICELLO","state_code":"UT","zip5":"84535","latitude":"37.8777704890000000","longitude":"-109.34339071600000","publicwifi":"U","url":null,"broadband_type_id":null}
{"id":null,"anchorname":"MONTICELLO FIELD OFFICE","address":"365 NORTH MAIN, MONTICELLO UT 84535","bldgnbr":"365","predir":"N","streetname":"MAIN","streettype":null,"suffdir":null,"city":"MONTICELLO","state_code":"UT","zip5":"84535","latitude":"37.8777670350000000","longitude":"-109.34349107500000","publicwifi":"U","url":null,"broadband_type_id":null}
{"id":null,"anchorname":"DEPARTMENT OF TRANSPORTATION / PUBLIC SAFTEY (WAN)","address":"MONTICELLO UT 84535","bldgnbr":"unknown","predir":null,"streetname":"unknown","streettype":null,"suffdir":null,"city":"MONTICELLO","state_code":"UT","zip5":"84535","latitude":"37.8729789060000000","longitude":"-109.32936933500000","publicwifi":"U","url":null,"broadband_type_id":null}
{"id":null,"anchorname":"NAVAJO MOUNTAIN COMMUNITY HEALTH CLINIC","address":"2 RAINBOW ROAD, NAVAJO MOUNTAIN UT 84536","bldgnbr":"2","predir":null,"streetname":"RAINBOW","streettype":"RD","suffdir":null,"city":"NAVAJO MOUNTAIN","state_code":"UT","zip5":"84536","latitude":"37.0621653670000000","longitude":"-110.76584312800000","publicwifi":"U","url":null,"broadband_type_id":3}
{"id":null,"anchorname":"PACK CREEK FIRE DEPARTMENT","address":"383 PACK CREEK ROAD, MOAB UT 84532","bldgnbr":"383","predir":null,"streetname":"PACK CREEK","streettype":"RD","suffdir":null,"city":"MOAB","state_code":"UT","zip5":"84532","latitude":"38.4376928550000000","longitude":"-109.36162010100000","publicwifi":"U","url":null,"broadband_type_id":5}
{"id":null,"anchorname":"DEAD HORSE POINT STATE PARK RANGERS","address":"PO BOX 609, MOAB UT 84532","bldgnbr":"n/a","predir":null,"streetname":"PO BOX 609","streettype":null,"suffdir":null,"city":"MOAB","state_code":"UT","zip5":"84532","latitude":"38.4876173320000000","longitude":"-109.73567650900000","publicwifi":"U","url":null,"broadband_type_id":2}
{"id":null,"anchorname":"SAN JUAN COUNTY LIBRARY - LA SAL SATELLITE BRANCH","address":"MILE MARKER 9 HWY 46, LA SAL UT 84530","bldgnbr":"unknown","predir":null,"streetname":"HWY 46","streettype":null,"suffdir":null,"city":"LA SAL","state_code":"UT","zip5":"84530","latitude":"38.3126369970000000","longitude":"-109.25230398700000","publicwifi":"U","url":"http://www.sanjuancounty.org/library.html","broadband_type_id":6}
{"id":null,"anchorname":"LA SAL ELEMENTARY SCHOOL (UEN)","address":"HWY 46, LA SAL UT 84530","bldgnbr":"HWY","predir":null,"streetname":"46","streettype":null,"suffdir":null,"city":"LA SAL","state_code":"UT","zip5":"84530","latitude":"38.3128463680000000","longitude":"-109.25196773400000","publicwifi":"U","url":null,"broadband_type_id":6}
{"id":null,"anchorname":"SAN JUAN FIRE DEPARTMENT - LA SAL FIRE STATION","address":"FIREHOUSE LANE, LA SAL UT 84530","bldgnbr":"unknown","predir":null,"streetname":"FIREHOUSE","streettype":"LN","suffdir":null,"city":"LA SAL","state_code":"UT","zip5":"84530","latitude":"38.3069350490000000","longitude":"-109.27210062000000","publicwifi":"U","url":null,"broadband_type_id":5}
{"id":null,"anchorname":"SAN JUAN FIRE DEPARTMENT - EASTLAND FIRE STATION","address":"PINON DRIVE, MONTICELLO UT 84535","bldgnbr":"unknown","predir":null,"streetname":"PINION","streettype":"DR","suffdir":null,"city":"MONTICELLO","state_code":"UT","zip5":"84535","latitude":"37.8021903880000000","longitude":"-109.13483921400000","publicwifi":"U","url":null,"broadband_type_id":5}
{"id":null,"anchorname":"CEDAR POINT FIRE DEPARTMENT","address":"516 SOUTH COUNTY ROAD 342, MONTICELLO UT 84535","bldgnbr":"516","predir":"S","streetname":"COUNTY","streettype":"RD","suffdir":null,"city":"MONTICELLO","state_code":"UT","zip5":"84535","latitude":"37.7019796050000000","longitude":"-109.08091234300000","publicwifi":"U","url":null,"broadband_type_id":5}
{"id":null,"anchorname":"NATIONAL PARK SERVICE - HOVENWEEP NATIONAL MONUMENT RANGER STATION","address":"38 S HOVENWEEP CAMPGROUND RD, BLANDING UT 84535","bldgnbr":"38","predir":"S","streetname":"HOVENWEEP CAMPGROUND","streettype":"RD","suffdir":null,"city":"BLANDING","state_code":"UT","zip5":"84535","latitude":"37.3858510210000000","longitude":"-109.07530057600000","publicwifi":"U","url":null,"broadband_type_id":2}
{"id":null,"anchorname":"CANYONLANDS NATIONAL PARK - ISLANDS IN THE PARK FIRE DISTRICT (EMS)","address":"HWY 313, MOAB UT 84532","bldgnbr":"unknown","predir":null,"streetname":"HWY 313","streettype":null,"suffdir":null,"city":"MOAB","state_code":"UT","zip5":"84532","latitude":"38.4656728830000000","longitude":"-109.81889606500000","publicwifi":"U","url":null,"broadband_type_id":5}
{"id":null,"anchorname":"NATIONAL PARK SERVICE - CANYONLANDS NATIONAL PARK RANGER STATION","address":"1211 N GRAND VIEW POINT RD, MOAB UT 84532","bldgnbr":"1211","predir":"N","streetname":"GRAND VIEW POINT","streettype":"RD","suffdir":null,"city":"MOAB","state_code":"UT","zip5":"84532","latitude":"38.4598116030000000","longitude":"-109.82096769400000","publicwifi":"U","url":null,"broadband_type_id":2}
{"id":null,"anchorname":"CANYONLANDS NATIONAL PARK - ISLANDS IN THE SKY FIRE DISTRICT","address":"OFF GRAND VIEW POINT ROAD, MOAB UT 84532","bldgnbr":"unknown","predir":null,"streetname":"unknown","streettype":"RD","suffdir":null,"city":"MOAB","state_code":"UT","zip5":"84532","latitude":"38.4593950360000000","longitude":"-109.82434383500000","publicwifi":"U","url":null,"broadband_type_id":5}
{"id":null,"anchorname":"MONTICELLO SCHOOL","address":"197 N 200 W, MONTICELLO UT 84535","bldgnbr":"197","predir":"N","streetname":"200","streettype":null,"suffdir":"W","city":"MONTICELLO","state_code":"UT","zip5":"84535","latitude":"37.8753930860000000","longitude":"-109.34699341000000","publicwifi":"U","url":null,"broadband_type_id":6}
{"id":null,"anchorname":"SAN JUAN HOSPITAL (UTN)","address":"380 WEST 100 NORTH, MONTICELLO UT 84535","bldgnbr":"380","predir":"W","streetname":"100","streettype":null,"suffdir":"N","city":"MONTICELLO","state_code":"UT","zip5":"84535","latitude":"37.8739956850000000","longitude":"-109.34999463700000","publicwifi":"U","url":"http://www.utahtelehealth.net/","broadband_type_id":3}
{"id":null,"anchorname":"SAN JUAN HOSPITAL","address":"380 WEST 100 NORTH, MONTICELLO UT 84535","bldgnbr":"380","predir":"W","streetname":"100","streettype":null,"suffdir":"N","city":"MONTICELLO","state_code":"UT","zip5":"84535","latitude":"37.8744680620000000","longitude":"-109.34986960800000","publicwifi":"U","url":null,"broadband_type_id":3}
{"id":null,"anchorname":"SAN JUAN CLINIC","address":"380 WEST 100 NORTH, SUITE A, MONTICELLO UT 84535","bldgnbr":"380","predir":"W","streetname":"100","streettype":null,"suffdir":"N","city":"MONTICELLO","state_code":"UT","zip5":"84535","latitude":"37.8744680620000000","longitude":"-109.34986960800000","publicwifi":"U","url":null,"broadband_type_id":3}
{"id":null,"anchorname":"SAN JUAN HOSPITAL MAMMOGRAPHY","address":"380 WEST 100 NORTH, MONTICELLO UT 84535","bldgnbr":"380","predir":"W","streetname":"100","streettype":null,"suffdir":"N","city":"MONTICELLO","state_code":"UT","zip5":"84535","latitude":"37.8744680620000000","longitude":"-109.34986960800000","publicwifi":"U","url":null,"broadband_type_id":3}
{"id":null,"anchorname":"MONTICELLO HIGH SCHOOL (UEN)","address":"164 SOUTH 200 WEST, MONTICELLO UT 84535","bldgnbr":"164","predir":"S","streetname":"200","streettype":null,"suffdir":"W","city":"MONTICELLO","state_code":"UT","zip5":"84535","latitude":"37.8710747860000000","longitude":"-109.34720929400000","publicwifi":"U","url":null,"broadband_type_id":6}
{"id":null,"anchorname":"SAN JUAN EMERGENCY MEDICAL SERVICES - MONTICELLO (EMS)","address":"7 S 100 W, MONTICELLO UT 84535","bldgnbr":"7","predir":"S","streetname":"100","streettype":null,"suffdir":"W","city":"MONTICELLO","state_code":"UT","zip5":"84535","latitude":"37.8715106780000000","longitude":"-109.34385414700000","publicwifi":"U","url":null,"broadband_type_id":3}
{"id":null,"anchorname":"MONTICELLO FIRE DEPARTMENT","address":"121 SOUTH 100 WEST, MONTICELLO UT 84535","bldgnbr":"121","predir":"S","streetname":"100","streettype":null,"suffdir":"W","city":"MONTICELLO","state_code":"UT","zip5":"84535","latitude":"37.8708279910000000","longitude":"-109.34432066000000","publicwifi":"U","url":null,"broadband_type_id":5}
{"id":null,"anchorname":"TACHII'NII NURSING SERVICES INC","address":"316 S MAIN STREET, MONTICELLO UT 84535","bldgnbr":"316","predir":"S","streetname":"MAIN","streettype":"ST","suffdir":null,"city":"MONTICELLO","state_code":"UT","zip5":"84535","latitude":"37.8680432280000000","longitude":"-109.34318670000000","publicwifi":"U","url":null,"broadband_type_id":3}
{"id":null,"anchorname":"N. Socorro County Senior Center","address":"894 Hwy 304","bldgnbr":"894","predir":null,"streetname":"State Hwy 304","streettype":null,"suffdir":null,"city":"Veguita","state_code":"NM","zip5":"87062","latitude":"34.4514135530000000","longitude":"-106.77569076400000","publicwifi":"U","url":null,"broadband_type_id":1}
{"id":null,"anchorname":"New Mexico Human Services Department - Child Support Enforcement Division - County Office 4 (Satellite Office)","address":"145 Roy Rd","bldgnbr":"145","predir":null,"streetname":"ROY","streettype":"RD","suffdir":null,"city":"Taos","state_code":"NM","zip5":"87571","latitude":"36.3763754290000000","longitude":"-105.59207694400000","publicwifi":"U","url":"http://www.hsd.state.nm.us/csed/","broadband_type_id":4}
{"id":null,"anchorname":"MONTICELLO MAIN POST OFFICE","address":"197 S MAIN ST, MONTICELLO UT 84535","bldgnbr":"197","predir":"S","streetname":"MAIN","streettype":"ST","suffdir":null,"city":"MONTICELLO","state_code":"UT","zip5":"84535","latitude":"37.8698451830000000","longitude":"-109.34282619900000","publicwifi":"N","url":null,"broadband_type_id":null}
{"id":null,"anchorname":"PUBLIC SAFTEY (WAN)","address":"297 S MAIN ST, MONTICELLO UT 84535","bldgnbr":"297","predir":"S","streetname":"MAIN","streettype":"ST","suffdir":null,"city":"MONTICELLO","state_code":"UT","zip5":"84535","latitude":"37.8684398700000000","longitude":"-109.34284210700000","publicwifi":"U","url":null,"broadband_type_id":null}
{"id":null,"anchorname":"NEEDLES RANGER STATION  THE","address":"unknown","bldgnbr":"unknown","predir":null,"streetname":"unknown","streettype":null,"suffdir":null,"city":"unknown","state_code":"UT","zip5":"84532","latitude":"38.1511843520000000","longitude":"-109.77464425500000","publicwifi":"U","url":null,"broadband_type_id":6}
{"id":null,"anchorname":"CEDAR MESA MICROWAVE (UEN)","address":"unknown","bldgnbr":"unknown","predir":null,"streetname":"unknown","streettype":null,"suffdir":null,"city":"CEDAR MESA","state_code":"UT","zip5":"84531","latitude":"37.2943092720000000","longitude":"-109.93395953300000","publicwifi":"U","url":null,"broadband_type_id":6}
{"id":null,"anchorname":"BLUFF ELEMENTARY MICROWAVE (UEN)","address":"unknown","bldgnbr":"unknown","predir":null,"streetname":"unknown","streettype":null,"suffdir":null,"city":"BLUFF","state_code":"UT","zip5":"84512","latitude":"37.2838491410000000","longitude":"-109.55161329900000","publicwifi":"U","url":null,"broadband_type_id":6}
{"id":null,"anchorname":"KIGALIA RANGER STATION","address":"unknown","bldgnbr":"unknown","predir":null,"streetname":"unknown","streettype":null,"suffdir":null,"city":"unknown","state_code":"UT","zip5":"84511","latitude":"37.6740405360000000","longitude":"-109.82688617400000","publicwifi":"U","url":null,"broadband_type_id":null}
{"id":null,"anchorname":"NORTH COTTONWOOD GUARD STATION","address":"unknown","bldgnbr":"unknown","predir":null,"streetname":"unknown","streettype":null,"suffdir":null,"city":"unknown","state_code":"UT","zip5":"84532","latitude":"37.9244599220000000","longitude":"-109.64243768300000","publicwifi":"U","url":null,"broadband_type_id":null}
{"id":null,"anchorname":"GOOSEBERRY RANGER STATION","address":"unknown","bldgnbr":"unknown","predir":null,"streetname":"unknown","streettype":null,"suffdir":null,"city":"unknown","state_code":"UT","zip5":"84511","latitude":"37.8227958860000000","longitude":"-109.77168308900000","publicwifi":"U","url":null,"broadband_type_id":null}
{"id":null,"anchorname":"INDIAN CREEK RANGER STATION","address":"unknown","bldgnbr":"unknown","predir":null,"streetname":"unknown","streettype":null,"suffdir":null,"city":"unknown","state_code":"UT","zip5":"84535","latitude":"37.8374947100000000","longitude":"-109.51168025100000","publicwifi":"U","url":null,"broadband_type_id":null}
{"id":null,"anchorname":"GRAND GULCH RANGER STATION","address":"unknown","bldgnbr":"unknown","predir":null,"streetname":"unknown","streettype":null,"suffdir":null,"city":"unknown","state_code":"UT","zip5":"84511","latitude":"37.5244264170000000","longitude":"-109.89577422000000","publicwifi":"U","url":null,"broadband_type_id":null}
{"id":null,"anchorname":"MCCRACKEN MESA MICROWAVE (UEN)","address":"unknown","bldgnbr":"unknown","predir":null,"streetname":"unknown","streettype":null,"suffdir":null,"city":"unknown","state_code":"UT","zip5":"84511","latitude":"37.3187953420000000","longitude":"-109.35559780700000","publicwifi":"U","url":null,"broadband_type_id":6}
{"id":null,"anchorname":"TSEBII' NIDZISGAI ELEMENTARY (UEN)","address":"HIGHWAY 163, MONUMENT VALLEY UT 84531","bldgnbr":"HIGHWAY","predir":null,"streetname":"163","streettype":null,"suffdir":null,"city":"MONUMENT VALLEY","state_code":"UT","zip5":"84531","latitude":"37.1478999810000000","longitude":"-109.86116254000000","publicwifi":"U","url":null,"broadband_type_id":6}
{"id":null,"anchorname":"ALBERT R LYMAN MIDDLE (UEN)","address":"535 N 100 E, BLANDING UT 84511","bldgnbr":"535","predir":"N","streetname":"100","streettype":null,"suffdir":"E","city":"BLANDING","state_code":"UT","zip5":"84511","latitude":"37.6328553470000000","longitude":"-109.47702468100000","publicwifi":"U","url":null,"broadband_type_id":6}
{"id":null,"anchorname":"SAN JUAN HIGH (UEN)","address":"311 N 100 E, BLANDING UT 84511","bldgnbr":"311","predir":"N","streetname":"100","streettype":null,"suffdir":"E","city":"BLANDING","state_code":"UT","zip5":"84511","latitude":"37.6298793450000000","longitude":"-109.47695284000000","publicwifi":"U","url":null,"broadband_type_id":6}
{"id":null,"anchorname":"BLUFF MAIN POST OFFICE","address":"55 N 500 E, BLUFF UT 84512","bldgnbr":"55","predir":"N","streetname":"500","streettype":null,"suffdir":"E","city":"BLUFF","state_code":"UT","zip5":"84512","latitude":"37.2837947470000000","longitude":"-109.55383550100000","publicwifi":"N","url":null,"broadband_type_id":null}
{"id":null,"anchorname":"MEXICAN HAT POST OFFICE","address":"2256 US HIGHWAY 163, MEXICAN HAT UT 84531","bldgnbr":"2256","predir":null,"streetname":"US HIGHWAY 163","streettype":null,"suffdir":null,"city":"MEXICAN HAT","state_code":"UT","zip5":"84531","latitude":"37.1633983820000000","longitude":"-109.85929403800000","publicwifi":"N","url":null,"broadband_type_id":null}
{"id":null,"anchorname":"CLAY HILLS MICROWAVE (UEN)","address":"unknown","bldgnbr":"unknown","predir":null,"streetname":"unknown","streettype":null,"suffdir":null,"city":"CLAY HILLS","state_code":"UT","zip5":"84533","latitude":"37.3995811400000000","longitude":"-110.32434214300000","publicwifi":"U","url":null,"broadband_type_id":null}
{"id":null,"anchorname":"DRIVERS LICENSE (WAN)","address":"151 E 500 N, BLANDING UT 84511","bldgnbr":"151","predir":"E","streetname":"500","streettype":null,"suffdir":"N","city":"BLANDING","state_code":"UT","zip5":"84511","latitude":"37.6323166840000000","longitude":"-109.47560302400000","publicwifi":"U","url":null,"broadband_type_id":null}
{"id":null,"anchorname":"BLANDING SHARED (DSL HUB) (WAN)","address":"522 N 100 E, BLANDING UT 84511","bldgnbr":"522","predir":"N","streetname":"100","streettype":null,"suffdir":"E","city":"BLANDING","state_code":"UT","zip5":"84511","latitude":"37.6325393760000000","longitude":"-109.47608350600000","publicwifi":"U","url":null,"broadband_type_id":null}
{"id":null,"anchorname":"USOR BLANDING (UEN)","address":"121 E 500 N, BLANDING UT 84511","bldgnbr":"121","predir":"E","streetname":"500","streettype":null,"suffdir":"N","city":"BLANDING","state_code":"UT","zip5":"84511","latitude":"37.6328807260000000","longitude":"-109.47584954200000","publicwifi":"U","url":null,"broadband_type_id":null}
{"id":null,"anchorname":"BLANDING MICROWAVE (UEN)","address":"unknown","bldgnbr":"unknown","predir":null,"streetname":"unknown","streettype":null,"suffdir":null,"city":"BLANDING","state_code":"UT","zip5":"84511","latitude":"37.6288169460000000","longitude":"-109.47892362200000","publicwifi":"U","url":null,"broadband_type_id":null}
{"id":null,"anchorname":"CANYONLANDS NATIONAL PARK - NEEDLES FIRE DISTRICT (EMS)","address":"HWY 211, MOAB UT 84532","bldgnbr":"unknown","predir":null,"streetname":"HWY 211","streettype":null,"suffdir":null,"city":"MOAB","state_code":"UT","zip5":"84532","latitude":"38.1670772920000000","longitude":"-109.75992088300000","publicwifi":"U","url":null,"broadband_type_id":5}
{"id":null,"anchorname":"CANYONLANDS NATIONAL PARK NEEDLES VISITOR CENTER","address":"2282 SW RESOURCE BLVD, MOAB UT 84532","bldgnbr":"2282","predir":"SW","streetname":"RESOURCE","streettype":"BLVD","suffdir":null,"city":"MOAB","state_code":"UT","zip5":"84532","latitude":"38.1680284320000000","longitude":"-109.75951972700000","publicwifi":"U","url":"http://www.nps.gov/cany/index.htm","broadband_type_id":2}
{"id":null,"anchorname":"CANYONLANDS NATIONAL PARK - NEEDLES FIRE DISTRICT","address":"SQUAW FLAT ROAD, MOAB UT 84532","bldgnbr":"unknown","predir":null,"streetname":"SQUAW FLAT","streettype":"RD","suffdir":null,"city":"MOAB","state_code":"UT","zip5":"84532","latitude":"38.1503501500000000","longitude":"-109.77534936000000","publicwifi":"U","url":null,"broadband_type_id":5}
{"id":null,"anchorname":"UTE MOUNTAIN UTE TRIBE - WHITE MESA LIBRARY","address":"33 MESA VIEW DR, WHITE MESA UT 84511","bldgnbr":"33","predir":null,"streetname":"MESA VIEW","streettype":"DR","suffdir":null,"city":"WHITE MESA","state_code":"UT","zip5":"84511","latitude":"37.4589080370000000","longitude":"-109.46946005400000","publicwifi":"U","url":null,"broadband_type_id":6}
{"id":null,"anchorname":"SAN JUAN FIRE DEPARTMENT - MEXICAN HAT FIRE STATION","address":"FIRE STATION ROAD, MEXICAN HAT UT 84531","bldgnbr":"unknown","predir":null,"streetname":"FIRE STATION","streettype":"RD","suffdir":null,"city":"MEXICAN HAT","state_code":"UT","zip5":"84531","latitude":"37.1507314780000000","longitude":"-109.85862539400000","publicwifi":"U","url":null,"broadband_type_id":5}
{"id":null,"anchorname":"SAN JUAN COUNTY LIBRARY - BLUFF SATELLITE BRANCH","address":"480 E BLACK LOCUST AVE, BLUFF UT 84512","bldgnbr":"480","predir":"E","streetname":"BLACK LOCUST","streettype":"AVE","suffdir":null,"city":"BLUFF","state_code":"UT","zip5":"84512","latitude":"37.2840769940000000","longitude":"-109.55560299600000","publicwifi":"U","url":"http://www.sanjuancounty.org/library.html","broadband_type_id":6}
{"id":null,"anchorname":"SAN JUAN FIRE DEPARTMENT - BLUFF VOLUNTEER FIRE STATION (EMS)","address":"55 N MAIN ST, BLUFF UT 84512","bldgnbr":"55","predir":"N","streetname":"MAIN","streettype":"ST","suffdir":null,"city":"BLUFF","state_code":"UT","zip5":"84512","latitude":"37.2833078270000000","longitude":"-109.55441626600000","publicwifi":"U","url":null,"broadband_type_id":5}
{"id":null,"anchorname":"SAN JUAN FIRE DEPARTMENT - BLUFF VOLUNTEER FIRE STATION","address":"EAST BLACK LOCUST, BLUFF UT 84512","bldgnbr":"unknown","predir":null,"streetname":"EAST BLACK LOCUST","streettype":null,"suffdir":null,"city":"BLUFF","state_code":"UT","zip5":"84512","latitude":"37.2839371010000000","longitude":"-109.55436215200000","publicwifi":"U","url":null,"broadband_type_id":5}
{"id":null,"anchorname":"NATIONAL PARK SERVICE - NATURAL BRIDGES NATIONAL MONUMENT RANGER STATION","address":"HWY 275, HITE UT 84533","bldgnbr":"unknown","predir":null,"streetname":"HWY 275","streettype":null,"suffdir":null,"city":"HITE","state_code":"UT","zip5":"84533","latitude":"37.6093435170000000","longitude":"-109.97703890100000","publicwifi":"U","url":null,"broadband_type_id":2}
{"id":null,"anchorname":"HALLS CROSSING POST OFFICE","address":"78 W HWY 276, LAKE POWELL UT 84533","bldgnbr":"78","predir":"W","streetname":"HWY 276","streettype":null,"suffdir":null,"city":"LAKE POWELL","state_code":"UT","zip5":"84533","latitude":"37.4564313240000000","longitude":"-110.71410673100000","publicwifi":"N","url":null,"broadband_type_id":1}
{"id":null,"anchorname":"BLUE MOUNTAIN HOSPITAL (UTN)","address":"850 SOUTH 100 WEST, BLANDING UT 84511","bldgnbr":"850","predir":"S","streetname":"100","streettype":null,"suffdir":"W","city":"BLANDING","state_code":"UT","zip5":"84511","latitude":"37.6378889570000000","longitude":"-109.47960644500000","publicwifi":"U","url":"http://www.utahtelehealth.net/","broadband_type_id":3}
{"id":null,"anchorname":"BLANDING CLINIC (UTN)","address":"804 NORTH 400 WEST, BLANDING UT 84511","bldgnbr":"804","predir":"N","streetname":"400","streettype":null,"suffdir":"W","city":"BLANDING","state_code":"UT","zip5":"84511","latitude":"37.6374219450000000","longitude":"-109.48481238200000","publicwifi":"U","url":"http://www.utahtelehealth.net/","broadband_type_id":3}
{"id":null,"anchorname":"BLANDING MEDICAL CLINIC","address":"804 NORTH 400 WEST, BLANDING UT 84511","bldgnbr":"804","predir":"N","streetname":"400","streettype":null,"suffdir":"W","city":"BLANDING","state_code":"UT","zip5":"84511","latitude":"37.6374278530000000","longitude":"-109.48482325500000","publicwifi":"U","url":null,"broadband_type_id":3}
{"id":null,"anchorname":"HOME SCHOOL (SAN JUAN)","address":"200 N MAIN ST, BLANDING UT 84511","bldgnbr":"200","predir":"N","streetname":"MAIN","streettype":"ST","suffdir":null,"city":"BLANDING","state_code":"UT","zip5":"84511","latitude":"37.6286307890000000","longitude":"-109.47804658500000","publicwifi":"U","url":null,"broadband_type_id":6}
{"id":null,"anchorname":"PRIVATE SCHOOL (SAN JUAN)","address":"200 N MAIN ST, BLANDING UT 84511","bldgnbr":"200","predir":"N","streetname":"MAIN","streettype":"ST","suffdir":null,"city":"BLANDING","state_code":"UT","zip5":"84511","latitude":"37.6286307890000000","longitude":"-109.47804658500000","publicwifi":"U","url":null,"broadband_type_id":6}
{"id":null,"anchorname":"SAN JUAN MEDIA CENTER (UEN)","address":"28 W 200 N, BLANDING UT 84511","bldgnbr":"28","predir":"W","streetname":"200","streettype":null,"suffdir":"N","city":"BLANDING","state_code":"UT","zip5":"84511","latitude":"37.6288169460000000","longitude":"-109.47892362200000","publicwifi":"U","url":null,"broadband_type_id":null}
{"id":null,"anchorname":"Edward E. Torres Elementary","address":"239 Garfield Avenue Sw","bldgnbr":"239","predir":null,"streetname":"GARFIELD","streettype":"AVE","suffdir":"SW","city":"Socorro","state_code":"NM","zip5":"87801","latitude":"34.0563663550000000","longitude":"-106.89503332000000","publicwifi":"U","url":"http://newmexico.webschoolpro.com/edward-e-torres-elementary-school_NM053074154/","broadband_type_id":6}
{"id":null,"anchorname":"USU BLANDING (UEN)","address":"639 W 100 S, BLANDING UT 84511","bldgnbr":"639","predir":"W","streetname":"100","streettype":null,"suffdir":"S","city":"BLANDING","state_code":"UT","zip5":"84511","latitude":"37.6235933770000000","longitude":"-109.48929624300000","publicwifi":"U","url":null,"broadband_type_id":null}
{"id":null,"anchorname":"USU EXTENSION CENTER BLANDING (UEN)","address":"639 W 100 S, BLANDING UT 84511","bldgnbr":"639","predir":"W","streetname":"100","streettype":null,"suffdir":"S","city":"BLANDING","state_code":"UT","zip5":"84511","latitude":"37.6234979510000000","longitude":"-109.48926248100000","publicwifi":"U","url":null,"broadband_type_id":null}
{"id":null,"anchorname":"SOUTHEAST ATC (UEN)","address":"451 E 400 N, PRICE UT 84511","bldgnbr":"451","predir":"E","streetname":"400","streettype":null,"suffdir":"N","city":"PRICE","state_code":"UT","zip5":"84511","latitude":"37.6230286610000000","longitude":"-109.49019875100000","publicwifi":"U","url":null,"broadband_type_id":null}
{"id":null,"anchorname":"Penasco Middle","address":"P.O. Box 520","bldgnbr":"N/A","predir":null,"streetname":"P.O. Box 520","streettype":null,"suffdir":null,"city":"Penasco","state_code":"NM","zip5":"87553","latitude":"36.1752443200000000","longitude":"-105.68573828200000","publicwifi":"U","url":"http://www.penasco.k12.nm.us/pms%5Cmiddle%20school.html","broadband_type_id":6}
{"id":null,"anchorname":"DEPARTMANT OF NATURAL RESOURCES (WAN)","address":"650 W 400 N, BLANDING UT 84511","bldgnbr":"650","predir":"W","streetname":"400","streettype":null,"suffdir":"N","city":"BLANDING","state_code":"UT","zip5":"84511","latitude":"37.6310060480000000","longitude":"-109.48938244900000","publicwifi":"U","url":null,"broadband_type_id":6}
{"id":null,"anchorname":"SAN JUAN COUNSELING CENTER","address":"356 SOUTH MAIN STREET, BLANDING UT 84511","bldgnbr":"356","predir":"S","streetname":"MAIN","streettype":"ST","suffdir":null,"city":"BLANDING","state_code":"UT","zip5":"84511","latitude":"37.6204775390000000","longitude":"-109.47772925300000","publicwifi":"U","url":null,"broadband_type_id":null}
{"id":null,"anchorname":"HS YOUTH CORRECTIONS (WAN)","address":"244 W OLD RUIN RD, BLANDING UT 84511","bldgnbr":"244","predir":"W","streetname":"OLD RUIN","streettype":"RD","suffdir":null,"city":"BLANDING","state_code":"UT","zip5":"84511","latitude":"37.6029708410000000","longitude":"-109.48260432200000","publicwifi":"U","url":null,"broadband_type_id":6}
{"id":null,"anchorname":"BLANDING FAMILY PRACTICE","address":"802 S 200 W, BLANDING UT 84511","bldgnbr":"802","predir":"S","streetname":"200","streettype":null,"suffdir":"W","city":"BLANDING","state_code":"UT","zip5":"84511","latitude":"37.6155881080000000","longitude":"-109.47434771800000","publicwifi":"U","url":null,"broadband_type_id":null}
{"id":null,"anchorname":"BLANDING FAMILY PRACTICE - INTERCONNECT SITE (UTN)","address":"799 SOUTH 200 WEST, BLANDING UT 84511","bldgnbr":"799","predir":"S","streetname":"200","streettype":null,"suffdir":"W","city":"BLANDING","state_code":"UT","zip5":"84511","latitude":"37.6136172140000000","longitude":"-109.48131913300000","publicwifi":"U","url":"http://www.utahtelehealth.net/","broadband_type_id":null}
{"id":null,"anchorname":"BLANDING FAMILY PRACTICE - INTERCONNECT","address":"799 SOUTH 200 WEST, BLANDING UT 84511","bldgnbr":"799","predir":"S","streetname":"200","streettype":null,"suffdir":"W","city":"BLANDING","state_code":"UT","zip5":"84511","latitude":"37.6138302060000000","longitude":"-109.48119481900000","publicwifi":"U","url":null,"broadband_type_id":null}
{"id":null,"anchorname":"CANYONLANDS YOUTH HOME (YIC)","address":"244 W OLD RUIN RD, BLANDING UT 84511","bldgnbr":"244","predir":"W","streetname":"OLD RUIN","streettype":"RD","suffdir":null,"city":"BLANDING","state_code":"UT","zip5":"84511","latitude":"37.6034701250000000","longitude":"-109.48252575700000","publicwifi":"U","url":null,"broadband_type_id":null}
{"id":null,"anchorname":"HS DCFS (WAN)","address":"57 W 200 N, BOUNTIFUL UT 84511","bldgnbr":"57","predir":"W","streetname":"200","streettype":null,"suffdir":"N","city":"BOUNTIFUL","state_code":"UT","zip5":"84511","latitude":"37.6280825630000000","longitude":"-109.47899105800000","publicwifi":"U","url":null,"broadband_type_id":6}
{"id":null,"anchorname":"BLANDING POST OFFICE","address":"90 N MAIN ST, BLANDING UT 84511","bldgnbr":"90","predir":"N","streetname":"MAIN","streettype":"ST","suffdir":null,"city":"BLANDING","state_code":"UT","zip5":"84511","latitude":"37.6266722510000000","longitude":"-109.47779530700000","publicwifi":"N","url":null,"broadband_type_id":null}
{"id":null,"anchorname":"SANPETE COUNTY BOOKMOBILE - HIDEAWAY VALLEY STOP","address":"10057 E 34840 NORTH, INDIANOLA UT 84629","bldgnbr":"10057","predir":"E","streetname":"34840","streettype":null,"suffdir":"N","city":"INDIANOLA","state_code":"UT","zip5":"84629","latitude":"39.7610820260000000","longitude":"-111.48282098000000","publicwifi":"Y","url":"http://bookmobiles.utah.gov/sanpete/index.html","broadband_type_id":6}
{"id":null,"anchorname":"FAIRVIEW ELEMENTARY (UEN)","address":"651 E 150 N, FAIRVIEW UT 84629","bldgnbr":"651","predir":"E","streetname":"150","streettype":null,"suffdir":"N","city":"FAIRVIEW","state_code":"UT","zip5":"84629","latitude":"39.6314970560000000","longitude":"-111.42573479900000","publicwifi":"U","url":null,"broadband_type_id":6}
{"id":null,"anchorname":"UTAH STATE OFFICE OF REHABILITATION (USOR) (WAN)","address":"212 S MAIN ST, BLANDING UT 84511","bldgnbr":"212","predir":"S","streetname":"MAIN","streettype":"ST","suffdir":null,"city":"BLANDING","state_code":"UT","zip5":"84511","latitude":"37.6223351700000000","longitude":"-109.47818573600000","publicwifi":"U","url":null,"broadband_type_id":1}
{"id":null,"anchorname":"MAMMOTH RANGER STATION","address":"unknown","bldgnbr":"unknown","predir":null,"streetname":"unknown","streettype":null,"suffdir":null,"city":"unknown","state_code":"UT","zip5":"84629","latitude":"39.6959639370000000","longitude":"-111.30567778200000","publicwifi":"U","url":null,"broadband_type_id":null}
{"id":null,"anchorname":"INDIANOLA VALLEY","address":"8340 EAST 33500 NORTH, FAIRVIEW UT 84629","bldgnbr":"8340","predir":"E","streetname":"33500","streettype":null,"suffdir":"N","city":"FAIRVIEW","state_code":"UT","zip5":"84629","latitude":"39.8037915160000000","longitude":"-111.48842258500000","publicwifi":"U","url":null,"broadband_type_id":null}
{"id":null,"anchorname":"FAIRVIEW MAIN POST OFFICE","address":"62 W CENTER ST, FAIRVIEW UT 84629","bldgnbr":"62","predir":"W","streetname":"CENTER","streettype":"ST","suffdir":null,"city":"FAIRVIEW","state_code":"UT","zip5":"84629","latitude":"39.6282236350000000","longitude":"-111.44046853600000","publicwifi":"N","url":null,"broadband_type_id":null}
{"id":null,"anchorname":"FAIRVIEW CO (UEN)","address":"45 E CENTER ST, FAIRVIEW UT 84629","bldgnbr":"45","predir":"E","streetname":"CENTER","streettype":"ST","suffdir":null,"city":"FAIRVIEW","state_code":"UT","zip5":"84629","latitude":"39.6279505930000000","longitude":"-111.43876187300000","publicwifi":"U","url":null,"broadband_type_id":null}
{"id":null,"anchorname":"CENTRO DE LA FAMILIA MT. PLEASANT (UEN)","address":"1150 BLACKHAWK BLVD, MT. PLEASANT UT 84647","bldgnbr":"1150","predir":null,"streetname":"BLACKHAWK","streettype":"BLVD","suffdir":null,"city":"MT. PLEASANT","state_code":"UT","zip5":"84647","latitude":"39.5292721080000000","longitude":"-111.46807690500000","publicwifi":"U","url":null,"broadband_type_id":null}
{"id":null,"anchorname":"LAKE GUARD STATION","address":"unknown","bldgnbr":"unknown","predir":null,"streetname":"unknown","streettype":null,"suffdir":null,"city":"unknown","state_code":"UT","zip5":"84647","latitude":"39.5794505480000000","longitude":"-111.25581788000000","publicwifi":"U","url":null,"broadband_type_id":null}
{"id":null,"anchorname":"SAN JUAN COUNTY LIBRARY","address":"25 W 300 S, BLANDING UT 84511","bldgnbr":"25","predir":"W","streetname":"300","streettype":null,"suffdir":"S","city":"BLANDING","state_code":"UT","zip5":"84511","latitude":"37.6210224330000000","longitude":"-109.47840603100000","publicwifi":"Y","url":"http://sanjuancounty.org/library.html","broadband_type_id":6}
{"id":null,"anchorname":"FOUR CORNERS HEALTHCARE","address":"301 S MAIN ST, BLANDING UT 84511","bldgnbr":"301","predir":"S","streetname":"MAIN","streettype":"ST","suffdir":null,"city":"BLANDING","state_code":"UT","zip5":"84511","latitude":"37.6210248860000000","longitude":"-109.47787660700000","publicwifi":"U","url":null,"broadband_type_id":3}
{"id":null,"anchorname":"BLUE MOUNTAIN HOSPITAL","address":"802 SOUTH 200 WEST, BLANDING UT 84511","bldgnbr":"802","predir":"S","streetname":"200","streettype":null,"suffdir":"W","city":"BLANDING","state_code":"UT","zip5":"84511","latitude":"37.6129413040000000","longitude":"-109.48254808900000","publicwifi":"U","url":null,"broadband_type_id":3}
{"id":null,"anchorname":"CRITICAL NURSE STAFFING, INC","address":"58 NORTH MAIN STREET, BLANDING UT 84511","bldgnbr":"58","predir":"N","streetname":"MAIN","streettype":"ST","suffdir":null,"city":"BLANDING","state_code":"UT","zip5":"84511","latitude":"37.6262360780000000","longitude":"-109.47781236300000","publicwifi":"U","url":null,"broadband_type_id":3}
{"id":null,"anchorname":"SOUTHEASTERN UTAH HEALTH DEPARTMENT","address":"193 EAST CENTER STREET, BLANDING UT 84511","bldgnbr":"193","predir":"E","streetname":"CENTER","streettype":"ST","suffdir":null,"city":"BLANDING","state_code":"UT","zip5":"84511","latitude":"37.6255126860000000","longitude":"-109.47454416900000","publicwifi":"U","url":null,"broadband_type_id":3}
{"id":null,"anchorname":"BLANDING FIRE DEPARTMENT","address":"350 WEST 200 SOUTH, BLANDING UT 84511","bldgnbr":"350","predir":"W","streetname":"200","streettype":null,"suffdir":"S","city":"BLANDING","state_code":"UT","zip5":"84511","latitude":"37.6228204890000000","longitude":"-109.48442967400000","publicwifi":"U","url":null,"broadband_type_id":5}
{"id":null,"anchorname":"SANPETE COUNTY BOOKMOBILE - FAIRVIEW ELEMENTARY SCHOOL STOP","address":"651 E 150 N, FAIRVIEW UT 84629","bldgnbr":"651","predir":"E","streetname":"150","streettype":null,"suffdir":"N","city":"FAIRVIEW","state_code":"UT","zip5":"84629","latitude":"39.6308870040000000","longitude":"-111.42599499000000","publicwifi":"Y","url":"http://bookmobiles.utah.gov/sanpete/index.html","broadband_type_id":6}
{"id":null,"anchorname":"BAKER'S RESIDENTIAL CARE","address":"65 EAST 100 NORTH, FAIRVIEW UT 84629","bldgnbr":"65","predir":"E","streetname":"100","streettype":null,"suffdir":"N","city":"FAIRVIEW","state_code":"UT","zip5":"84629","latitude":"39.6298734640000000","longitude":"-111.43716692000000","publicwifi":"U","url":null,"broadband_type_id":3}
{"id":null,"anchorname":"FAIRVIEW VOLUNTEER FIRE DEPARTMENT","address":"165 NORTH STATE STREET, FAIRVIEW UT 84629","bldgnbr":"165","predir":"N","streetname":"STATE","streettype":"ST","suffdir":null,"city":"FAIRVIEW","state_code":"UT","zip5":"84629","latitude":"39.6306565990000000","longitude":"-111.43961387000000","publicwifi":"U","url":null,"broadband_type_id":5}
{"id":null,"anchorname":"FAIRVIEW POLICE DEPT","address":"85 SOUTH STATE ST, FAIRVIEW UT 84629","bldgnbr":"85","predir":"S","streetname":"STATE","streettype":"ST","suffdir":null,"city":"FAIRVIEW","state_code":"UT","zip5":"84629","latitude":"39.6267479630000000","longitude":"-111.43891064500000","publicwifi":"U","url":null,"broadband_type_id":4}
{"id":null,"anchorname":"SANPETE COUNTY BOOKMOBILE - SANPETE COUNTY HEADQUARTERS LIBRARY STOP","address":"75 S STATE ST, FAIRVIEW UT 84629","bldgnbr":"75","predir":"S","streetname":"STATE","streettype":"ST","suffdir":null,"city":"FAIRVIEW","state_code":"UT","zip5":"84629","latitude":"39.6268339700000000","longitude":"-111.43904099100000","publicwifi":"Y","url":"http://bookmobiles.utah.gov/sanpete/index.html","broadband_type_id":6}
{"id":null,"anchorname":"New Mexico Motor Vehicle Division - Red River","address":"100 E Main","bldgnbr":"100","predir":"E","streetname":"Main","streettype":null,"suffdir":null,"city":"Red River","state_code":"NM","zip5":"87558","latitude":"36.7081334750000000","longitude":"-105.40608079400000","publicwifi":"U","url":"http://www.mvd.newmexico.gov/Pages/Home.aspx","broadband_type_id":6}
{"id":null,"anchorname":"Village of Painted Post","address":"Village Square","bldgnbr":"N/A","predir":null,"streetname":"Village Square","streettype":null,"suffdir":null,"city":"Painted Post","state_code":"NY","zip5":"14870","latitude":"42.1586675590000000","longitude":"-77.093824917000000","publicwifi":"U","url":null,"broadband_type_id":1}
{"id":null,"anchorname":"NORTH SANPETE LEARNING CENTER (UEN)","address":"695 S 300 E, MT PLEASANT UT 84647","bldgnbr":"695","predir":"S","streetname":"300","streettype":null,"suffdir":"E","city":"MT PLEASANT","state_code":"UT","zip5":"84647","latitude":"39.5368216800000000","longitude":"-111.44922266800000","publicwifi":"U","url":null,"broadband_type_id":6}
{"id":null,"anchorname":"PLEASANT VALLEY HIGH","address":"190 N STATE ST, MOUNT PLEASANT UT 84647","bldgnbr":"190","predir":"N","streetname":"STATE","streettype":"ST","suffdir":null,"city":"MOUNT PLEASANT","state_code":"UT","zip5":"84647","latitude":"39.5494873510000000","longitude":"-111.45498401900000","publicwifi":"U","url":null,"broadband_type_id":6}
{"id":null,"anchorname":"MOUNT PLEASANT ELEMENTARY (UEN)","address":"55 E 100 S, MT PLEASANT UT 84647","bldgnbr":"55","predir":"E","streetname":"100","streettype":null,"suffdir":"S","city":"MT PLEASANT","state_code":"UT","zip5":"84647","latitude":"39.5457127510000000","longitude":"-111.45383953000000","publicwifi":"U","url":null,"broadband_type_id":6}
{"id":null,"anchorname":"SPRING CITY ELEMENTARY (UEN)","address":"100 N 453 E, SPRING CITY UT 84662","bldgnbr":"100","predir":"N","streetname":"453","streettype":null,"suffdir":"E","city":"SPRING CITY","state_code":"UT","zip5":"84662","latitude":"39.4799915060000000","longitude":"-111.48796146000000","publicwifi":"U","url":null,"broadband_type_id":6}
{"id":null,"anchorname":"SPRING CITY MAIN POST OFFICE","address":"24 N MAIN ST, SPRING CITY UT 84662","bldgnbr":"24","predir":"N","streetname":"MAIN","streettype":"ST","suffdir":null,"city":"SPRING CITY","state_code":"UT","zip5":"84662","latitude":"39.4785019340000000","longitude":"-111.49589374400000","publicwifi":"N","url":null,"broadband_type_id":1}
{"id":null,"anchorname":"MOUNT PLEASANT MAIN POST OFFICE","address":"55 N 100 W, MOUNT PLEASANT UT 84647","bldgnbr":"55","predir":"N","streetname":"100","streettype":null,"suffdir":"W","city":"MOUNT PLEASANT","state_code":"UT","zip5":"84647","latitude":"39.5476753010000000","longitude":"-111.45742956400000","publicwifi":"N","url":null,"broadband_type_id":null}
{"id":null,"anchorname":"SANPETE COUNTY BOOKMOBILE - SPRING CITY ELEMENTARY STOP","address":"451 E 100 N, SPRING CITY 84662","bldgnbr":"451","predir":"E","streetname":"100","streettype":null,"suffdir":"N","city":"SPRING","state_code":"UT","zip5":"84662","latitude":"39.4795059590000000","longitude":"-111.48786795600000","publicwifi":"Y","url":"http://bookmobiles.utah.gov/sanpete/index.html","broadband_type_id":6}
{"id":null,"anchorname":"CENTRAL UTAH COUNSELING","address":"255 WEST MAIN STREET, MOUNT PLEASENT UT 84647","bldgnbr":"255","predir":"W","streetname":"MAIN","streettype":"ST","suffdir":null,"city":"MOUNT PLEASENT","state_code":"UT","zip5":"84647","latitude":"39.5465160960000000","longitude":"-111.46012591100000","publicwifi":"U","url":null,"broadband_type_id":null}
{"id":null,"anchorname":"SANPETE COUNTY BOOKMOBILE - INDIANOLA STOP","address":"34400 N HWY 89, INDIANOLA UT 84629","bldgnbr":"34400","predir":"N","streetname":"HWY 89","streettype":null,"suffdir":null,"city":"INDIANOLA","state_code":"UT","zip5":"84629","latitude":"39.8045389940000000","longitude":"-111.50314099700000","publicwifi":"Y","url":"http://bookmobiles.utah.gov/sanpete/index.html","broadband_type_id":6}
{"id":null,"anchorname":"DEPARTMANT OF NATURAL RESOURCES FISH HATCHERY (WAN)","address":"FOUNTAIN GREEN UT 84632","bldgnbr":"unknown","predir":null,"streetname":"unknown","streettype":null,"suffdir":null,"city":"FOUNTAIN GREEN","state_code":"UT","zip5":"84632","latitude":"39.6370028380000000","longitude":"-111.64951467700000","publicwifi":"U","url":null,"broadband_type_id":6}
{"id":null,"anchorname":"MT. PLEASANT CO (UEN)","address":"59 W MAIN ST, MT PLEASANT UT 84647","bldgnbr":"59","predir":"W","streetname":"MAIN","streettype":"ST","suffdir":null,"city":"MT PLEASANT","state_code":"UT","zip5":"84647","latitude":"39.5462630830000000","longitude":"-111.45646931900000","publicwifi":"U","url":null,"broadband_type_id":null}
{"id":null,"anchorname":"FOUNTAIN GREEN ELEMENTARY (UEN)","address":"395 W 100 S, FOUNTAIN GREEN UT 84632","bldgnbr":"395","predir":"W","streetname":"100","streettype":null,"suffdir":"S","city":"FOUNTAIN GREEN","state_code":"UT","zip5":"84632","latitude":"39.6265286780000000","longitude":"-111.64138925300000","publicwifi":"U","url":null,"broadband_type_id":6}
{"id":null,"anchorname":"SANPETE COUNTY BOOKMOBILE - FOUNTAIN GREEN LDS CHURCH STOP","address":"151 S 200 W, FOUNTAIN GREEN UT 84632","bldgnbr":"151","predir":"S","streetname":"200","streettype":null,"suffdir":"W","city":"FOUNTAIN GREEN","state_code":"UT","zip5":"84632","latitude":"39.6261420040000000","longitude":"-111.63817400900000","publicwifi":"Y","url":"http://bookmobiles.utah.gov/sanpete/index.html","broadband_type_id":6}
{"id":null,"anchorname":"TOP FLIGHT ACADEMY","address":"1024 S 70 W, MOUNT PLEASANT UT 84647","bldgnbr":"1024","predir":"S","streetname":"70","streettype":null,"suffdir":"W","city":"MOUNT PLEASANT","state_code":"UT","zip5":"84647","latitude":"39.5332717370000000","longitude":"-111.45572631400000","publicwifi":"U","url":null,"broadband_type_id":6}
{"id":null,"anchorname":"WASATCH ACADEMY (UEN)","address":"120 S 100 W, MT PLEASANT UT 84647","bldgnbr":"120","predir":"S","streetname":"100","streettype":null,"suffdir":"W","city":"MT PLEASANT","state_code":"UT","zip5":"84647","latitude":"39.5449080730000000","longitude":"-111.45771107800000","publicwifi":"U","url":null,"broadband_type_id":6}
{"id":null,"anchorname":"FOUNTAIN GREEN MAIN POST OFFICE","address":"54 S STATE ST, FOUNTAIN GREEN UT 84632","bldgnbr":"54","predir":"S","streetname":"STATE","streettype":"ST","suffdir":null,"city":"FOUNTAIN GREEN","state_code":"UT","zip5":"84632","latitude":"39.6275531570000000","longitude":"-111.63457860100000","publicwifi":"N","url":null,"broadband_type_id":null}
{"id":null,"anchorname":"PRIVATE SCHOOL (NORTH SANPETE) (UEN)","address":"220 E 700 S, MOUNT PLEASANT UT 84647","bldgnbr":"220","predir":"E","streetname":"700","streettype":null,"suffdir":"S","city":"MOUNT PLEASANT","state_code":"UT","zip5":"84647","latitude":"39.5362979940000000","longitude":"-111.45101356000000","publicwifi":"U","url":null,"broadband_type_id":6}
{"id":null,"anchorname":"NORTH SANPETE SPECIAL PURPOSE SCHOOL (UEN)","address":"220 E 700 S, MOUNT PLEASANT UT 84647","bldgnbr":"220","predir":"E","streetname":"700","streettype":null,"suffdir":"S","city":"MOUNT PLEASANT","state_code":"UT","zip5":"84647","latitude":"39.5362979940000000","longitude":"-111.45101356000000","publicwifi":"U","url":null,"broadband_type_id":6}
{"id":null,"anchorname":"NORTH SANPETE HIGH SCHOOL (UEN)","address":"390 E 700 S, MT PLEASANT UT 84647","bldgnbr":"390","predir":"E","streetname":"700","streettype":null,"suffdir":"S","city":"MT PLEASANT","state_code":"UT","zip5":"84647","latitude":"39.5355750040000000","longitude":"-111.44784162900000","publicwifi":"U","url":null,"broadband_type_id":6}
{"id":null,"anchorname":"SANPETE VALLEY HOSPITAL MAMMOGRAPHY","address":"1100 SOUTH MEDICAL DRIVE, MOUNT PLEASANT UT 84647","bldgnbr":"1100","predir":"S","streetname":"MEDICAL","streettype":"DR","suffdir":null,"city":"MOUNT PLEASANT","state_code":"UT","zip5":"84647","latitude":"39.5317418350000000","longitude":"-111.46105372900000","publicwifi":"U","url":null,"broadband_type_id":3}
{"id":null,"anchorname":"AUTUMN PARK ASSISTED LIVING","address":"160 EAST 200 NORTH, MOUNT PLEASANT UT 84647","bldgnbr":"160","predir":"E","streetname":"200","streettype":null,"suffdir":"N","city":"MOUNT PLEASANT","state_code":"UT","zip5":"84647","latitude":"39.5495369760000000","longitude":"-111.45228864800000","publicwifi":"U","url":null,"broadband_type_id":2}
{"id":null,"anchorname":"INTERMOUNTAIN HOMECARE HOME HEALTH MT PLEASANT","address":"130 WEST MAIN STREET, MT PLEASANT UT 84647","bldgnbr":"130","predir":"W","streetname":"MAIN","streettype":"ST","suffdir":null,"city":"MT PLEASANT","state_code":"UT","zip5":"84647","latitude":"39.5469271390000000","longitude":"-111.45787052300000","publicwifi":"U","url":null,"broadband_type_id":3}
{"id":null,"anchorname":"MOUNT PLEASANT POLICE DEPARTMENT","address":"115 W MAIN STREET, MOUNT PLEASANT UT 84647","bldgnbr":"115","predir":"W","streetname":"MAIN","streettype":"ST","suffdir":null,"city":"MOUNT PLEASANT","state_code":"UT","zip5":"84647","latitude":"39.5464454090000000","longitude":"-111.45771815200000","publicwifi":"U","url":null,"broadband_type_id":4}
{"id":null,"anchorname":"MOUNT PLEASANT VOLUNTEER FIRE DEPARTMENT","address":"115 WEST MAIN STREET, MOUNT PLEASANT UT 84647","bldgnbr":"115","predir":"W","streetname":"MAIN","streettype":"ST","suffdir":null,"city":"MOUNT PLEASANT","state_code":"UT","zip5":"84647","latitude":"39.5464693020000000","longitude":"-111.45805756900000","publicwifi":"U","url":null,"broadband_type_id":5}
{"id":null,"anchorname":"MOUNT PLEASANT PUBLIC LIBRARY","address":"24 E MAIN ST, MOUNT PLEASANT UT 84647","bldgnbr":"24","predir":"E","streetname":"MAIN","streettype":"ST","suffdir":null,"city":"MOUNT PLEASANT","state_code":"UT","zip5":"84647","latitude":"39.5466675800000000","longitude":"-111.45462576000000","publicwifi":"Y","url":"http://mtpleasantlib.org","broadband_type_id":6}
{"id":null,"anchorname":"SPRING CITY POLICE DEPARTMENT","address":"150 EAST CENTER STREET, SPRING CITY UT 84662","bldgnbr":"150","predir":"E","streetname":"CENTER","streettype":"ST","suffdir":null,"city":"SPRING CITY","state_code":"UT","zip5":"84662","latitude":"39.4777916710000000","longitude":"-111.49325775100000","publicwifi":"U","url":null,"broadband_type_id":4}
{"id":null,"anchorname":"SPRING CITY VOLUNTEER FIRE DEPARTMENT","address":"150 EAST CENTER STREET, SPRING CITY UT 84662","bldgnbr":"150","predir":"E","streetname":"CENTER","streettype":"ST","suffdir":null,"city":"SPRING CITY","state_code":"UT","zip5":"84662","latitude":"39.4778577130000000","longitude":"-111.49296149700000","publicwifi":"U","url":null,"broadband_type_id":5}
{"id":null,"anchorname":"FOUNTAIN GREEN POLICE DEPARTMENT","address":"260 W 100 N STREET, FOUNTAIN GREEN UT 84632","bldgnbr":"260","predir":"W","streetname":"100","streettype":null,"suffdir":"N","city":"FOUNTAIN GREEN","state_code":"UT","zip5":"84632","latitude":"39.6302453580000000","longitude":"-111.63948764500000","publicwifi":"U","url":null,"broadband_type_id":4}
{"id":null,"anchorname":"FOUNTAIN GREEN VOLUNTEER FIRE DEPARTMENT","address":"31 S STATE STREET, FOUNTAIN GREEN UT 84632","bldgnbr":"31","predir":"S","streetname":"STATE","streettype":"ST","suffdir":null,"city":"FOUNTAIN GREEN","state_code":"UT","zip5":"84632","latitude":"39.6279972750000000","longitude":"-111.63414932000000","publicwifi":"U","url":null,"broadband_type_id":5}
{"id":null,"anchorname":"SANPETE COUNTY BOOKMOBILE - FOUNTAIN GREEN ELEMENTARY SCHOOL STOP","address":"395 W 100 S, FOUNTAIN GREEN UT 84632","bldgnbr":"395","predir":"W","streetname":"100","streettype":null,"suffdir":"S","city":"FOUNTAIN GREEN","state_code":"UT","zip5":"84632","latitude":"39.6265479940000000","longitude":"-111.64169296000000","publicwifi":"Y","url":"http://bookmobiles.utah.gov/sanpete/index.html","broadband_type_id":6}
{"id":null,"anchorname":"SANPETE COUNTY BOOKMOBILE - FOUNTAIN GREEN CITY PARK STOP","address":"270 W 100 N, FOUNTAIN GREEN UT 84632","bldgnbr":"270","predir":"W","streetname":"100","streettype":null,"suffdir":"N","city":"FOUNTAIN GREEN","state_code":"UT","zip5":"84632","latitude":"39.6281930090000000","longitude":"-111.63996000000000","publicwifi":"Y","url":"http://bookmobiles.utah.gov/sanpete/index.html","broadband_type_id":2}
{"id":null,"anchorname":"New Mexico Department of Game and Fish - Red River Hatchery","address":"PO Box 410","bldgnbr":"N/A","predir":null,"streetname":"PO Box 410","streettype":null,"suffdir":null,"city":"Questa","state_code":"NM","zip5":"87556","latitude":"36.6835670000000000","longitude":"-105.65217600000000","publicwifi":"U","url":"http://www.wildlife.state.nm.us/index.htm","broadband_type_id":6}
{"id":null,"anchorname":"Taos High","address":"134 Cervantes","bldgnbr":"134","predir":null,"streetname":"CERVANTES","streettype":null,"suffdir":null,"city":"Taos","state_code":"NM","zip5":"87571","latitude":"36.3919836770000000","longitude":"-105.57798772300000","publicwifi":"U","url":"http://www.taosschools.org/THS/index.htm","broadband_type_id":6}
{"id":null,"anchorname":"FOUNTAIN GREEN CO (UEN)","address":"150 S 100 W, FOUNTAIN GREEN UT 84632","bldgnbr":"150","predir":"S","streetname":"100","streettype":null,"suffdir":"W","city":"FOUNTAIN GREEN","state_code":"UT","zip5":"84632","latitude":"39.6260512640000000","longitude":"-111.63659856700000","publicwifi":"U","url":null,"broadband_type_id":null}
{"id":null,"anchorname":"SANPETE COUNTY BOOKMOBILE - MORONI LDS CHURCH STOP","address":"82 N CENTER ST, MORONI UT 84646","bldgnbr":"82","predir":"N","streetname":"CENTER","streettype":"ST","suffdir":null,"city":"MORONI","state_code":"UT","zip5":"84646","latitude":"39.5269090370000000","longitude":"-111.58353199200000","publicwifi":"Y","url":"http://bookmobiles.utah.gov/sanpete/index.html","broadband_type_id":6}
{"id":null,"anchorname":"NORTH SANPETE AMBULANCE SERVICE - MORONI (EMS)","address":"50 S 200 WEST ST, MORONI UT 84646","bldgnbr":"50","predir":"S","streetname":"200","streettype":null,"suffdir":"W","city":"MORONI","state_code":"UT","zip5":"84646","latitude":"39.5242359350000000","longitude":"-111.58785412200000","publicwifi":"U","url":null,"broadband_type_id":6}
{"id":null,"anchorname":"MORONI MAIN POST OFFICE","address":"46 N 400 E, MORONI UT 84646","bldgnbr":"46","predir":"N","streetname":"400","streettype":null,"suffdir":"E","city":"MORONI","state_code":"UT","zip5":"84646","latitude":"39.5261562420000000","longitude":"-111.57602914900000","publicwifi":"N","url":null,"broadband_type_id":null}
{"id":null,"anchorname":"SANPETE COUNTY BOOKMOBILE - AXTELL LDS CHURCH STOP","address":"75 W CENTER ST, AXTELL UT 84621","bldgnbr":"75","predir":"W","streetname":"CENTER","streettype":"ST","suffdir":null,"city":"AXTELL","state_code":"UT","zip5":"84621","latitude":"39.0548180010000000","longitude":"-111.82559594900000","publicwifi":"Y","url":"http://bookmobiles.utah.gov/sanpete/index.html","broadband_type_id":6}
{"id":null,"anchorname":"SANPETE COUNTY BOOKMOBILE - CENTERFIELD LDS CHURCH STOP","address":"210 S MAIN ST, CENTERFIELD UT 84622","bldgnbr":"210","predir":"S","streetname":"MAIN","streettype":"ST","suffdir":null,"city":"CENTERFIELD","state_code":"UT","zip5":"84622","latitude":"39.1224859900000000","longitude":"-111.81940803500000","publicwifi":"Y","url":"http://bookmobiles.utah.gov/sanpete/index.html","broadband_type_id":6}
{"id":null,"anchorname":"MORONI CO (UEN)","address":"120 W MAIN ST, MORONI UT 84646","bldgnbr":"120","predir":"W","streetname":"MAIN","streettype":"ST","suffdir":null,"city":"MORONI","state_code":"UT","zip5":"84646","latitude":"39.5251351170000000","longitude":"-111.58667134500000","publicwifi":"U","url":null,"broadband_type_id":null}
{"id":null,"anchorname":"GUNNISON VALLEY HOSPICE","address":"100 N 45 E, GUNNISON UT 84634","bldgnbr":"100","predir":"N","streetname":"45","streettype":null,"suffdir":"E","city":"GUNNISON","state_code":"UT","zip5":"84634","latitude":"39.1568009500000000","longitude":"-111.81682869100000","publicwifi":"U","url":null,"broadband_type_id":6}
{"id":null,"anchorname":"GUNNISON PRISON (MICROWAVE) (WAN)","address":"255 W 300 N, GUNNISON UT 84634","bldgnbr":"255","predir":"W","streetname":"300","streettype":null,"suffdir":"N","city":"GUNNISON","state_code":"UT","zip5":"84634","latitude":"39.1598385940000000","longitude":"-111.82554106200000","publicwifi":"U","url":null,"broadband_type_id":6}
{"id":null,"anchorname":"GUNNISON CO (UEN)","address":"300 S MAIN ST, GUNNISON UT 84634","bldgnbr":"300","predir":"S","streetname":"MAIN","streettype":"ST","suffdir":null,"city":"GUNNISON","state_code":"UT","zip5":"84634","latitude":"39.1504388580000000","longitude":"-111.81866707000000","publicwifi":"U","url":null,"broadband_type_id":6}
{"id":null,"anchorname":"COMMUNITY LIVING CENTER","address":"10 WEST 400 SOUTH, CENTERFIELD UT 84622","bldgnbr":"10","predir":"W","streetname":"400","streettype":null,"suffdir":"S","city":"CENTERFIELD","state_code":"UT","zip5":"84622","latitude":"39.1191722820000000","longitude":"-111.81966577900000","publicwifi":"U","url":null,"broadband_type_id":1}
{"id":null,"anchorname":"COMMUNITY LIVING CENTER","address":"10 WEST 400 SOUTH, CENTERFIELD UT 84622","bldgnbr":"10","predir":"W","streetname":"400","streettype":null,"suffdir":"S","city":"CENTERFIELD","state_code":"UT","zip5":"84622","latitude":"39.1191722820000000","longitude":"-111.81966577900000","publicwifi":"U","url":null,"broadband_type_id":1}
{"id":null,"anchorname":"LIGHTHOUSE ACADEMY (YIC)","address":"PO BOX 383, MORONI UT 84632","bldgnbr":"unknown","predir":null,"streetname":"PO BOX 383","streettype":null,"suffdir":null,"city":"MORONI","state_code":"UT","zip5":"84632","latitude":"39.6267734470000000","longitude":"-111.63414234200000","publicwifi":"U","url":null,"broadband_type_id":6}
{"id":null,"anchorname":"FIELD STONE ACADEMY","address":"682 S MAIN ST, GUNNISON UT 84634","bldgnbr":"682","predir":"S","streetname":"MAIN","streettype":"ST","suffdir":null,"city":"GUNNISON","state_code":"UT","zip5":"84634","latitude":"39.1390347420000000","longitude":"-111.82037798200000","publicwifi":"U","url":null,"broadband_type_id":6}
{"id":null,"anchorname":"CENTRO DE LA FAMILIA HEAD START- CENTERFIELD (UEN)","address":"270 N 300 E, CENTERFIELD UT 84622","bldgnbr":"270","predir":"N","streetname":"300","streettype":null,"suffdir":"E","city":"CENTERFIELD","state_code":"UT","zip5":"84622","latitude":"39.1319389930000000","longitude":"-111.81265742900000","publicwifi":"U","url":null,"broadband_type_id":null}
{"id":null,"anchorname":"CENTERFIELD POST OFFICE","address":"50 E 100 N, CENTERFIELD UT 84622","bldgnbr":"50","predir":"E","streetname":"100","streettype":null,"suffdir":"N","city":"CENTERFIELD","state_code":"UT","zip5":"84622","latitude":"39.1284110530000000","longitude":"-111.81797293300000","publicwifi":"N","url":null,"broadband_type_id":null}
{"id":null,"anchorname":"MOAB MAIN POST OFFICE","address":"50 E 100 N, MOAB UT 84532","bldgnbr":"50","predir":"E","streetname":"100","streettype":null,"suffdir":"N","city":"MOAB","state_code":"UT","zip5":"84622","latitude":"39.1284110530000000","longitude":"-111.81797293300000","publicwifi":"N","url":null,"broadband_type_id":null}
{"id":null,"anchorname":"FOUNTAIN GREEN CLINIC","address":"275 WEST 300 SOUTH, FOUNTAIN GREEN UT 84632","bldgnbr":"275","predir":"W","streetname":"300","streettype":null,"suffdir":"S","city":"FOUNTAIN GREEN","state_code":"UT","zip5":"84632","latitude":"39.6239339140000000","longitude":"-111.63952310600000","publicwifi":"U","url":null,"broadband_type_id":3}
{"id":null,"anchorname":"WALES VOLUNTEER FIRE DEPARTMENT","address":"150 NORTH STATE STREET, WALES UT 84667","bldgnbr":"150","predir":"N","streetname":"STATE","streettype":"ST","suffdir":null,"city":"WALES","state_code":"UT","zip5":"84667","latitude":"39.4875780750000000","longitude":"-111.63472594700000","publicwifi":"U","url":null,"broadband_type_id":5}
{"id":null,"anchorname":"NORTH SANPETE MIDDLE SCHOOL (UEN)","address":"655 E 100 S, MORONI UT 84646","bldgnbr":"655","predir":"E","streetname":"100","streettype":null,"suffdir":"S","city":"MORONI","state_code":"UT","zip5":"84646","latitude":"39.5234278890000000","longitude":"-111.57137082600000","publicwifi":"U","url":null,"broadband_type_id":6}
{"id":null,"anchorname":"SANPETE COUNTY BOOKMOBILE - MORONI ELEMENTARY SCHOOL STOP","address":"98 N 200 W, MORONI UT 84646","bldgnbr":"98","predir":"N","streetname":"200","streettype":null,"suffdir":"W","city":"MORONI","state_code":"UT","zip5":"84646","latitude":"39.5273049710000000","longitude":"-111.58742902000000","publicwifi":"Y","url":"http://bookmobiles.utah.gov/sanpete/index.html","broadband_type_id":6}
{"id":null,"anchorname":"MORONI POLICE DEPARTMENT","address":"80 SOUTH 200 W STREET, MORONI UT 84646","bldgnbr":"80","predir":"S","streetname":"200","streettype":null,"suffdir":"W","city":"MORONI","state_code":"UT","zip5":"84646","latitude":"39.5238397180000000","longitude":"-111.58793094300000","publicwifi":"U","url":null,"broadband_type_id":4}
{"id":null,"anchorname":"MORONI VOLUNTEER FIRE DEPARTMENT","address":"50 SOUTH 200 WEST STREET, MORONI UT 84646","bldgnbr":"50","predir":"S","streetname":"200","streettype":null,"suffdir":"W","city":"MORONI","state_code":"UT","zip5":"84646","latitude":"39.5242613740000000","longitude":"-111.58779488300000","publicwifi":"U","url":null,"broadband_type_id":5}
{"id":null,"anchorname":"SANPETE COUNTY BOOKMOBILE - GUNNISON VALLEY ELEMENTARY SCHOOL STOP","address":"682 S MAIN ST, GUNNISON UT 84634","bldgnbr":"682","predir":"S","streetname":"MAIN","streettype":"ST","suffdir":null,"city":"GUNNISON","state_code":"UT","zip5":"84634","latitude":"39.1392690200000000","longitude":"-111.81922603900000","publicwifi":"Y","url":"http://bookmobiles.utah.gov/sanpete/index.html","broadband_type_id":6}
{"id":null,"anchorname":"GUNNISON VALLEY SCHOOL","address":"550 S 300 E, GUNNISON UT 84634","bldgnbr":"550","predir":"S","streetname":"300","streettype":null,"suffdir":"E","city":"GUNNISON","state_code":"UT","zip5":"84634","latitude":"39.1440658480000000","longitude":"-111.81013351200000","publicwifi":"U","url":null,"broadband_type_id":6}
{"id":null,"anchorname":"SANPETE COUNTY BOOKMOBILE - GUNNISION VALLEY MIDDLE SCHOOL STOP","address":"271 E 600 S, GUNNISON UT 84634","bldgnbr":"271","predir":"E","streetname":"600","streettype":null,"suffdir":"S","city":"GUNNISON","state_code":"UT","zip5":"84634","latitude":"39.1418939830000000","longitude":"-111.81131898100000","publicwifi":"Y","url":"http://bookmobiles.utah.gov/sanpete/index.html","broadband_type_id":6}
{"id":null,"anchorname":"GUNNISON VALLEY HIGH SCHOOL (UEN)","address":"35 E 600 S, GUNNISON UT 84634","bldgnbr":"35","predir":"E","streetname":"600","streettype":null,"suffdir":"S","city":"GUNNISON","state_code":"UT","zip5":"84634","latitude":"39.1427311510000000","longitude":"-111.81682030400000","publicwifi":"U","url":null,"broadband_type_id":6}
{"id":null,"anchorname":"GUNNISON VALLEY MIDDLE SCHOOL (UEN)","address":"271 E 600 S, GUNNISON UT 84634","bldgnbr":"271","predir":"E","streetname":"600","streettype":null,"suffdir":"S","city":"GUNNISON","state_code":"UT","zip5":"84634","latitude":"39.1426401690000000","longitude":"-111.81130752800000","publicwifi":"U","url":null,"broadband_type_id":6}
{"id":null,"anchorname":"CENTERFIELD POLICE DEPARTMENT","address":"130 SOUTH MAIN STREET, CENTERFIELD UT 84622","bldgnbr":"130","predir":"S","streetname":"MAIN","streettype":"ST","suffdir":null,"city":"CENTERFIELD","state_code":"UT","zip5":"84622","latitude":"39.1236769780000000","longitude":"-111.81966326600000","publicwifi":"U","url":null,"broadband_type_id":4}
{"id":null,"anchorname":"GUNNISON VALLEY HOSPITAL HOME HEALTH","address":"45 EAST 100 NORTH, GUNNISON UT 84634","bldgnbr":"45","predir":"E","streetname":"100","streettype":null,"suffdir":"N","city":"GUNNISON","state_code":"UT","zip5":"84634","latitude":"39.1568009500000000","longitude":"-111.81682869100000","publicwifi":"U","url":null,"broadband_type_id":3}
{"id":null,"anchorname":"GUNNISON CIVIC LIBRARY","address":"38 W CENTER ST, GUNNISON UT 84634","bldgnbr":"38","predir":"W","streetname":"CENTER","streettype":"ST","suffdir":null,"city":"GUNNISON","state_code":"UT","zip5":"84634","latitude":"39.1552479330000000","longitude":"-111.81938075300000","publicwifi":"Y","url":"http://gunnisonlibrary.org","broadband_type_id":6}
{"id":null,"anchorname":"GUNNISON POLICE DEPARTMENT","address":"38 W CENTER STREET, GUNNISON UT 84634","bldgnbr":"38","predir":"W","streetname":"CENTER","streettype":"ST","suffdir":null,"city":"GUNNISON","state_code":"UT","zip5":"84634","latitude":"39.1554499190000000","longitude":"-111.81875800800000","publicwifi":"U","url":null,"broadband_type_id":4}
{"id":null,"anchorname":"GUNNISON VALLEY VOLUNTEER FIRE DEPARTMENT","address":"35 WEST 100 NORTH STREET, GUNNISON UT 84634","bldgnbr":"35","predir":"W","streetname":"100","streettype":null,"suffdir":"N","city":"GUNNISON","state_code":"UT","zip5":"84634","latitude":"39.1563611930000000","longitude":"-111.81954018900000","publicwifi":"U","url":null,"broadband_type_id":5}
{"id":null,"anchorname":"New Mexico Environment Department - District 2 - Taos","address":"145 Roy Road","bldgnbr":"145","predir":null,"streetname":"ROY","streettype":"RD","suffdir":null,"city":"Taos","state_code":"NM","zip5":"87571","latitude":"36.3757793210000000","longitude":"-105.59083554500000","publicwifi":"U","url":"http://www.nmenv.state.nm.us/","broadband_type_id":6}
{"id":null,"anchorname":"Corning-Painted Post East HS","address":"201 Cantigny St","bldgnbr":"201","predir":null,"streetname":"Cantigny","streettype":"St","suffdir":null,"city":"Corning","state_code":"NY","zip5":"14830","latitude":"42.1466185580000000","longitude":"-77.048042891000000","publicwifi":"U","url":null,"broadband_type_id":6}
{"id":null,"anchorname":"SANPETE RANGER DISTRICT","address":"540 NORTH MAIN, EPHRAIM UT 84627","bldgnbr":"540","predir":"N","streetname":"MAIN","streettype":null,"suffdir":null,"city":"EPHRAIM","state_code":"UT","zip5":"84627","latitude":"39.3694266500000000","longitude":"-111.58689159500000","publicwifi":"U","url":null,"broadband_type_id":6}
{"id":null,"anchorname":"EPHRAIM AMBULANCE ASSOCIATION (EMS)","address":"44 WEST CENTER ST, EPHRAIM UT 84627","bldgnbr":"44","predir":"W","streetname":"CENTER","streettype":"ST","suffdir":null,"city":"EPHRAIM","state_code":"UT","zip5":"84627","latitude":"39.3600806710000000","longitude":"-111.58765792900000","publicwifi":"U","url":null,"broadband_type_id":6}
{"id":null,"anchorname":"GOLDEN SKYLINE ASSISTED LIVING #2","address":"76 NORTH 100 WEST, EPHRAIM UT 84627","bldgnbr":"76","predir":"N","streetname":"100","streettype":null,"suffdir":"W","city":"EPHRAIM","state_code":"UT","zip5":"84627","latitude":"39.3611598130000000","longitude":"-111.58929342400000","publicwifi":"U","url":null,"broadband_type_id":6}
{"id":null,"anchorname":"PROVO MAIN POST OFFICE","address":"95 W 100 S, PROVO UT 84601","bldgnbr":"95","predir":"W","streetname":"100","streettype":null,"suffdir":"S","city":"PROVO","state_code":"UT","zip5":"84634","latitude":"39.1535208260000000","longitude":"-111.82113212400000","publicwifi":"N","url":null,"broadband_type_id":null}
{"id":null,"anchorname":"DWS/HS (WAN)","address":"55 S MAIN ST, MANTI UT 84642","bldgnbr":"55","predir":"S","streetname":"MAIN","streettype":"ST","suffdir":null,"city":"MANTI","state_code":"UT","zip5":"84642","latitude":"39.2646231920000000","longitude":"-111.63681308200000","publicwifi":"U","url":null,"broadband_type_id":6}
{"id":null,"anchorname":"DNR/DRIVERS LICENSE (WAN)","address":"100 S 490 W, EPHRAIM UT 84627","bldgnbr":"100","predir":"S","streetname":"490","streettype":null,"suffdir":"W","city":"EPHRAIM","state_code":"UT","zip5":"84627","latitude":"39.3582933210000000","longitude":"-111.59968426100000","publicwifi":"U","url":null,"broadband_type_id":null}
{"id":null,"anchorname":"YOUNG WOMEN'S EMPOWERMENT CENTER (YIC)","address":"68 N 180 W, MANTI UT 84627","bldgnbr":"68","predir":"N","streetname":"180","streettype":null,"suffdir":"W","city":"MANTI","state_code":"UT","zip5":"84627","latitude":"39.3607931690000000","longitude":"-111.59087476700000","publicwifi":"U","url":null,"broadband_type_id":null}
{"id":null,"anchorname":"YOUNG WOMEN'S EMPOWERMENT CENTER (UEN)","address":"68 N 180 W, EPHRAIM UT 84627","bldgnbr":"68","predir":"N","streetname":"180","streettype":null,"suffdir":"W","city":"EPHRAIM","state_code":"UT","zip5":"84627","latitude":"39.3606076010000000","longitude":"-111.59058034700000","publicwifi":"U","url":null,"broadband_type_id":null}
{"id":null,"anchorname":"EPHRAIM CENTER ST CO (UEN)","address":"50 W CENTER ST, EPHRAIM UT 84627","bldgnbr":"50","predir":"W","streetname":"CENTER","streettype":"ST","suffdir":null,"city":"EPHRAIM","state_code":"UT","zip5":"84627","latitude":"39.3600504760000000","longitude":"-111.58840878900000","publicwifi":"U","url":null,"broadband_type_id":null}
{"id":null,"anchorname":"EPHRAIM POST OFFICE","address":"55 E 100 N, EPHRAIM UT 84627","bldgnbr":"55","predir":"E","streetname":"100","streettype":null,"suffdir":"N","city":"EPHRAIM","state_code":"UT","zip5":"84627","latitude":"39.3617775430000000","longitude":"-111.58549965700000","publicwifi":"N","url":null,"broadband_type_id":null}
{"id":null,"anchorname":"SOUTH SANPETE EDUCATION SUPPORT CENTER","address":"39 S MAIN ST, MANTI UT 84642","bldgnbr":"39","predir":"S","streetname":"MAIN","streettype":"ST","suffdir":null,"city":"MANTI","state_code":"UT","zip5":"84642","latitude":"39.2646632680000000","longitude":"-111.63660282500000","publicwifi":"U","url":null,"broadband_type_id":6}
{"id":null,"anchorname":"MANTI AMBULANCE ASSOCIATION (EMS)","address":"43 W 200 N, MANTI UT 84642","bldgnbr":"43","predir":"W","streetname":"200","streettype":null,"suffdir":"N","city":"MANTI","state_code":"UT","zip5":"84642","latitude":"39.2681360230000000","longitude":"-111.63754538900000","publicwifi":"U","url":null,"broadband_type_id":6}
{"id":null,"anchorname":"DRIVER LICENSE (WAN)","address":"10 W 100 S, EPHRAIM UT 84627","bldgnbr":"10","predir":"W","streetname":"100","streettype":null,"suffdir":"S","city":"EPHRAIM","state_code":"UT","zip5":"84627","latitude":"39.3581619440000000","longitude":"-111.58740564800000","publicwifi":"U","url":null,"broadband_type_id":null}
{"id":null,"anchorname":"ADULT PROBATION AND PAROLE MANTI OFFICE","address":"160 N MAIN ST, MANTI UT 84642","bldgnbr":"160","predir":"N","streetname":"MAIN","streettype":"ST","suffdir":null,"city":"MANTI","state_code":"UT","zip5":"84642","latitude":"39.2678863450000000","longitude":"-111.63642297800000","publicwifi":"U","url":null,"broadband_type_id":null}
{"id":null,"anchorname":"MANTI MAIN POST OFFICE","address":"140 N MAIN ST, MANTI UT 84642","bldgnbr":"140","predir":"N","streetname":"MAIN","streettype":"ST","suffdir":null,"city":"MANTI","state_code":"UT","zip5":"84642","latitude":"39.2674939900000000","longitude":"-111.63678991200000","publicwifi":"N","url":null,"broadband_type_id":null}
{"id":null,"anchorname":"TAX (WAN)","address":"55 S MAIN ST, MANTI UT 84642","bldgnbr":"55","predir":"S","streetname":"MAIN","streettype":"ST","suffdir":null,"city":"MANTI","state_code":"UT","zip5":"84642","latitude":"39.2646231920000000","longitude":"-111.63681308200000","publicwifi":"U","url":null,"broadband_type_id":null}
{"id":null,"anchorname":"MANTI CO (UEN)","address":"40 W UNION ST, MANTI UT 84642","bldgnbr":"40","predir":"W","streetname":"UNION","streettype":"ST","suffdir":null,"city":"MANTI","state_code":"UT","zip5":"84642","latitude":"39.2655871320000000","longitude":"-111.63831783700000","publicwifi":"U","url":null,"broadband_type_id":null}
{"id":null,"anchorname":"GUNNISON VALLEY HOSPITAL (EMS)","address":"64 E 100 N, GUNNISON UT 84635","bldgnbr":"64","predir":"E","streetname":"100","streettype":null,"suffdir":"N","city":"GUNNISON","state_code":"UT","zip5":"84635","latitude":"39.1562228200000000","longitude":"-111.81627410700000","publicwifi":"U","url":null,"broadband_type_id":3}
{"id":null,"anchorname":"GUNNISON VALLEY HOSPITAL","address":"64 EAST 100 NORTH, GUNNISON UT 84634","bldgnbr":"64","predir":"E","streetname":"100","streettype":null,"suffdir":"N","city":"GUNNISON","state_code":"UT","zip5":"84634","latitude":"39.1562754340000000","longitude":"-111.81648142200000","publicwifi":"U","url":null,"broadband_type_id":3}
{"id":null,"anchorname":"GUNNISON VALLEY HOSPITAL MAMMOGRAPHY","address":"64 EAST 100 NORTH, GUNNISON UT 84634","bldgnbr":"64","predir":"E","streetname":"100","streettype":null,"suffdir":"N","city":"GUNNISON","state_code":"UT","zip5":"84634","latitude":"39.1562754340000000","longitude":"-111.81648142200000","publicwifi":"U","url":null,"broadband_type_id":3}
{"id":null,"anchorname":"EPHRAIM HEALTH CENTER","address":"525 NORTH MAIN, EPHRAIM UT 84627","bldgnbr":"525","predir":"N","streetname":"MAIN","streettype":null,"suffdir":null,"city":"EPHRAIM","state_code":"UT","zip5":"84627","latitude":"39.3730950160000000","longitude":"-111.58756524300000","publicwifi":"U","url":null,"broadband_type_id":3}
{"id":null,"anchorname":"EPHRAIM POLICE DEPARTMENT","address":"5 SOUTH MAIN STREET, EPHRAIM UT 84627","bldgnbr":"5","predir":"S","streetname":"MAIN","streettype":"ST","suffdir":null,"city":"EPHRAIM","state_code":"UT","zip5":"84627","latitude":"39.3594671060000000","longitude":"-111.58677028600000","publicwifi":"U","url":null,"broadband_type_id":4}
{"id":null,"anchorname":"EPHRAIM PUBLIC LIBRARY","address":"30 S MAIN ST, EPHRAIM UT 84627","bldgnbr":"30","predir":"S","streetname":"MAIN","streettype":"ST","suffdir":null,"city":"EPHRAIM","state_code":"UT","zip5":"84627","latitude":"39.3591885410000000","longitude":"-111.58727925400000","publicwifi":"Y","url":"http://www.ephraimcity.org/serv/library.shtml","broadband_type_id":6}
{"id":null,"anchorname":"EPHRAIM VOLUNTEER FIRE DEPARTMENT","address":"47 SOUTH 100 WEST, EPHRAIM UT 84627","bldgnbr":"47","predir":"S","streetname":"100","streettype":null,"suffdir":"W","city":"EPHRAIM","state_code":"UT","zip5":"84627","latitude":"39.3587270150000000","longitude":"-111.58916840100000","publicwifi":"U","url":null,"broadband_type_id":5}
{"id":null,"anchorname":"SANPETE COUNTY BOOKMOBILE - EPHRAIM ELEMENTARY SCHOOL STOP","address":"151 S MAIN ST, EPHRAIM UT 84627","bldgnbr":"151","predir":"S","streetname":"MAIN","streettype":"ST","suffdir":null,"city":"EPHRAIM","state_code":"UT","zip5":"84627","latitude":"39.3571000210000000","longitude":"-111.58712201900000","publicwifi":"Y","url":"http://bookmobiles.utah.gov/sanpete/index.html","broadband_type_id":6}
{"id":null,"anchorname":"SNOW COLLEGE (UEN)","address":"150 E COLLEGE AVE, EPHRAIM UT 84627","bldgnbr":"150","predir":"E","streetname":"COLLEGE","streettype":"AVE","suffdir":null,"city":"EPHRAIM","state_code":"UT","zip5":"84627","latitude":"39.3608551580000000","longitude":"-111.58229478200000","publicwifi":"U","url":null,"broadband_type_id":6}
{"id":null,"anchorname":"EPHRAIM VOLUNTEER FIRE DEPARTMENT","address":"625 SOUTH 100 EAST, EPHRAIM UT 84627","bldgnbr":"625","predir":"S","streetname":"100","streettype":null,"suffdir":"E","city":"EPHRAIM","state_code":"UT","zip5":"84627","latitude":"39.3484142180000000","longitude":"-111.58361318400000","publicwifi":"U","url":null,"broadband_type_id":5}
{"id":null,"anchorname":"SANPETE COUNTY BOOKMOBILE - EPHRAIM MIDDLE SCHOOL STOP","address":"555 S 100 E, EPHRAIM UT 84627","bldgnbr":"555","predir":"S","streetname":"100","streettype":null,"suffdir":"E","city":"EPHRAIM","state_code":"UT","zip5":"84627","latitude":"39.3501850260000000","longitude":"-111.58405802400000","publicwifi":"Y","url":"http://bookmobiles.utah.gov/sanpete/index.html","broadband_type_id":6}
{"id":null,"anchorname":"EPHRAIM MIDDLE SCHOOL (UEN)","address":"555 S 100 E, EPHRAIM UT 84627","bldgnbr":"555","predir":"S","streetname":"100","streettype":null,"suffdir":"E","city":"EPHRAIM","state_code":"UT","zip5":"84627","latitude":"39.3500425000000000","longitude":"-111.58308300000000","publicwifi":"U","url":null,"broadband_type_id":6}
{"id":null,"anchorname":"EPHRAIM SCHOOL (UEN)","address":"570 S 300 E, EPHRAIM UT 84627","bldgnbr":"570","predir":"S","streetname":"300","streettype":null,"suffdir":"E","city":"EPHRAIM","state_code":"UT","zip5":"84627","latitude":"39.3495874440000000","longitude":"-111.58056241700000","publicwifi":"U","url":null,"broadband_type_id":6}
{"id":null,"anchorname":"MANTI VOLUNTEER FIRE DEPARTMENT","address":"25 SOUTH 100 EAST STREET, MANTI UT 84642","bldgnbr":"25","predir":"S","streetname":"100","streettype":null,"suffdir":"E","city":"MANTI","state_code":"UT","zip5":"84642","latitude":"39.2648391510000000","longitude":"-111.63541650500000","publicwifi":"U","url":null,"broadband_type_id":5}
{"id":null,"anchorname":"MANTI HIGH SCHOOL (UEN)","address":"100 W 500 N, MANTI UT 84642","bldgnbr":"100","predir":"W","streetname":"500","streettype":null,"suffdir":"N","city":"MANTI","state_code":"UT","zip5":"84642","latitude":"39.2738936090000000","longitude":"-111.63913435100000","publicwifi":"U","url":null,"broadband_type_id":6}
{"id":null,"anchorname":"MANTI FAMILY CLINIC","address":"159 NORTH MAIN, MANTI UT 84642","bldgnbr":"159","predir":"N","streetname":"MAIN","streettype":null,"suffdir":null,"city":"MANTI","state_code":"UT","zip5":"84642","latitude":"39.2677285860000000","longitude":"-111.63735819400000","publicwifi":"U","url":null,"broadband_type_id":3}
{"id":null,"anchorname":"MANTI FAMILY CLINIC (UTN)","address":"159 N MAIN, MANTI UT 84642","bldgnbr":"159","predir":"N","streetname":"MAIN","streettype":null,"suffdir":null,"city":"MANTI","state_code":"UT","zip5":"84642","latitude":"39.2677235510000000","longitude":"-111.63712572700000","publicwifi":"U","url":"http://www.utahtelehealth.net/","broadband_type_id":3}
{"id":null,"anchorname":"SANPETE COUNTY BOOKMOBILE - MANTI SOUTH (CITY HALL) STOP","address":"50 S MAIN ST, MANTI UT 84642","bldgnbr":"50","predir":"S","streetname":"MAIN","streettype":"ST","suffdir":null,"city":"MANTI","state_code":"UT","zip5":"84642","latitude":"39.2652050320000000","longitude":"-111.63715705600000","publicwifi":"Y","url":"http://bookmobiles.utah.gov/sanpete/index.html","broadband_type_id":1}
{"id":null,"anchorname":"New Mexico Human Services Department - Income Support Division - Taos County","address":"145 Roy Road","bldgnbr":"145","predir":null,"streetname":"ROY","streettype":"RD","suffdir":null,"city":"Taos","state_code":"NM","zip5":"87571","latitude":"36.3753693020000000","longitude":"-105.59036502900000","publicwifi":"U","url":"http://www.hsd.state.nm.us/isd/","broadband_type_id":6}
{"id":null,"anchorname":"SANPETE COUNTY JAIL","address":"1500 S US HIGHWAY 89, MANTI UT 84642","bldgnbr":"1500","predir":"S","streetname":"US","streettype":"HWY","suffdir":null,"city":"MANTI","state_code":"UT","zip5":"84642","latitude":"39.2480010640000000","longitude":"-111.64475580500000","publicwifi":"U","url":null,"broadband_type_id":1}
{"id":null,"anchorname":"SANPETE COUNTY BOOKMOBILE - MAYFIELD LDS CHURCH STOP","address":"11 E 100 N, MAYFIELD UT 84642","bldgnbr":"11","predir":"E","streetname":"100","streettype":null,"suffdir":"N","city":"MAYFIELD","state_code":"UT","zip5":"84642","latitude":"39.1157650340000000","longitude":"-111.70851998500000","publicwifi":"Y","url":"http://bookmobiles.utah.gov/sanpete/index.html","broadband_type_id":6}
{"id":null,"anchorname":"CANYON FUEL COMPANY SUFCO MINE (EMS)","address":"3455 E SUFCO MINE RD, ACCORD LAKES UT 84654","bldgnbr":"3455","predir":"E","streetname":"SUFCO MINE","streettype":"RD","suffdir":null,"city":"ACCORD LAKES","state_code":"UT","zip5":"84654","latitude":"38.9132723510000000","longitude":"-111.41645917000000","publicwifi":"U","url":null,"broadband_type_id":6}
{"id":null,"anchorname":"SEVIER COUNTY AMBULANCE SALINA (EMS)","address":"488 N 250 W, SALINA UT 84654","bldgnbr":"488","predir":"N","streetname":"250","streettype":null,"suffdir":"W","city":"SALINA","state_code":"UT","zip5":"84654","latitude":"38.9641646090000000","longitude":"-111.86318212200000","publicwifi":"U","url":null,"broadband_type_id":6}
{"id":null,"anchorname":"SEELY GUARD STATION","address":"unknown","bldgnbr":"unknown","predir":null,"streetname":"unknown","streettype":null,"suffdir":null,"city":"unknown","state_code":"UT","zip5":"84642","latitude":"39.3121467370000000","longitude":"-111.42960424300000","publicwifi":"U","url":null,"broadband_type_id":null}
{"id":null,"anchorname":"STERLING","address":"110 W 100 N, STERLING UT 84665","bldgnbr":"110","predir":"W","streetname":"100","streettype":null,"suffdir":"N","city":"STERLING","state_code":"UT","zip5":"84665","latitude":"39.1952416900000000","longitude":"-111.69287173800000","publicwifi":"U","url":null,"broadband_type_id":null}
{"id":null,"anchorname":"STERLING POST OFFICE","address":"111 N MAIN ST, STERLING UT 84665","bldgnbr":"111","predir":"N","streetname":"MAIN","streettype":"ST","suffdir":null,"city":"STERLING","state_code":"UT","zip5":"84665","latitude":"39.1950695840000000","longitude":"-111.69252275900000","publicwifi":"N","url":null,"broadband_type_id":null}
{"id":null,"anchorname":"STERLING CO (UEN)","address":"55 S MAIN ST, STERLING UT 84665","bldgnbr":"55","predir":"S","streetname":"MAIN","streettype":"ST","suffdir":null,"city":"STERLING","state_code":"UT","zip5":"84665","latitude":"39.1936717200000000","longitude":"-111.69312879400000","publicwifi":"U","url":null,"broadband_type_id":null}
{"id":null,"anchorname":"MAYFIELD MAIN POST OFFICE","address":"48 N MAIN ST, MAYFIELD UT 84643","bldgnbr":"48","predir":"N","streetname":"MAIN","streettype":"ST","suffdir":null,"city":"MAYFIELD","state_code":"UT","zip5":"84643","latitude":"39.1149169260000000","longitude":"-111.70857753900000","publicwifi":"N","url":null,"broadband_type_id":null}
{"id":null,"anchorname":"TRICOUNTY COUNTY BOOKMOBILE - SALINA STOP","address":"615 W 350 N, SALINA UT 84654","bldgnbr":"615","predir":"W","streetname":"350","streettype":null,"suffdir":"N","city":"SALINA","state_code":"UT","zip5":"84654","latitude":"38.9624370050000000","longitude":"-111.87108605400000","publicwifi":"Y","url":"http://bookmobiles.utah.gov/tri/index.html","broadband_type_id":6}
{"id":null,"anchorname":"TRICOUNTY COUNTY BOOKMOBILE - SALINA STOP","address":"405 MEADOW BROOK DR, SALINA UT 84654","bldgnbr":"405","predir":null,"streetname":"MEADOW BROOK","streettype":"DR","suffdir":null,"city":"SALINA","state_code":"UT","zip5":"84654","latitude":"38.9555290310000000","longitude":"-111.86518495400000","publicwifi":"Y","url":"http://bookmobiles.utah.gov/tri/index.html","broadband_type_id":6}
{"id":null,"anchorname":"REDMOND MAIN POST OFFICE","address":"19 S 100 W, REDMOND UT 84652","bldgnbr":"19","predir":"S","streetname":"100","streettype":null,"suffdir":"W","city":"REDMOND","state_code":"UT","zip5":"84652","latitude":"39.0057510720000000","longitude":"-111.86590220800000","publicwifi":"N","url":null,"broadband_type_id":null}
{"id":null,"anchorname":"TRICOUNTY COUNTY BOOKMOBILE - AURORA LDS CHURCH STOP","address":"89 N MAIN ST, AURORA UT 84620","bldgnbr":"89","predir":"N","streetname":"MAIN","streettype":"ST","suffdir":null,"city":"AURORA","state_code":"UT","zip5":"84620","latitude":"38.9220730180000000","longitude":"-111.93397796000000","publicwifi":"Y","url":"http://bookmobiles.utah.gov/tri/index.html","broadband_type_id":6}
{"id":null,"anchorname":"TRICOUNTY COUNTY BOOKMOBILE - VERMILLION STOP","address":"1515 N STATE, VERMILLION UT 84701","bldgnbr":"1515","predir":"N","streetname":"STATE","streettype":null,"suffdir":null,"city":"VERMILLION","state_code":"UT","zip5":"84701","latitude":"38.8688789900000000","longitude":"-111.96543595900000","publicwifi":"Y","url":"http://bookmobiles.utah.gov/tri/index.html","broadband_type_id":6}
{"id":null,"anchorname":"SALINA FAMILY PRACTICE","address":"310 WEST MAIN STREET, SALINA UT 84654","bldgnbr":"310","predir":"W","streetname":"MAIN","streettype":"ST","suffdir":null,"city":"SALINA","state_code":"UT","zip5":"84654","latitude":"38.9578623740000000","longitude":"-111.86578289300000","publicwifi":"U","url":null,"broadband_type_id":null}
{"id":null,"anchorname":"SALINA MAIN POST OFFICE","address":"35 N 100 E, SALINA UT 84654","bldgnbr":"35","predir":"N","streetname":"100","streettype":null,"suffdir":"E","city":"SALINA","state_code":"UT","zip5":"84654","latitude":"38.9580375730000000","longitude":"-111.85852228300000","publicwifi":"N","url":null,"broadband_type_id":null}
{"id":null,"anchorname":"AT HOME HOSPICE","address":"45 NORTH STATE STREET, SALINA UT 84654","bldgnbr":"45","predir":"N","streetname":"STATE","streettype":"ST","suffdir":null,"city":"SALINA","state_code":"UT","zip5":"84654","latitude":"38.9582189070000000","longitude":"-111.86020720500000","publicwifi":"U","url":null,"broadband_type_id":null}
{"id":null,"anchorname":"AURORA POST OFFICE","address":"178 W CENTER ST, AURORA UT 84620","bldgnbr":"178","predir":"W","streetname":"CENTER","streettype":"ST","suffdir":null,"city":"AURORA","state_code":"UT","zip5":"84620","latitude":"38.9208988290000000","longitude":"-111.93709577900000","publicwifi":"N","url":null,"broadband_type_id":null}
{"id":null,"anchorname":"GOOSEBERRY RANGER STATION","address":"unknown","bldgnbr":"unknown","predir":null,"streetname":"unknown","streettype":null,"suffdir":null,"city":"unknown","state_code":"UT","zip5":"84654","latitude":"38.8013955220000000","longitude":"-111.68352776100000","publicwifi":"U","url":null,"broadband_type_id":null}
{"id":null,"anchorname":"MANTI SCHOOL (UEN)","address":"150 W 100 S, MANTI UT 84642","bldgnbr":"150","predir":"W","streetname":"100","streettype":null,"suffdir":"S","city":"MANTI","state_code":"UT","zip5":"84642","latitude":"39.2644744690000000","longitude":"-111.63978033800000","publicwifi":"U","url":null,"broadband_type_id":6}
{"id":null,"anchorname":"SANPETE COUNTY SHERIFFS OFFICE","address":"1500 SOUTH US 89, MANTI UT 84642","bldgnbr":"1500","predir":"S","streetname":"US 89","streettype":null,"suffdir":null,"city":"MANTI","state_code":"UT","zip5":"84642","latitude":"39.2477523630000000","longitude":"-111.64516272900000","publicwifi":"U","url":null,"broadband_type_id":4}
{"id":null,"anchorname":"SANPETE COUNTY BOOKMOBILE - TLC SCHOOL STOP","address":"150 S 1060 W, MANTI UT 84642","bldgnbr":"150","predir":"S","streetname":"1060","streettype":null,"suffdir":"W","city":"MANTI","state_code":"UT","zip5":"84642","latitude":"39.2574119670000000","longitude":"-111.65469396200000","publicwifi":"Y","url":"http://bookmobiles.utah.gov/sanpete/index.html","broadband_type_id":6}
{"id":null,"anchorname":"MAYFIELD COMMUNITY CARE CENTER, INC.","address":"11 SOUTH MAIN ST, MAYFIELD UT 84643","bldgnbr":"11","predir":"S","streetname":"MAIN","streettype":"ST","suffdir":null,"city":"MAYFIELD","state_code":"UT","zip5":"84643","latitude":"39.1139833600000000","longitude":"-111.70778025600000","publicwifi":"U","url":null,"broadband_type_id":3}
{"id":null,"anchorname":"TRICOUNTY COUNTY BOOKMOBILE - REDMOND PARK STOP","address":"50 N 200 W, REDMOND UT 84654","bldgnbr":"50","predir":"N","streetname":"200","streettype":null,"suffdir":"W","city":"REDMOND","state_code":"UT","zip5":"84654","latitude":"39.0073130280000000","longitude":"-111.86030399100000","publicwifi":"Y","url":"http://bookmobiles.utah.gov/tri/index.html","broadband_type_id":2}
{"id":null,"anchorname":"NORTH SEVIER HIGH SCHOOL (UEN)","address":"350 W 400 N, SALINA UT 84654","bldgnbr":"350","predir":"W","streetname":"400","streettype":null,"suffdir":"N","city":"SALINA","state_code":"UT","zip5":"84654","latitude":"38.9640931350000000","longitude":"-111.86560514500000","publicwifi":"U","url":null,"broadband_type_id":6}
{"id":null,"anchorname":"SALINA SCHOOL (UEN)","address":"210 W 300 N, SALINA UT 84654","bldgnbr":"210","predir":"W","streetname":"300","streettype":null,"suffdir":"N","city":"SALINA","state_code":"UT","zip5":"84654","latitude":"38.9621835680000000","longitude":"-111.86365969800000","publicwifi":"U","url":null,"broadband_type_id":6}
{"id":null,"anchorname":"NORTH SEVIER MIDDLE SCHOOL (UEN)","address":"135 N 100 W, SALINA UT 84654","bldgnbr":"135","predir":"N","streetname":"100","streettype":null,"suffdir":"W","city":"SALINA","state_code":"UT","zip5":"84654","latitude":"38.9600992140000000","longitude":"-111.86254728100000","publicwifi":"U","url":null,"broadband_type_id":6}
{"id":null,"anchorname":"SALINA POLICE DEPARTMENT","address":"310 W MAIN STREET, SALINA UT 84654","bldgnbr":"310","predir":"W","streetname":"MAIN","streettype":"ST","suffdir":null,"city":"SALINA","state_code":"UT","zip5":"84654","latitude":"38.9578011960000000","longitude":"-111.86570886100000","publicwifi":"U","url":null,"broadband_type_id":4}
{"id":null,"anchorname":"SALINA MEDICAL CLINIC","address":"310 WEST MAIN STREET, SALINA UT 84654","bldgnbr":"310","predir":"W","streetname":"MAIN","streettype":"ST","suffdir":null,"city":"SALINA","state_code":"UT","zip5":"84654","latitude":"38.9578623740000000","longitude":"-111.86578289300000","publicwifi":"U","url":null,"broadband_type_id":3}
{"id":null,"anchorname":"SALINA PUBLIC LIBRARY","address":"90 W MAIN ST, SALINA UT 84653","bldgnbr":"90","predir":"W","streetname":"MAIN","streettype":"ST","suffdir":null,"city":"SALINA","state_code":"UT","zip5":"84653","latitude":"38.9576799470000000","longitude":"-111.86144103100000","publicwifi":"Y","url":"http://www.salinacity.org/library/","broadband_type_id":6}
{"id":null,"anchorname":"SALINA VOLUNTEER FIRE DEPARTMENT","address":"80 NORTH 100 WEST, SALINA UT 84654","bldgnbr":"80","predir":"N","streetname":"100","streettype":null,"suffdir":"W","city":"SALINA","state_code":"UT","zip5":"84654","latitude":"38.9586716030000000","longitude":"-111.86140802700000","publicwifi":"U","url":null,"broadband_type_id":5}
{"id":null,"anchorname":"AT HOME HEALTH CARE","address":"45 NORTH STATE STREET, SALINA UT 84654","bldgnbr":"45","predir":"N","streetname":"STATE","streettype":"ST","suffdir":null,"city":"SALINA","state_code":"UT","zip5":"84654","latitude":"38.9582189070000000","longitude":"-111.86020720500000","publicwifi":"U","url":null,"broadband_type_id":3}
{"id":null,"anchorname":"AURORA FIRE DEPARTMENT","address":"250 NORTH 200 WEST, AURORA UT 84620","bldgnbr":"250","predir":"N","streetname":"200","streettype":null,"suffdir":"W","city":"AURORA","state_code":"UT","zip5":"84620","latitude":"38.9244347730000000","longitude":"-111.93787736100000","publicwifi":"U","url":null,"broadband_type_id":5}
{"id":null,"anchorname":"SIGURD FIRE DEPARTMENT","address":"21 SOUTH STATE STREET, SIGURD UT 84657","bldgnbr":"21","predir":"S","streetname":"STATE","streettype":"ST","suffdir":null,"city":"SIGURD","state_code":"UT","zip5":"84657","latitude":"38.8391068050000000","longitude":"-111.96718906700000","publicwifi":"U","url":null,"broadband_type_id":5}
{"id":null,"anchorname":"MOUNT TERRILL GUARD STATION","address":"unknown","bldgnbr":"unknown","predir":null,"streetname":"unknown","streettype":null,"suffdir":null,"city":"unknown","state_code":"UT","zip5":"84654","latitude":"38.7096501800000000","longitude":"-111.68311182000000","publicwifi":"U","url":null,"broadband_type_id":null}
{"id":null,"anchorname":"New Mexico Human Services Department - Income Support Division - Torrance County (Moriarty Area)","address":"109 Tulane Ave","bldgnbr":"109","predir":null,"streetname":"TULANE","streettype":"AVE","suffdir":null,"city":"Moriarty","state_code":"NM","zip5":"87035","latitude":"35.0064377190000000","longitude":"-106.05943928100000","publicwifi":"U","url":"http://www.hsd.state.nm.us/isd/","broadband_type_id":6}
{"id":null,"anchorname":"Bosque Farms Community Center","address":"950 South Bosque Loop","bldgnbr":"950","predir":"S","streetname":"BOSQUE","streettype":"LOOP","suffdir":null,"city":"Bosque Farms","state_code":"NM","zip5":"87068","latitude":"34.8627678480000000","longitude":"-106.70467251200000","publicwifi":"U","url":"http://www.bosquefarmsnm.gov/comm_ctr.html","broadband_type_id":6}
{"id":null,"anchorname":"GLENWOOD POST OFFICE","address":"130 E CENTER ST, GLENWOOD UT 84027","bldgnbr":"130","predir":"E","streetname":"CENTER","streettype":"ST","suffdir":null,"city":"GLENWOOD","state_code":"UT","zip5":"84730","latitude":"38.7630037820000000","longitude":"-111.98810614000000","publicwifi":"N","url":null,"broadband_type_id":null}
{"id":null,"anchorname":"ANNABELLA POST OFFICE","address":"35 E 100 N, ANNABELLA UT 84711","bldgnbr":"35","predir":"E","streetname":"100","streettype":null,"suffdir":"N","city":"ANNABELLA","state_code":"UT","zip5":"84711","latitude":"38.7085024170000000","longitude":"-112.06020012100000","publicwifi":"N","url":null,"broadband_type_id":null}
{"id":null,"anchorname":"FISH LAKE RANGER STATION","address":"unknown","bldgnbr":"unknown","predir":null,"streetname":"unknown","streettype":null,"suffdir":null,"city":"unknown","state_code":"UT","zip5":"84654","latitude":"38.5505771940000000","longitude":"-111.72474630400000","publicwifi":"U","url":null,"broadband_type_id":6}
{"id":null,"anchorname":"DNR HATCHERY (WAN)","address":"820 E HATCHERY RD, GLENWOOD UT 84730","bldgnbr":"820","predir":"E","streetname":"HATCHERY","streettype":"RD","suffdir":null,"city":"GLENWOOD","state_code":"UT","zip5":"84730","latitude":"38.7557398520000000","longitude":"-111.97619088800000","publicwifi":"U","url":null,"broadband_type_id":null}
{"id":null,"anchorname":"TRICOUNTY COUNTY BOOKMOBILE - BURRVILLE STOP","address":"3695 N 900 E, BURRVILLE UT 84754","bldgnbr":"3695","predir":"N","streetname":"900","streettype":null,"suffdir":"E","city":"BURRVILLE","state_code":"UT","zip5":"84754","latitude":"38.5573950430000000","longitude":"-111.86270696400000","publicwifi":"Y","url":"http://bookmobiles.utah.gov/tri/index.html","broadband_type_id":6}
{"id":null,"anchorname":"TRICOUNTY COUNTY BOOKMOBILE - KOOSHAREM STOP","address":"95 E CENTER ST, KOOSHAREM UT 84754","bldgnbr":"95","predir":"E","streetname":"CENTER","streettype":"ST","suffdir":null,"city":"KOOSHAREM","state_code":"UT","zip5":"84754","latitude":"38.5100900080000000","longitude":"-111.88107494700000","publicwifi":"Y","url":"http://bookmobiles.utah.gov/tri/index.html","broadband_type_id":6}
{"id":null,"anchorname":"KOOSHAREM ELEMENTARY (UEN)","address":"75 E CENTER, KOOSHAREM UT 84744","bldgnbr":"75","predir":"E","streetname":"CENTER","streettype":null,"suffdir":null,"city":"KOOSHAREM","state_code":"UT","zip5":"84744","latitude":"38.5105417720000000","longitude":"-111.87981662400000","publicwifi":"U","url":null,"broadband_type_id":6}
{"id":null,"anchorname":"RICHFIELD MAIN POST OFFICE","address":"93 N MAIN ST, RICHFIELD UT 84701","bldgnbr":"93","predir":"N","streetname":"MAIN","streettype":"ST","suffdir":null,"city":"RICHFIELD","state_code":"UT","zip5":"84701","latitude":"38.7692964440000000","longitude":"-112.08500164700000","publicwifi":"N","url":null,"broadband_type_id":null}
{"id":null,"anchorname":"SEVIER COUNTY AMBULANCE KOOSHAREM (EMS)","address":"49 N MAIN ST, KOOSHAREM UT 84744","bldgnbr":"49","predir":"N","streetname":"MAIN","streettype":"ST","suffdir":null,"city":"KOOSHAREM","state_code":"UT","zip5":"84744","latitude":"38.5108027090000000","longitude":"-111.88168005000000","publicwifi":"U","url":null,"broadband_type_id":6}
{"id":null,"anchorname":"TRICOUNTY COUNTY BOOKMOBILE - SIGURD LDS CHURCH STOP","address":"30 S 100 W, SIGURD UT 84657","bldgnbr":"30","predir":"S","streetname":"100","streettype":null,"suffdir":"W","city":"SIGURD","state_code":"UT","zip5":"84657","latitude":"38.8388470350000000","longitude":"-111.96957705600000","publicwifi":"Y","url":"http://bookmobiles.utah.gov/tri/index.html","broadband_type_id":6}
