{"id":null,"anchorname":"WESTFIELD POLICE DEPT","address":"17535 DARTOWN RD","bldgnbr":"BLDGNUMBER","predir":null,"streetname":"STREETNAME","streettype":null,"suffdir":null,"city":"WESTFIELD","state_code":"IN","zip5":"46074","latitude":"40.0414477460000000","longitude":"-86.151267621000000","publicwifi":"Y","url":null,"broadband_type_id":4}
{"id":null,"anchorname":"WESTFIELD FIRE DEPT","address":"17535 DARTOWN RD","bldgnbr":"BLDGNUMBER","predir":null,"streetname":"STREETNAME","streettype":null,"suffdir":null,"city":"WESTFIELD","state_code":"IN","zip5":"46074","latitude":"40.0414477460000000","longitude":"-86.151267621000000","publicwifi":"N","url":"IN.GOVE","broadband_type_id":5}
{"id":null,"anchorname":"ADVANTAGE HEALTH SOLUTIONS","address":"73 SPRING LAKE DR","bldgnbr":"BLDGNUMBER","predir":null,"streetname":"STREETNAME","streettype":null,"suffdir":null,"city":"WESTFIELD","state_code":"IN","zip5":"46074","latitude":"40.0350542030000000","longitude":"-86.158239494000000","publicwifi":"I","url":null,"broadband_type_id":3}
{"id":null,"anchorname":"LITTLE LAMB THE","address":"1609 E GREYHOUND PASS","bldgnbr":"BLDGNUMBER","predir":null,"streetname":"STREETNAME","streettype":null,"suffdir":null,"city":"CARMEL","state_code":"IN","zip5":"46032","latitude":"40.0047197680000000","longitude":"-86.129417402000000","publicwifi":"N","url":null,"broadband_type_id":null}
{"id":null,"anchorname":"PROGRESSIVE REHABILITATION LLC","address":"28848 S DIXIE HWY, HOMESTEAD, FL, 33033","bldgnbr":"28848","predir":"S","streetname":"DIXIE","streettype":"HWY","suffdir":"0","city":"HOMESTEAD","state_code":"FL","zip5":"33033","latitude":"25.4987940000000000","longitude":"-80.446994000000000","publicwifi":"U","url":"0","broadband_type_id":6}
{"id":null,"anchorname":"FLORIDA DEPARTMENT OF CORRECTIONS HOMESTEAD PROBATION AND PAROLE","address":"1448 N KROME AVE, FLORIDA CITY, FL 33034","bldgnbr":"1448","predir":null,"streetname":"KROME","streettype":"AVE","suffdir":null,"city":"FLORIDA CITY","state_code":"FL","zip5":"33034","latitude":"25.4606958500000000","longitude":"-80.477330340000000","publicwifi":"Y","url":"0","broadband_type_id":6}
{"id":null,"anchorname":"FLORIDA DEPARTMENT OF HIGHWAY SAFETY AND MOTOR VEHICLES","address":"6402 NW 186TH ST, HIALEAH, FL 33015","bldgnbr":"6402","predir":null,"streetname":"186TH","streettype":"ST","suffdir":null,"city":"MIAMI","state_code":"FL","zip5":"33015","latitude":"25.9421872600000000","longitude":"-80.304629090000000","publicwifi":"Y","url":"0","broadband_type_id":6}
{"id":null,"anchorname":"NOBLESVILLE AIRPORT-I80","address":"14784 PROMISE RD","bldgnbr":"BLDGNUMBER","predir":null,"streetname":"STREETNAME","streettype":null,"suffdir":null,"city":"NOBLESVILLE","state_code":"IN","zip5":"46060","latitude":"40.0041443630000000","longitude":"-85.970916011000000","publicwifi":"I","url":null,"broadband_type_id":6}
{"id":null,"anchorname":"NOBLESVILLE INTERMEDIATE SCH","address":"19900 HAGUE RD","bldgnbr":"BLDGNUMBER","predir":null,"streetname":"STREETNAME","streettype":null,"suffdir":null,"city":"NOBLESVILLE","state_code":"IN","zip5":"46062","latitude":"40.0758757770000000","longitude":"-86.033354107000000","publicwifi":"N","url":null,"broadband_type_id":6}
{"id":null,"anchorname":"HINKLE CREEK ELEMENTARY SCH","address":"595 SOUTH HARBOUR DR","bldgnbr":"BLDGNUMBER","predir":null,"streetname":"STREETNAME","streettype":null,"suffdir":null,"city":"NOBLESVILLE","state_code":"IN","zip5":"46062","latitude":"40.0659317260000000","longitude":"-86.049814185000000","publicwifi":"N","url":null,"broadband_type_id":6}
{"id":null,"anchorname":"ARBOR EDUCATION \u0026 TRAINING","address":"942 N 10TH ST # 204","bldgnbr":"BLDGNUMBER","predir":null,"streetname":"STREETNAME","streettype":null,"suffdir":null,"city":"NOBLESVILLE","state_code":"IN","zip5":"46060","latitude":"40.0544153800000000","longitude":"-86.011654785000000","publicwifi":"I","url":null,"broadband_type_id":6}
{"id":null,"anchorname":"NOBLESVILLE MIDDLE SCH","address":"300 NORTH 17TH ST","bldgnbr":"BLDGNUMBER","predir":null,"streetname":"STREETNAME","streettype":null,"suffdir":null,"city":"NOBLESVILLE","state_code":"IN","zip5":"46060","latitude":"40.0479064320000000","longitude":"-86.003615301000000","publicwifi":"N","url":null,"broadband_type_id":6}
{"id":null,"anchorname":"GORDON MARKETING","address":"20240 HAGUE RD","bldgnbr":"BLDGNUMBER","predir":null,"streetname":"STREETNAME","streettype":null,"suffdir":null,"city":"NOBLESVILLE","state_code":"IN","zip5":"46062","latitude":"40.0800225960000000","longitude":"-86.033348536000000","publicwifi":"N","url":null,"broadband_type_id":null}
{"id":null,"anchorname":"ANDERSON CENTER OUTPATIENT","address":"340 LOGAN ST","bldgnbr":"BLDGNUMBER","predir":null,"streetname":"STREETNAME","streettype":null,"suffdir":null,"city":"NOBLESVILLE","state_code":"IN","zip5":"46060","latitude":"40.0488136000000000","longitude":"-86.022735111000000","publicwifi":"I","url":null,"broadband_type_id":null}
{"id":null,"anchorname":"UPS STORE","address":"176 LOGAN ST","bldgnbr":"BLDGNUMBER","predir":null,"streetname":"STREETNAME","streettype":null,"suffdir":null,"city":"NOBLESVILLE","state_code":"IN","zip5":"46060","latitude":"40.0482586970000000","longitude":"-86.020233392000000","publicwifi":"I","url":null,"broadband_type_id":null}
{"id":null,"anchorname":"HAMILTON LIFE CTR","address":"1516 MORTON ST","bldgnbr":"BLDGNUMBER","predir":null,"streetname":"STREETNAME","streettype":null,"suffdir":null,"city":"NOBLESVILLE","state_code":"IN","zip5":"46060","latitude":"40.0502353990000000","longitude":"-86.006231239000000","publicwifi":"I","url":null,"broadband_type_id":null}
{"id":null,"anchorname":"CHURCH CHURCH TITTLE ANTRIM","address":"938 CONNER ST","bldgnbr":"BLDGNUMBER","predir":null,"streetname":"STREETNAME","streettype":null,"suffdir":null,"city":"NOBLESVILLE","state_code":"IN","zip5":"46060","latitude":"40.0456903410000000","longitude":"-86.013007527000000","publicwifi":"I","url":null,"broadband_type_id":null}
{"id":null,"anchorname":"FIRE STATION","address":"10170 E 191ST ST","bldgnbr":"BLDGNUMBER","predir":null,"streetname":"STREETNAME","streettype":null,"suffdir":null,"city":"NOBLESVILLE","state_code":"IN","zip5":"46060","latitude":"40.0657631890000000","longitude":"-85.986223135000000","publicwifi":"I","url":null,"broadband_type_id":5}
{"id":null,"anchorname":"OUR LADY OF GRACE SCHOOL","address":"9900 E 191ST ST","bldgnbr":"BLDGNUMBER","predir":null,"streetname":"STREETNAME","streettype":null,"suffdir":null,"city":"NOBLESVILLE","state_code":"IN","zip5":"46060","latitude":"40.0656786820000000","longitude":"-85.993211299000000","publicwifi":"N","url":null,"broadband_type_id":6}
{"id":null,"anchorname":"LEGACY CHRISTIAN SCHOOL","address":"1687 N 10TH ST","bldgnbr":"BLDGNUMBER","predir":null,"streetname":"STREETNAME","streettype":null,"suffdir":null,"city":"NOBLESVILLE","state_code":"IN","zip5":"46060","latitude":"40.0654673990000000","longitude":"-86.006769194000000","publicwifi":"N","url":null,"broadband_type_id":6}
{"id":null,"anchorname":"WHITE RIVER ELEMENTARY SCHOOL","address":"19000 CUMBERLAND RD","bldgnbr":"BLDGNUMBER","predir":null,"streetname":"STREETNAME","streettype":null,"suffdir":null,"city":"NOBLESVILLE","state_code":"IN","zip5":"46060","latitude":"40.0631224380000000","longitude":"-85.995695319000000","publicwifi":"N","url":null,"broadband_type_id":6}
{"id":null,"anchorname":"STONEY CREEK PLAY SCHOOL","address":"15575 STONY CREEK WAY","bldgnbr":"BLDGNUMBER","predir":null,"streetname":"STREETNAME","streettype":null,"suffdir":null,"city":"NOBLESVILLE","state_code":"IN","zip5":"46060","latitude":"40.0146138960000000","longitude":"-86.006762381000000","publicwifi":"N","url":null,"broadband_type_id":6}
{"id":null,"anchorname":"COUNTY HEALTH DEPT","address":"18030A FOUNDATION DR","bldgnbr":"BLDGNUMBER","predir":null,"streetname":"STREETNAME","streettype":null,"suffdir":null,"city":"NOBLESVILLE","state_code":"IN","zip5":"46060","latitude":"40.0495158940000000","longitude":"-85.991013174000000","publicwifi":"I","url":null,"broadband_type_id":3}
{"id":null,"anchorname":"OPTIONS CHARTER SCHOOL NOBLESVILLE","address":"9945 CUMBERLAND POINTE BLVD","bldgnbr":"BLDGNUMBER","predir":null,"streetname":"STREETNAME","streettype":null,"suffdir":null,"city":"NOBLESVILLE","state_code":"IN","zip5":"46060","latitude":"40.0153929490000000","longitude":"-85.992039952000000","publicwifi":"N","url":null,"broadband_type_id":6}
{"id":null,"anchorname":"NOBLESVILLE FIRE DEPT","address":"2101 GREENFIELD AVE","bldgnbr":"BLDGNUMBER","predir":null,"streetname":"STREETNAME","streettype":null,"suffdir":null,"city":"NOBLESVILLE","state_code":"IN","zip5":"46060","latitude":"40.0263843910000000","longitude":"-86.000380142000000","publicwifi":"I","url":null,"broadband_type_id":5}
{"id":null,"anchorname":"MINUTE CLINIC","address":"3280 STATE ROAD 32 E","bldgnbr":"BLDGNUMBER","predir":null,"streetname":"STREETNAME","streettype":null,"suffdir":null,"city":"WESTFIELD","state_code":"IN","zip5":"46074","latitude":"40.0429454530000000","longitude":"-86.109572082000000","publicwifi":"I","url":null,"broadband_type_id":3}
{"id":null,"anchorname":"WASHINGTON WOODS ELEMENTARY SCHOOL","address":"17950 GRASSY BRANCH RD","bldgnbr":"BLDGNUMBER","predir":null,"streetname":"STREETNAME","streettype":null,"suffdir":null,"city":"WESTFIELD","state_code":"IN","zip5":"46074","latitude":"40.0485134460000000","longitude":"-86.109289333000000","publicwifi":"N","url":null,"broadband_type_id":6}
{"id":null,"anchorname":"HAZEL DELL ELEMENTARY SCHOOL","address":"3025 WESTFIELD RD","bldgnbr":"BLDGNUMBER","predir":null,"streetname":"STREETNAME","streettype":null,"suffdir":null,"city":"NOBLESVILLE","state_code":"IN","zip5":"46062","latitude":"40.0431095140000000","longitude":"-86.076474334000000","publicwifi":"N","url":null,"broadband_type_id":6}
{"id":null,"anchorname":"ST THEODORE GUERIN HIGH SCHOOL","address":"15300 N GRAY RD","bldgnbr":"BLDGNUMBER","predir":null,"streetname":"STREETNAME","streettype":null,"suffdir":null,"city":"NOBLESVILLE","state_code":"IN","zip5":"46062","latitude":"40.0104118750000000","longitude":"-86.089743169000000","publicwifi":"N","url":null,"broadband_type_id":6}
{"id":null,"anchorname":"NEW YOU CLINIC","address":"18077 RIVER AVE","bldgnbr":"BLDGNUMBER","predir":null,"streetname":"STREETNAME","streettype":null,"suffdir":null,"city":"NOBLESVILLE","state_code":"IN","zip5":"46062","latitude":"40.0494908490000000","longitude":"-86.028162348000000","publicwifi":"I","url":null,"broadband_type_id":3}
{"id":null,"anchorname":"RIVERVIEW HEALTH \u0026 FITNESS CTR","address":"601 WESTFIELD RD","bldgnbr":"BLDGNUMBER","predir":null,"streetname":"STREETNAME","streettype":null,"suffdir":null,"city":"NOBLESVILLE","state_code":"IN","zip5":"46060","latitude":"40.0469675130000000","longitude":"-86.027066161000000","publicwifi":"I","url":null,"broadband_type_id":3}
{"id":null,"anchorname":"RIVERVIEW HOSPITAL","address":"395 WESTFIELD RD","bldgnbr":"BLDGNUMBER","predir":null,"streetname":"STREETNAME","streettype":null,"suffdir":null,"city":"NOBLESVILLE","state_code":"IN","zip5":"46060","latitude":"40.0469841380000000","longitude":"-86.023938275000000","publicwifi":"I","url":null,"broadband_type_id":3}
{"id":null,"anchorname":"RIVERVIEW HOSPITAL","address":"395 WESTFIELD RD","bldgnbr":"BLDGNUMBER","predir":null,"streetname":"STREETNAME","streettype":null,"suffdir":null,"city":"NOBLESVILLE","state_code":"IN","zip5":"46060","latitude":"40.0469841380000000","longitude":"-86.023938275000000","publicwifi":"I","url":null,"broadband_type_id":3}
{"id":null,"anchorname":"NOBLESVILLE FIRE DEPT STATION","address":"20777 HAGUE RD","bldgnbr":"BLDGNUMBER","predir":null,"streetname":"STREETNAME","streettype":null,"suffdir":null,"city":"NOBLESVILLE","state_code":"IN","zip5":"46062","latitude":"40.0892567400000000","longitude":"-86.033448867000000","publicwifi":"N","url":"COMCAST","broadband_type_id":5}
{"id":null,"anchorname":"FOREST HILL ELEMENTARY SCHOOL","address":"470 LAKEVIEW DR","bldgnbr":"BLDGNUMBER","predir":null,"streetname":"STREETNAME","streettype":null,"suffdir":null,"city":"NOBLESVILLE","state_code":"IN","zip5":"46060","latitude":"40.0553439380000000","longitude":"-86.024014530000000","publicwifi":"N","url":null,"broadband_type_id":6}
{"id":null,"anchorname":"INDIANA HEALTH CTR INC","address":"942 N 10TH ST # 105","bldgnbr":"BLDGNUMBER","predir":null,"streetname":"STREETNAME","streettype":null,"suffdir":null,"city":"NOBLESVILLE","state_code":"IN","zip5":"46060","latitude":"40.0544153800000000","longitude":"-86.011654785000000","publicwifi":"N","url":"COMCAST","broadband_type_id":3}
{"id":null,"anchorname":"NORTH ELEMENTARY SCHOOL","address":"440 NORTH 10TH","bldgnbr":"BLDGNUMBER","predir":null,"streetname":"STREETNAME","streettype":null,"suffdir":null,"city":"NOBLESVILLE","state_code":"IN","zip5":"46060","latitude":"40.0497214160000000","longitude":"-86.012167662000000","publicwifi":"N","url":null,"broadband_type_id":6}
{"id":null,"anchorname":"FISHERS POLICE DEPT","address":"18100 CUMBERLAND RD","bldgnbr":"BLDGNUMBER","predir":null,"streetname":"STREETNAME","streettype":null,"suffdir":null,"city":"NOBLESVILLE","state_code":"IN","zip5":"46060","latitude":"40.0512399960000000","longitude":"-85.995665044000000","publicwifi":"I","url":null,"broadband_type_id":4}
{"id":null,"anchorname":"PRIORITY 1 MEDICAL","address":"2620 CONNER ST # 102","bldgnbr":"BLDGNUMBER","predir":null,"streetname":"STREETNAME","streettype":null,"suffdir":null,"city":"NOBLESVILLE","state_code":"IN","zip5":"46060","latitude":"40.0457169940000000","longitude":"-85.995605234000000","publicwifi":"I","url":null,"broadband_type_id":3}
{"id":null,"anchorname":"HAMILTON EAST PUBLIC LIBRARY","address":"ONE LIBRARY PLAZA","bldgnbr":"BLDGNUMBER","predir":null,"streetname":"STREETNAME","streettype":null,"suffdir":null,"city":"NOBLESVILLE","state_code":"IN","zip5":"46060","latitude":"40.0462412160000000","longitude":"-85.995701102000000","publicwifi":"N","url":null,"broadband_type_id":6}
{"id":null,"anchorname":"NOBLESVILLE HIGH SCHOOL","address":"18111 CUMBERLAND RD","bldgnbr":"BLDGNUMBER","predir":null,"streetname":"STREETNAME","streettype":null,"suffdir":null,"city":"NOBLESVILLE","state_code":"IN","zip5":"46060","latitude":"40.0533293290000000","longitude":"-85.995820663000000","publicwifi":"N","url":null,"broadband_type_id":6}
{"id":null,"anchorname":"NOBLESVILLE FIRE DEPT","address":"135 S 9TH ST","bldgnbr":"BLDGNUMBER","predir":null,"streetname":"STREETNAME","streettype":null,"suffdir":null,"city":"NOBLESVILLE","state_code":"IN","zip5":"46060","latitude":"40.0443465040000000","longitude":"-86.013571290000000","publicwifi":"I","url":null,"broadband_type_id":5}
{"id":null,"anchorname":"OMI CT OF MIAMI LAKES INC","address":"15410 NW 77 COURT, MIAMI LAKES, FL, 33016","bldgnbr":"15410","predir":"NW","streetname":"77","streettype":"COURT","suffdir":"0","city":"MIAMI LAKES","state_code":"FL","zip5":"33016","latitude":"25.9140560000000000","longitude":"-80.325973000000000","publicwifi":"U","url":"0","broadband_type_id":6}
{"id":null,"anchorname":"THORPE CREEK ELEMENTARY","address":"14642 EAST 126TH ST","bldgnbr":"BLDGNUMBER","predir":null,"streetname":"STREETNAME","streettype":null,"suffdir":null,"city":"FISHERS","state_code":"IN","zip5":"46038","latitude":"39.9727204350000000","longitude":"-85.900957911000000","publicwifi":"N","url":null,"broadband_type_id":6}
{"id":null,"anchorname":"HAMILTON SOUTHEASTERN HS","address":"13910 EAST 126TH ST","bldgnbr":"BLDGNUMBER","predir":null,"streetname":"STREETNAME","streettype":null,"suffdir":null,"city":"FISHERS","state_code":"IN","zip5":"46037","latitude":"39.9725895820000000","longitude":"-85.916377783000000","publicwifi":"N","url":null,"broadband_type_id":6}
{"id":null,"anchorname":"HAMILTON SOUTHEASTERN JR HIGH SCH","address":"12001 OLIO RD","bldgnbr":"BLDGNUMBER","predir":null,"streetname":"STREETNAME","streettype":null,"suffdir":null,"city":"FISHERS","state_code":"IN","zip5":"46037","latitude":"39.9637743980000000","longitude":"-85.918518269000000","publicwifi":"N","url":null,"broadband_type_id":6}
{"id":null,"anchorname":"SAND CREEK ELEMENTARY","address":"11420 EAST 131ST ST","bldgnbr":"BLDGNUMBER","predir":null,"streetname":"STREETNAME","streettype":null,"suffdir":null,"city":"FISHERS","state_code":"IN","zip5":"46038","latitude":"39.9793354770000000","longitude":"-85.962996877000000","publicwifi":"N","url":null,"broadband_type_id":6}
{"id":null,"anchorname":"LANTERN ROAD ELEMENTARY SCH","address":"10595 LANTERN RD","bldgnbr":"BLDGNUMBER","predir":null,"streetname":"STREETNAME","streettype":null,"suffdir":null,"city":"FISHERS","state_code":"IN","zip5":"46037","latitude":"39.9417936180000000","longitude":"-86.013697085000000","publicwifi":"N","url":null,"broadband_type_id":6}
{"id":null,"anchorname":"INDIANAPOLIS METROPOLITAN-UMP","address":"9913 WILLOW VIEW RD","bldgnbr":"BLDGNUMBER","predir":null,"streetname":"STREETNAME","streettype":null,"suffdir":null,"city":"FISHERS","state_code":"IN","zip5":"46038","latitude":"39.9304112310000000","longitude":"-86.050554155000000","publicwifi":"I","url":null,"broadband_type_id":6}
{"id":null,"anchorname":"FALL CREEK INTERMEDIATE SCH","address":"12011 OLIO RD","bldgnbr":"BLDGNUMBER","predir":null,"streetname":"STREETNAME","streettype":null,"suffdir":null,"city":"FISHERS","state_code":"IN","zip5":"46037","latitude":"39.9639224830000000","longitude":"-85.918518792000000","publicwifi":"N","url":null,"broadband_type_id":null}
{"id":null,"anchorname":"UPS STORE","address":"11650 OLIO RD # 1000","bldgnbr":"BLDGNUMBER","predir":null,"streetname":"STREETNAME","streettype":null,"suffdir":null,"city":"FISHERS","state_code":"IN","zip5":"46037","latitude":"39.9583781830000000","longitude":"-85.918606093000000","publicwifi":"N","url":"AT\u0026T","broadband_type_id":null}
{"id":null,"anchorname":"PERKINS SPECIALIZED TRNSPRTN","address":"14450 GETZ RD","bldgnbr":"BLDGNUMBER","predir":null,"streetname":"STREETNAME","streettype":null,"suffdir":null,"city":"NOBLESVILLE","state_code":"IN","zip5":"46060","latitude":"40.0000439060000000","longitude":"-85.933748206000000","publicwifi":"I","url":null,"broadband_type_id":null}
{"id":null,"anchorname":"YMCA","address":"9093 TECHNOLOGY DR # 101","bldgnbr":"BLDGNUMBER","predir":null,"streetname":"STREETNAME","streettype":null,"suffdir":null,"city":"FISHERS","state_code":"IN","zip5":"46038","latitude":"39.9610665920000000","longitude":"-86.009336620000000","publicwifi":"N","url":null,"broadband_type_id":null}
{"id":null,"anchorname":"YMCA","address":"9012 E 126TH ST","bldgnbr":"BLDGNUMBER","predir":null,"streetname":"STREETNAME","streettype":null,"suffdir":null,"city":"FISHERS","state_code":"IN","zip5":"46038","latitude":"39.9715847600000000","longitude":"-86.009200253000000","publicwifi":"I","url":null,"broadband_type_id":null}
{"id":null,"anchorname":"UPS STORE","address":"14350 MUNDY DR # 800","bldgnbr":"BLDGNUMBER","predir":null,"streetname":"STREETNAME","streettype":null,"suffdir":null,"city":"NOBLESVILLE","state_code":"IN","zip5":"46060","latitude":"39.9971811410000000","longitude":"-86.002661844000000","publicwifi":"I","url":null,"broadband_type_id":null}
{"id":null,"anchorname":"STONY CREEK ELEMENTARY SCHOOL","address":"1350 GREENFIELD PK","bldgnbr":"BLDGNUMBER","predir":null,"streetname":"STREETNAME","streettype":null,"suffdir":null,"city":"NOBLESVILLE","state_code":"IN","zip5":"46060","latitude":"40.0323551530000000","longitude":"-86.007823890000000","publicwifi":"N","url":null,"broadband_type_id":6}
{"id":null,"anchorname":"GEIST ELEMENTARY SCHOOL","address":"14051 EAST 104TH ST","bldgnbr":"BLDGNUMBER","predir":null,"streetname":"STREETNAME","streettype":null,"suffdir":null,"city":"FORTVILLE","state_code":"IN","zip5":"46040","latitude":"39.9385261330000000","longitude":"-85.917900140000000","publicwifi":"N","url":null,"broadband_type_id":6}
{"id":null,"anchorname":"TRANS FIRST HEALTH SVC INC","address":"11468 LITTLE ROCK CT","bldgnbr":"BLDGNUMBER","predir":null,"streetname":"STREETNAME","streettype":null,"suffdir":null,"city":"FISHERS","state_code":"IN","zip5":"46037","latitude":"39.9559686040000000","longitude":"-85.937196283000000","publicwifi":"I","url":null,"broadband_type_id":3}
{"id":null,"anchorname":"ST VINCENT MEDICAL CTR NE","address":"13914 STATE ROAD 238 E","bldgnbr":"BLDGNUMBER","predir":null,"streetname":"STREETNAME","streettype":null,"suffdir":null,"city":"FISHERS","state_code":"IN","zip5":"46037","latitude":"39.9878036020000000","longitude":"-85.916224495000000","publicwifi":"I","url":null,"broadband_type_id":3}
{"id":null,"anchorname":"CLARIAN URGENT CARE","address":"11580 OVERLOOK DR # 100","bldgnbr":"BLDGNUMBER","predir":null,"streetname":"STREETNAME","streettype":null,"suffdir":null,"city":"FISHERS","state_code":"IN","zip5":"46037","latitude":"39.9566841970000000","longitude":"-85.992837268000000","publicwifi":"I","url":null,"broadband_type_id":3}
{"id":null,"anchorname":"FISHERS LIBRARY","address":"FIVE MUNICIPAL DRIVE","bldgnbr":"BLDGNUMBER","predir":null,"streetname":"STREETNAME","streettype":null,"suffdir":null,"city":"FISHERS","state_code":"IN","zip5":"46038","latitude":"39.9827308670000000","longitude":"-85.965360822000000","publicwifi":"N","url":null,"broadband_type_id":6}
{"id":null,"anchorname":"FISHERS FIRE STATION 95","address":"10870 E 131ST ST","bldgnbr":"BLDGNUMBER","predir":null,"streetname":"STREETNAME","streettype":null,"suffdir":null,"city":"FISHERS","state_code":"IN","zip5":"46038","latitude":"39.9792393050000000","longitude":"-85.974429945000000","publicwifi":"Y","url":null,"broadband_type_id":5}
{"id":null,"anchorname":"SAND CREEK INTERMEDIATE SCHOOL","address":"11550 EAST 131ST ST","bldgnbr":"BLDGNUMBER","predir":null,"streetname":"STREETNAME","streettype":null,"suffdir":null,"city":"FISHERS","state_code":"IN","zip5":"46038","latitude":"39.9793536450000000","longitude":"-85.960653105000000","publicwifi":"N","url":null,"broadband_type_id":6}
{"id":null,"anchorname":"FISHERS HIGH SCHOOL","address":"13000 PROMISE RD","bldgnbr":"BLDGNUMBER","predir":null,"streetname":"STREETNAME","streettype":null,"suffdir":null,"city":"FISHERS","state_code":"IN","zip5":"46038","latitude":"39.9779355230000000","longitude":"-85.970610364000000","publicwifi":"N","url":null,"broadband_type_id":6}
{"id":null,"anchorname":"FISHERS FIRE STATION 94","address":"10701 CUMBERLAND RD","bldgnbr":"BLDGNUMBER","predir":null,"streetname":"STREETNAME","streettype":null,"suffdir":null,"city":"FISHERS","state_code":"IN","zip5":"46037","latitude":"39.9428681990000000","longitude":"-85.995010450000000","publicwifi":"Y","url":null,"broadband_type_id":5}
{"id":null,"anchorname":"ST VINCENT IMMEDIATE CARE CTR","address":"9795 E 116TH ST","bldgnbr":"BLDGNUMBER","predir":null,"streetname":"STREETNAME","streettype":null,"suffdir":null,"city":"FISHERS","state_code":"IN","zip5":"46037","latitude":"39.9571508160000000","longitude":"-85.995197875000000","publicwifi":"I","url":null,"broadband_type_id":3}
{"id":null,"anchorname":"BROOKS SCHOOL ELEMENTARY","address":"12451 BROOKS SCHOOL RD","bldgnbr":"BLDGNUMBER","predir":null,"streetname":"STREETNAME","streettype":null,"suffdir":null,"city":"FISHERS","state_code":"IN","zip5":"46037","latitude":"39.9697685360000000","longitude":"-85.942363177000000","publicwifi":"N","url":null,"broadband_type_id":6}
{"id":null,"anchorname":"HOOSIER ROAD ELEMENTARY SCHOOL","address":"11300 EAST 121ST ST","bldgnbr":"BLDGNUMBER","predir":null,"streetname":"STREETNAME","streettype":null,"suffdir":null,"city":"FISHERS","state_code":"IN","zip5":"46037","latitude":"39.9646588730000000","longitude":"-85.969952488000000","publicwifi":"N","url":null,"broadband_type_id":6}
{"id":null,"anchorname":"FALL CREEK ELEMENTARY SCHOOL","address":"12131 OLIO RD","bldgnbr":"BLDGNUMBER","predir":null,"streetname":"STREETNAME","streettype":null,"suffdir":null,"city":"FISHERS","state_code":"IN","zip5":"46037","latitude":"39.9660393510000000","longitude":"-85.918636120000000","publicwifi":"N","url":null,"broadband_type_id":6}
{"id":null,"anchorname":"FISHERS FIRE STATION 92","address":"11695 BROOKS SCHOOL RD","bldgnbr":"BLDGNUMBER","predir":null,"streetname":"STREETNAME","streettype":null,"suffdir":null,"city":"FISHERS","state_code":"IN","zip5":"46037","latitude":"39.9586778540000000","longitude":"-85.942305256000000","publicwifi":"N","url":null,"broadband_type_id":5}
{"id":null,"anchorname":"CAREER STRATEGIES INC","address":"9583 CLOVER LEAF LN","bldgnbr":"BLDGNUMBER","predir":null,"streetname":"STREETNAME","streettype":null,"suffdir":null,"city":"FISHERS","state_code":"IN","zip5":"46038","latitude":"39.9929172410000000","longitude":"-85.997877513000000","publicwifi":"I","url":null,"broadband_type_id":3}
{"id":null,"anchorname":"CUMBERLAND ROAD ELEM SCHOOL","address":"13535 CUMBERLAND RD","bldgnbr":"BLDGNUMBER","predir":null,"streetname":"STREETNAME","streettype":null,"suffdir":null,"city":"FISHERS","state_code":"IN","zip5":"46038","latitude":"39.9858211020000000","longitude":"-85.994336594000000","publicwifi":"N","url":null,"broadband_type_id":6}
{"id":null,"anchorname":"FISHERS JUNIOR HIGH SCHOOL","address":"13257 CUMBERLAND RD","bldgnbr":"BLDGNUMBER","predir":null,"streetname":"STREETNAME","streettype":null,"suffdir":null,"city":"FISHERS","state_code":"IN","zip5":"46038","latitude":"39.9812301230000000","longitude":"-85.994326227000000","publicwifi":"N","url":null,"broadband_type_id":6}
{"id":null,"anchorname":"HARRISON PARKWAY ELEM SCHOOL","address":"14135 HARRISON PKY","bldgnbr":"BLDGNUMBER","predir":null,"streetname":"STREETNAME","streettype":null,"suffdir":null,"city":"FISHERS","state_code":"IN","zip5":"46038","latitude":"39.9941132520000000","longitude":"-86.011169666000000","publicwifi":"N","url":null,"broadband_type_id":6}
{"id":null,"anchorname":"COMMUNITY MONTESSORI SCHOOL","address":"9069 E 141ST ST","bldgnbr":"BLDGNUMBER","predir":null,"streetname":"STREETNAME","streettype":null,"suffdir":null,"city":"FISHERS","state_code":"IN","zip5":"46038","latitude":"39.9933928770000000","longitude":"-86.008990639000000","publicwifi":"N","url":null,"broadband_type_id":6}
{"id":null,"anchorname":"NEW BRITTON ELEMENTARY SCHOOL","address":"8660 EAST 131ST ST","bldgnbr":"BLDGNUMBER","predir":null,"streetname":"STREETNAME","streettype":null,"suffdir":null,"city":"FISHERS","state_code":"IN","zip5":"46038","latitude":"39.9787284660000000","longitude":"-86.015482048000000","publicwifi":"N","url":null,"broadband_type_id":6}
{"id":null,"anchorname":"MED CHECK EXPRESS-COMM HEALTH","address":"8300 E 96TH ST","bldgnbr":"BLDGNUMBER","predir":null,"streetname":"STREETNAME","streettype":null,"suffdir":null,"city":"FISHERS","state_code":"IN","zip5":"46037","latitude":"39.9273819200000000","longitude":"-86.020071551000000","publicwifi":"I","url":null,"broadband_type_id":3}
{"id":null,"anchorname":"FISHERS FIRE STATION 93","address":"10501 ALLISONVILLE RD","bldgnbr":"BLDGNUMBER","predir":null,"streetname":"STREETNAME","streettype":null,"suffdir":null,"city":"FISHERS","state_code":"IN","zip5":"46038","latitude":"39.9395398340000000","longitude":"-86.051113715000000","publicwifi":"N","url":null,"broadband_type_id":5}
{"id":null,"anchorname":"HRC MEDICAL CTR","address":"10173 ALLISONVILLE RD # 200","bldgnbr":"BLDGNUMBER","predir":null,"streetname":"STREETNAME","streettype":null,"suffdir":null,"city":"FISHERS","state_code":"IN","zip5":"46038","latitude":"39.9351566950000000","longitude":"-86.055865830000000","publicwifi":"Y","url":null,"broadband_type_id":3}
{"id":null,"anchorname":"THERACARE","address":"9957 ALLISONVILLE RD","bldgnbr":"BLDGNUMBER","predir":null,"streetname":"STREETNAME","streettype":null,"suffdir":null,"city":"FISHERS","state_code":"IN","zip5":"46038","latitude":"39.9330715440000000","longitude":"-86.058241966000000","publicwifi":"I","url":null,"broadband_type_id":3}
{"id":null,"anchorname":"TRINITY WESLEYAN CHILD CARE MINISTRIES","address":"9709 ALLISONVILLE RD","bldgnbr":"BLDGNUMBER","predir":null,"streetname":"STREETNAME","streettype":null,"suffdir":null,"city":"INDIANAPOLIS","state_code":"IN","zip5":"46250","latitude":"39.9306878910000000","longitude":"-86.060920760000000","publicwifi":"N","url":null,"broadband_type_id":3}
{"id":null,"anchorname":"WORKONE CENTRAL INDIANA","address":"10204 LANTERN RD","bldgnbr":"BLDGNUMBER","predir":null,"streetname":"STREETNAME","streettype":null,"suffdir":null,"city":"FISHERS","state_code":"IN","zip5":"46037","latitude":"39.9354235030000000","longitude":"-86.013818400000000","publicwifi":"I","url":null,"broadband_type_id":null}
{"id":null,"anchorname":"ORTHO INDY","address":"10995 ALLISONVILLE RD # 102","bldgnbr":"BLDGNUMBER","predir":null,"streetname":"STREETNAME","streettype":null,"suffdir":null,"city":"FISHERS","state_code":"IN","zip5":"46038","latitude":"39.9484617330000000","longitude":"-86.043029909000000","publicwifi":"I","url":null,"broadband_type_id":null}
{"id":null,"anchorname":"UPS STORE","address":"11057 ALLISONVILLE RD","bldgnbr":"BLDGNUMBER","predir":null,"streetname":"STREETNAME","streettype":null,"suffdir":null,"city":"FISHERS","state_code":"IN","zip5":"46038","latitude":"39.9502676700000000","longitude":"-86.042248441000000","publicwifi":"N","url":"COMCAST","broadband_type_id":null}
{"id":null,"anchorname":"FLORIDA SLEEP \u0026 NEURO DIAGNOSTIC SERVICES INC","address":"14394 COMMERCE WAY, MIAMI LAKES, FL, 33016","bldgnbr":"14394","predir":"0","streetname":"COMMERCE","streettype":"WAY","suffdir":"0","city":"MIAMI LAKES","state_code":"FL","zip5":"33016","latitude":"25.9045600000000000","longitude":"-80.328946000000000","publicwifi":"U","url":"0","broadband_type_id":6}
{"id":null,"anchorname":"SMOKY ROW ELEMENTARY SCH","address":"900 WEST 136TH ST","bldgnbr":"BLDGNUMBER","predir":null,"streetname":"STREETNAME","streettype":null,"suffdir":null,"city":"CARMEL","state_code":"IN","zip5":"46032","latitude":"39.9849706280000000","longitude":"-86.173430363000000","publicwifi":"N","url":null,"broadband_type_id":6}
{"id":null,"anchorname":"PRAIRIE TRACE ELEMENTARY SCH","address":"14200 NORTH RIVER RD","bldgnbr":"BLDGNUMBER","predir":null,"streetname":"STREETNAME","streettype":null,"suffdir":null,"city":"CARMEL","state_code":"IN","zip5":"46033","latitude":"39.9881235020000000","longitude":"-86.046490160000000","publicwifi":"N","url":null,"broadband_type_id":6}
{"id":null,"anchorname":"KIDS KASTLE","address":"11552 FISHERS LANDING DR","bldgnbr":"BLDGNUMBER","predir":null,"streetname":"STREETNAME","streettype":null,"suffdir":null,"city":"FISHERS","state_code":"IN","zip5":"46038","latitude":"39.9541150140000000","longitude":"-86.041965984000000","publicwifi":"N","url":null,"broadband_type_id":null}
{"id":null,"anchorname":"WEST CLAY ELEMENTARY","address":"3495 WEST 126 ST","bldgnbr":"BLDGNUMBER","predir":null,"streetname":"STREETNAME","streettype":null,"suffdir":null,"city":"CARMEL","state_code":"IN","zip5":"46032","latitude":"39.9699179820000000","longitude":"-86.218602361000000","publicwifi":"N","url":null,"broadband_type_id":6}
{"id":null,"anchorname":"US POST OFFICE","address":"8500 E 116TH ST","bldgnbr":"BLDGNUMBER","predir":null,"streetname":"STREETNAME","streettype":null,"suffdir":null,"city":"FISHERS","state_code":"IN","zip5":"46038","latitude":"39.9569373180000000","longitude":"-86.018617044000000","publicwifi":"I","url":null,"broadband_type_id":null}
{"id":null,"anchorname":"ST VINCENT HEADACHE CTR","address":"13430 N MERIDIAN ST # 165","bldgnbr":"BLDGNUMBER","predir":null,"streetname":"STREETNAME","streettype":null,"suffdir":null,"city":"CARMEL","state_code":"IN","zip5":"46032","latitude":"39.9832157540000000","longitude":"-86.147730563000000","publicwifi":"I","url":null,"broadband_type_id":null}
{"id":null,"anchorname":"ORTHOINDY","address":"13450 N MERIDIAN ST # 355-3","bldgnbr":"BLDGNUMBER","predir":null,"streetname":"STREETNAME","streettype":null,"suffdir":null,"city":"CARMEL","state_code":"IN","zip5":"46290","latitude":"39.9833984030000000","longitude":"-86.147042153000000","publicwifi":"I","url":null,"broadband_type_id":null}
{"id":null,"anchorname":"ST VINCENT PHYSICIAN NETWORK","address":"13250 HAZEL DELL PKWY # 104","bldgnbr":"BLDGNUMBER","predir":null,"streetname":"STREETNAME","streettype":null,"suffdir":null,"city":"CARMEL","state_code":"IN","zip5":"46033","latitude":"39.9807871090000000","longitude":"-86.070684847000000","publicwifi":"I","url":null,"broadband_type_id":null}
{"id":null,"anchorname":"KEAY CONSULTING INC","address":"13501 BRENTWOOD LN","bldgnbr":"BLDGNUMBER","predir":null,"streetname":"STREETNAME","streettype":null,"suffdir":null,"city":"CARMEL","state_code":"IN","zip5":"46033","latitude":"39.9836094640000000","longitude":"-86.108160549000000","publicwifi":"N","url":null,"broadband_type_id":null}
{"id":null,"anchorname":"ST VINCENT REHAB SVC","address":"10801 N MICHIGAN RD # 200","bldgnbr":"BLDGNUMBER","predir":null,"streetname":"STREETNAME","streettype":null,"suffdir":null,"city":"ZIONSVILLE","state_code":"IN","zip5":"46077","latitude":"39.9434724470000000","longitude":"-86.238047726000000","publicwifi":"I","url":null,"broadband_type_id":null}
{"id":null,"anchorname":"OAKLEAF PSYCHIATRIC GROUP","address":"11590 N MERIDIAN ST # 170","bldgnbr":"BLDGNUMBER","predir":null,"streetname":"STREETNAME","streettype":null,"suffdir":null,"city":"CARMEL","state_code":"IN","zip5":"46032","latitude":"39.9550318540000000","longitude":"-86.157987552000000","publicwifi":"I","url":null,"broadband_type_id":null}
{"id":null,"anchorname":"MERIDIAN PLASTIC SURGERY CTR","address":"170 W 106TH ST","bldgnbr":"BLDGNUMBER","predir":null,"streetname":"STREETNAME","streettype":null,"suffdir":null,"city":"INDIANAPOLIS","state_code":"IN","zip5":"46290","latitude":"39.9416734610000000","longitude":"-86.161246881000000","publicwifi":"I","url":null,"broadband_type_id":null}
{"id":null,"anchorname":"LITTLE STAR CTR","address":"12726 HAMILTON CROSSING BLVD","bldgnbr":"BLDGNUMBER","predir":null,"streetname":"STREETNAME","streettype":null,"suffdir":null,"city":"CARMEL","state_code":"IN","zip5":"46032","latitude":"39.9762861310000000","longitude":"-86.160530025000000","publicwifi":"N","url":null,"broadband_type_id":null}
{"id":null,"anchorname":"SOLLIEVO","address":"12400 N MERIDIAN ST # 170","bldgnbr":"BLDGNUMBER","predir":null,"streetname":"STREETNAME","streettype":null,"suffdir":null,"city":"CARMEL","state_code":"IN","zip5":"46032","latitude":"39.9690800520000000","longitude":"-86.158457533000000","publicwifi":"I","url":null,"broadband_type_id":null}
{"id":null,"anchorname":"GODDARD SCHOOL","address":"11479 FISHERS POINT BLVD","bldgnbr":"BLDGNUMBER","predir":null,"streetname":"STREETNAME","streettype":null,"suffdir":null,"city":"FISHERS","state_code":"IN","zip5":"46038","latitude":"39.9542946910000000","longitude":"-86.021175277000000","publicwifi":"N","url":null,"broadband_type_id":6}
{"id":null,"anchorname":"RIVERSIDE INTERMEDIATE SCHOOL","address":"11014 ELLER RD","bldgnbr":"BLDGNUMBER","predir":null,"streetname":"STREETNAME","streettype":null,"suffdir":null,"city":"FISHERS","state_code":"IN","zip5":"46038","latitude":"39.9462073890000000","longitude":"-86.060243669000000","publicwifi":"N","url":null,"broadband_type_id":6}
{"id":null,"anchorname":"FISHERS MONTESSORI SCHOOLS INC","address":"PO BOX 615","bldgnbr":"BLDGNUMBER","predir":null,"streetname":"STREETNAME","streettype":null,"suffdir":null,"city":"FISHERS","state_code":"IN","zip5":"46038","latitude":"39.9678767380000000","longitude":"-86.017351410000000","publicwifi":"N","url":null,"broadband_type_id":6}
{"id":null,"anchorname":"EMAN SCHOOL, INC.","address":"12201 LANTERN RD","bldgnbr":"BLDGNUMBER","predir":null,"streetname":"STREETNAME","streettype":null,"suffdir":null,"city":"FISHERS","state_code":"IN","zip5":"46038","latitude":"39.9649347560000000","longitude":"-86.013938593000000","publicwifi":"N","url":null,"broadband_type_id":6}
{"id":null,"anchorname":"FISHERS FIRE STATION 91","address":"2 MUNICIPAL DR","bldgnbr":"BLDGNUMBER","predir":null,"streetname":"STREETNAME","streettype":null,"suffdir":null,"city":"FISHERS","state_code":"IN","zip5":"46038","latitude":"39.9595679880000000","longitude":"-86.018265150000000","publicwifi":"Y","url":null,"broadband_type_id":5}
{"id":null,"anchorname":"FISHERS POLICE DEPT","address":"4 MUNICIPAL DR","bldgnbr":"BLDGNUMBER","predir":null,"streetname":"STREETNAME","streettype":null,"suffdir":null,"city":"FISHERS","state_code":"IN","zip5":"46038","latitude":"39.9606423050000000","longitude":"-86.016963272000000","publicwifi":"I","url":null,"broadband_type_id":4}
{"id":null,"anchorname":"FISHERS POLICE DEPT ADMIN","address":"4 MUNICIPAL DR","bldgnbr":"BLDGNUMBER","predir":null,"streetname":"STREETNAME","streettype":null,"suffdir":null,"city":"FISHERS","state_code":"IN","zip5":"46038","latitude":"39.9606423050000000","longitude":"-86.016963272000000","publicwifi":"N","url":null,"broadband_type_id":4}
{"id":null,"anchorname":"CARMEL HIGH SCHOOL","address":"520 EAST MAIN ST","bldgnbr":"BLDGNUMBER","predir":null,"streetname":"STREETNAME","streettype":null,"suffdir":null,"city":"CARMEL","state_code":"IN","zip5":"46032","latitude":"39.9783184340000000","longitude":"-86.133921471000000","publicwifi":"N","url":null,"broadband_type_id":6}
{"id":null,"anchorname":"ADVANCED MIGRAINE CARE PC","address":"13430 N MERIDIAN ST","bldgnbr":"BLDGNUMBER","predir":null,"streetname":"STREETNAME","streettype":null,"suffdir":null,"city":"CARMEL","state_code":"IN","zip5":"46032","latitude":"39.9832157540000000","longitude":"-86.147730563000000","publicwifi":"I","url":null,"broadband_type_id":3}
{"id":null,"anchorname":"INDIANA HEALTH CAREERS","address":"13738 OAKRIDGE RD","bldgnbr":"BLDGNUMBER","predir":null,"streetname":"STREETNAME","streettype":null,"suffdir":null,"city":"CARMEL","state_code":"IN","zip5":"46032","latitude":"39.9876311440000000","longitude":"-86.145863054000000","publicwifi":"I","url":null,"broadband_type_id":3}
{"id":null,"anchorname":"TRINITY FREE CLINIC","address":"14598 OAKRIDGE RD","bldgnbr":"BLDGNUMBER","predir":null,"streetname":"STREETNAME","streettype":null,"suffdir":null,"city":"CARMEL","state_code":"IN","zip5":"46032","latitude":"40.0002037660000000","longitude":"-86.145899463000000","publicwifi":"I","url":null,"broadband_type_id":3}
{"id":null,"anchorname":"OUR LADY OF MT CARMEL SCHOOL","address":"14596 OAKRIDGE RD","bldgnbr":"BLDGNUMBER","predir":null,"streetname":"STREETNAME","streettype":null,"suffdir":null,"city":"CARMEL","state_code":"IN","zip5":"46032","latitude":"40.0001570040000000","longitude":"-86.145899118000000","publicwifi":"N","url":null,"broadband_type_id":6}
{"id":null,"anchorname":"CLAY MIDDLE SCHOOL","address":"5150 EAST 126TH ST","bldgnbr":"BLDGNUMBER","predir":null,"streetname":"STREETNAME","streettype":null,"suffdir":null,"city":"CARMEL","state_code":"IN","zip5":"46033","latitude":"39.9712350160000000","longitude":"-86.082622561000000","publicwifi":"N","url":null,"broadband_type_id":6}
{"id":null,"anchorname":"CHERRY TREE ELEMENTARY SCHOOL","address":"13989 HAZELDELL","bldgnbr":"BLDGNUMBER","predir":null,"streetname":"STREETNAME","streettype":null,"suffdir":null,"city":"CARMEL","state_code":"IN","zip5":"46033","latitude":"39.9919563040000000","longitude":"-86.070324505000000","publicwifi":"N","url":null,"broadband_type_id":6}
{"id":null,"anchorname":"MINUTE CLINIC","address":"13090 PETTIGRU ST","bldgnbr":"BLDGNUMBER","predir":null,"streetname":"STREETNAME","streettype":null,"suffdir":null,"city":"CARMEL","state_code":"IN","zip5":"46032","latitude":"39.9772301580000000","longitude":"-86.205250717000000","publicwifi":"I","url":null,"broadband_type_id":3}
{"id":null,"anchorname":"COLLEGE WOOD ELEMENTARY SCH","address":"12415 SHELBORNE RD","bldgnbr":"BLDGNUMBER","predir":null,"streetname":"STREETNAME","streettype":null,"suffdir":null,"city":"CARMEL","state_code":"IN","zip5":"46032","latitude":"39.9652122100000000","longitude":"-86.221429497000000","publicwifi":"N","url":null,"broadband_type_id":6}
{"id":null,"anchorname":"CREEKSIDE MIDDLE SCHOOL","address":"3525 WEST 126TH ST","bldgnbr":"BLDGNUMBER","predir":null,"streetname":"STREETNAME","streettype":null,"suffdir":null,"city":"CARMEL","state_code":"IN","zip5":"46032","latitude":"39.9699149550000000","longitude":"-86.219007290000000","publicwifi":"N","url":null,"broadband_type_id":6}
{"id":null,"anchorname":"UNIVERSITY HIGH SCHOOL OF INDIANA","address":"2825 W 116TH ST","bldgnbr":"BLDGNUMBER","predir":null,"streetname":"STREETNAME","streettype":null,"suffdir":null,"city":"CARMEL","state_code":"IN","zip5":"46032","latitude":"39.9555835280000000","longitude":"-86.212019942000000","publicwifi":"N","url":null,"broadband_type_id":6}
{"id":null,"anchorname":"HEALTHPOINTE IMMEDIATE CARE","address":"12050 N MICHIGAN RD","bldgnbr":"BLDGNUMBER","predir":null,"streetname":"STREETNAME","streettype":null,"suffdir":null,"city":"ZIONSVILLE","state_code":"IN","zip5":"46077","latitude":"39.9500838420000000","longitude":"-86.240711124000000","publicwifi":"I","url":null,"broadband_type_id":3}
{"id":null,"anchorname":"CARMEL FIRE DEPT","address":"3610 W 106TH ST","bldgnbr":"BLDGNUMBER","predir":null,"streetname":"STREETNAME","streettype":null,"suffdir":null,"city":"CARMEL","state_code":"IN","zip5":"46032","latitude":"39.9410029130000000","longitude":"-86.222811555000000","publicwifi":"I","url":null,"broadband_type_id":5}
{"id":null,"anchorname":"SOLIS WOMEN'S HEALTH","address":"11450 N MERIDIAN # 100","bldgnbr":"BLDGNUMBER","predir":null,"streetname":"STREETNAME","streettype":null,"suffdir":null,"city":"CARMEL","state_code":"IN","zip5":"46032","latitude":"39.9530791610000000","longitude":"-86.157982818000000","publicwifi":"I","url":null,"broadband_type_id":3}
{"id":null,"anchorname":"CLARIAN NORTH MEDICAL CENTER","address":"11700 N MERIDIAN ST","bldgnbr":"BLDGNUMBER","predir":null,"streetname":"STREETNAME","streettype":null,"suffdir":null,"city":"CARMEL","state_code":"IN","zip5":"46032","latitude":"39.9616129860000000","longitude":"-86.158001480000000","publicwifi":"Y","url":"AT \u0026 T","broadband_type_id":3}
{"id":null,"anchorname":"ST. VINCENT HEART CENTER OF INDIANA LLC","address":"10580 N. MERIDIAN STREET","bldgnbr":"BLDGNUMBER","predir":null,"streetname":"STREETNAME","streettype":null,"suffdir":null,"city":"INDIANAPOLIS","state_code":"IN","zip5":"46290","latitude":"39.9411547150000000","longitude":"-86.157955506000000","publicwifi":"I","url":null,"broadband_type_id":3}
{"id":null,"anchorname":"CHIRO-WELLNESS MOBILE SERVICES INC","address":"2097 W 76TH ST STE B, HIALEAH, FL, 33016","bldgnbr":"2097","predir":"W","streetname":"76TH","streettype":"ST","suffdir":"STE B","city":"HIALEAH","state_code":"FL","zip5":"33016","latitude":"25.8915700000000000","longitude":"-80.326191000000000","publicwifi":"U","url":"0","broadband_type_id":6}
{"id":null,"anchorname":"PHYSIOTHERAPY ASSOCIATES","address":"10601 N MERIDIAN ST # 110","bldgnbr":"BLDGNUMBER","predir":null,"streetname":"STREETNAME","streettype":null,"suffdir":null,"city":"INDIANAPOLIS","state_code":"IN","zip5":"46290","latitude":"39.9421960560000000","longitude":"-86.157506076000000","publicwifi":"N","url":null,"broadband_type_id":6}
{"id":null,"anchorname":"ST JUDE CHILDRENS RESEARCH","address":"755 W CARMEL DR # 201","bldgnbr":"BLDGNUMBER","predir":null,"streetname":"STREETNAME","streettype":null,"suffdir":null,"city":"CARMEL","state_code":"IN","zip5":"46032","latitude":"39.9657974990000000","longitude":"-86.144096815000000","publicwifi":"N","url":null,"broadband_type_id":6}
{"id":null,"anchorname":"PREFERRED DISABILITY MGMT","address":"11711 N MERIDIAN ST # 760","bldgnbr":"BLDGNUMBER","predir":null,"streetname":"STREETNAME","streettype":null,"suffdir":null,"city":"CARMEL","state_code":"IN","zip5":"46032","latitude":"39.9591112590000000","longitude":"-86.157567221000000","publicwifi":"N","url":null,"broadband_type_id":6}
{"id":null,"anchorname":"MIDWEST ACADEMY OF INDIANA","address":"801 CONGRESSIONAL BLVD","bldgnbr":"BLDGNUMBER","predir":null,"streetname":"STREETNAME","streettype":null,"suffdir":null,"city":"CARMEL","state_code":"IN","zip5":"46032","latitude":"39.9642114820000000","longitude":"-86.146304215000000","publicwifi":"N","url":null,"broadband_type_id":6}
{"id":null,"anchorname":"DECISION SUPPORT TECHNOLOGY","address":"11711 N COLLEGE AVE # 160","bldgnbr":"BLDGNUMBER","predir":null,"streetname":"STREETNAME","streettype":null,"suffdir":null,"city":"CARMEL","state_code":"IN","zip5":"46032","latitude":"39.9591062070000000","longitude":"-86.145873749000000","publicwifi":"I","url":null,"broadband_type_id":6}
{"id":null,"anchorname":"ROAD DOG EXPRESS","address":"9628 DAY DR","bldgnbr":"BLDGNUMBER","predir":null,"streetname":"STREETNAME","streettype":null,"suffdir":null,"city":"INDIANAPOLIS","state_code":"IN","zip5":"46280","latitude":"39.9274826170000000","longitude":"-86.114714872000000","publicwifi":"I","url":null,"broadband_type_id":6}
{"id":null,"anchorname":"UPS STORE","address":"484 E CARMEL DR","bldgnbr":"BLDGNUMBER","predir":null,"streetname":"STREETNAME","streettype":null,"suffdir":null,"city":"CARMEL","state_code":"IN","zip5":"46032","latitude":"39.9620737460000000","longitude":"-86.118305498000000","publicwifi":"N","url":null,"broadband_type_id":null}
{"id":null,"anchorname":"ARROW CONSULTATION SVC","address":"981 KEYSTONE WAY","bldgnbr":"BLDGNUMBER","predir":null,"streetname":"STREETNAME","streettype":null,"suffdir":null,"city":"CARMEL","state_code":"IN","zip5":"46032","latitude":"39.9626195140000000","longitude":"-86.114781609000000","publicwifi":"I","url":null,"broadband_type_id":null}
{"id":null,"anchorname":"ALCOHOL \u0026 DRUG REHAB HELPLINE","address":"484 E CARMEL DR","bldgnbr":"BLDGNUMBER","predir":null,"streetname":"STREETNAME","streettype":null,"suffdir":null,"city":"CARMEL","state_code":"IN","zip5":"46032","latitude":"39.9620737460000000","longitude":"-86.118305498000000","publicwifi":"I","url":null,"broadband_type_id":null}
{"id":null,"anchorname":"US POST OFFICE","address":"275 MEDICAL DR","bldgnbr":"BLDGNUMBER","predir":null,"streetname":"STREETNAME","streettype":null,"suffdir":null,"city":"CARMEL","state_code":"IN","zip5":"46032","latitude":"39.9592903750000000","longitude":"-86.120218813000000","publicwifi":"I","url":null,"broadband_type_id":null}
{"id":null,"anchorname":"PERFORMANCE VOICE SOLUTIONS","address":"12065 OLD MERIDIAN ST # 255","bldgnbr":"BLDGNUMBER","predir":null,"streetname":"STREETNAME","streettype":null,"suffdir":null,"city":"CARMEL","state_code":"IN","zip5":"46032","latitude":"39.9665417240000000","longitude":"-86.156348167000000","publicwifi":"I","url":null,"broadband_type_id":null}
{"id":null,"anchorname":"PROVIDENCE OF OLD MERIDIAN","address":"235 PROVIDENCE BLVD","bldgnbr":"BLDGNUMBER","predir":null,"streetname":"STREETNAME","streettype":null,"suffdir":null,"city":"CARMEL","state_code":"IN","zip5":"46032","latitude":"39.9719287830000000","longitude":"-86.149189436000000","publicwifi":"Y","url":null,"broadband_type_id":null}
{"id":null,"anchorname":"WOODBROOK ELEMENTARY SCHOOL","address":"4311 EAST 116TH ST","bldgnbr":"BLDGNUMBER","predir":null,"streetname":"STREETNAME","streettype":null,"suffdir":null,"city":"CARMEL","state_code":"IN","zip5":"46033","latitude":"39.9566058890000000","longitude":"-86.092596227000000","publicwifi":"N","url":null,"broadband_type_id":6}
{"id":null,"anchorname":"US HEALTH SVC CORP","address":"10689 N PENNSYLVANIA ST","bldgnbr":"BLDGNUMBER","predir":null,"streetname":"STREETNAME","streettype":null,"suffdir":null,"city":"INDIANAPOLIS","state_code":"IN","zip5":"46280","latitude":"39.9454860030000000","longitude":"-86.155453393000000","publicwifi":"I","url":null,"broadband_type_id":3}
{"id":null,"anchorname":"PETER RABBIT NURSERY SCHOOL","address":"10837 N COLLEGE AVE","bldgnbr":"BLDGNUMBER","predir":null,"streetname":"STREETNAME","streettype":null,"suffdir":null,"city":"INDIANAPOLIS","state_code":"IN","zip5":"46280","latitude":"39.9449411190000000","longitude":"-86.145884968000000","publicwifi":"N","url":null,"broadband_type_id":3}
{"id":null,"anchorname":"CARMEL FIRE DEPT","address":"10701 N COLLEGE AVE","bldgnbr":"BLDGNUMBER","predir":null,"streetname":"STREETNAME","streettype":null,"suffdir":null,"city":"INDIANAPOLIS","state_code":"IN","zip5":"46280","latitude":"39.9430184160000000","longitude":"-86.145853033000000","publicwifi":"N","url":null,"broadband_type_id":5}
{"id":null,"anchorname":"TAKE CARE CLINIC","address":"1215 S RANGE LINE RD","bldgnbr":"BLDGNUMBER","predir":null,"streetname":"STREETNAME","streettype":null,"suffdir":null,"city":"CARMEL","state_code":"IN","zip5":"46032","latitude":"39.9633228970000000","longitude":"-86.126828123000000","publicwifi":"I","url":null,"broadband_type_id":3}
{"id":null,"anchorname":"CARMEL HEALTH \u0026 LIVING COMM","address":"118 MEDICAL DR","bldgnbr":"BLDGNUMBER","predir":null,"streetname":"STREETNAME","streettype":null,"suffdir":null,"city":"CARMEL","state_code":"IN","zip5":"46032","latitude":"39.9585540040000000","longitude":"-86.123955822000000","publicwifi":"I","url":null,"broadband_type_id":3}
{"id":null,"anchorname":"CARMEL MONTESSORI SCHOOLS INC","address":"PO BOX 724","bldgnbr":"BLDGNUMBER","predir":null,"streetname":"STREETNAME","streettype":null,"suffdir":null,"city":"CARMEL","state_code":"IN","zip5":"46082","latitude":"39.9592176200000000","longitude":"-86.120348240000000","publicwifi":"N","url":null,"broadband_type_id":6}
{"id":null,"anchorname":"PJS COLLEGE OF COSMETOLOGY INC","address":"931 S RANGE LINE RD","bldgnbr":"BLDGNUMBER","predir":null,"streetname":"STREETNAME","streettype":null,"suffdir":null,"city":"CARMEL","state_code":"IN","zip5":"46032","latitude":"39.9672372650000000","longitude":"-86.126893338000000","publicwifi":"N","url":null,"broadband_type_id":6}
{"id":null,"anchorname":"CARMEL ELEMENTARY SCHOOL","address":"101 4TH AVE SE","bldgnbr":"BLDGNUMBER","predir":null,"streetname":"STREETNAME","streettype":null,"suffdir":null,"city":"CARMEL","state_code":"IN","zip5":"46032","latitude":"39.9773112910000000","longitude":"-86.122547431000000","publicwifi":"N","url":null,"broadband_type_id":6}
{"id":null,"anchorname":"CARMEL CLAY PUBLIC LIBRARY","address":"55 4TH AVENUE SE","bldgnbr":"BLDGNUMBER","predir":null,"streetname":"STREETNAME","streettype":null,"suffdir":null,"city":"CARMEL","state_code":"IN","zip5":"99999","latitude":"39.9773509420000000","longitude":"-86.122584541000000","publicwifi":"N","url":null,"broadband_type_id":6}
{"id":null,"anchorname":"CARMEL MIDDLE SCHOOL","address":"300 SOUTH GUILFORD RD","bldgnbr":"BLDGNUMBER","predir":null,"streetname":"STREETNAME","streettype":null,"suffdir":null,"city":"CARMEL","state_code":"IN","zip5":"46032","latitude":"39.9746330130000000","longitude":"-86.141134481000000","publicwifi":"N","url":null,"broadband_type_id":6}
{"id":null,"anchorname":"MOSAICS SCHOOL","address":"400 SOUTH GUILFORD RD","bldgnbr":"BLDGNUMBER","predir":null,"streetname":"STREETNAME","streettype":null,"suffdir":null,"city":"CARMEL","state_code":"IN","zip5":"46032","latitude":"39.9737278750000000","longitude":"-86.141141107000000","publicwifi":"N","url":null,"broadband_type_id":6}
{"id":null,"anchorname":"PRO SCAN MEDICAL IMAGING","address":"1185 W CARMEL DR # D1","bldgnbr":"BLDGNUMBER","predir":null,"streetname":"STREETNAME","streettype":null,"suffdir":null,"city":"CARMEL","state_code":"IN","zip5":"46032","latitude":"39.9699186870000000","longitude":"-86.150251649000000","publicwifi":"I","url":null,"broadband_type_id":3}
{"id":null,"anchorname":"CARMEL CLINIC","address":"12425 OLD MERIDIAN ST # B2","bldgnbr":"BLDGNUMBER","predir":null,"streetname":"STREETNAME","streettype":null,"suffdir":null,"city":"CARMEL","state_code":"IN","zip5":"46032","latitude":"39.9692995010000000","longitude":"-86.153785977000000","publicwifi":"I","url":null,"broadband_type_id":3}
{"id":null,"anchorname":"ST VINCENT HOSPITAL \u0026 HEALTH","address":"755 W CARMEL DR # 105","bldgnbr":"BLDGNUMBER","predir":null,"streetname":"STREETNAME","streettype":null,"suffdir":null,"city":"CARMEL","state_code":"IN","zip5":"46032","latitude":"39.9657974990000000","longitude":"-86.144096815000000","publicwifi":"I","url":null,"broadband_type_id":3}
{"id":null,"anchorname":"UNITED HEALTH ACTUARIAL SVC","address":"11611 N MERIDIAN ST # 330","bldgnbr":"BLDGNUMBER","predir":null,"streetname":"STREETNAME","streettype":null,"suffdir":null,"city":"CARMEL","state_code":"IN","zip5":"46032","latitude":"39.9573263750000000","longitude":"-86.157564695000000","publicwifi":"I","url":null,"broadband_type_id":3}
{"id":null,"anchorname":"OPTIONS CHARTER SCHOOL - CARMEL","address":"530 WEST CARMEL DR","bldgnbr":"BLDGNUMBER","predir":null,"streetname":"STREETNAME","streettype":null,"suffdir":null,"city":"CARMEL","state_code":"IN","zip5":"46032","latitude":"39.9628351100000000","longitude":"-86.136755992000000","publicwifi":"N","url":null,"broadband_type_id":6}
{"id":null,"anchorname":"CARMEL FIRE DEPT","address":"2 CIVIC SQ","bldgnbr":"BLDGNUMBER","predir":null,"streetname":"STREETNAME","streettype":null,"suffdir":null,"city":"CARMEL","state_code":"IN","zip5":"46032","latitude":"39.9663884380000000","longitude":"-86.129051564000000","publicwifi":"Y","url":null,"broadband_type_id":5}
{"id":null,"anchorname":"CARMEL CITY OF POLICE NON-EMER","address":"3 CIVIC SQUARE","bldgnbr":"BLDGNUMBER","predir":null,"streetname":"STREETNAME","streettype":null,"suffdir":null,"city":"CARMEL","state_code":"IN","zip5":"46032","latitude":"39.9663884380000000","longitude":"-86.129042390000000","publicwifi":"I","url":null,"broadband_type_id":4}
{"id":null,"anchorname":"CARMEL POLICE DEPT","address":"3 CIVIC SQ","bldgnbr":"BLDGNUMBER","predir":null,"streetname":"STREETNAME","streettype":null,"suffdir":null,"city":"CARMEL","state_code":"IN","zip5":"46032","latitude":"39.9663884380000000","longitude":"-86.129042390000000","publicwifi":"N","url":null,"broadband_type_id":4}
{"id":null,"anchorname":"STRATEGIC HEALTHCARE","address":"9765 RANDALL DR # D","bldgnbr":"BLDGNUMBER","predir":null,"streetname":"STREETNAME","streettype":null,"suffdir":null,"city":"INDIANAPOLIS","state_code":"IN","zip5":"46280","latitude":"39.9292397420000000","longitude":"-86.095754227000000","publicwifi":"I","url":null,"broadband_type_id":3}
{"id":null,"anchorname":"ORCHARD PARK ELEMENTARY SCH","address":"10404 ORCHARD PARK SOUTH DR","bldgnbr":"BLDGNUMBER","predir":null,"streetname":"STREETNAME","streettype":null,"suffdir":null,"city":"INDIANAPOLIS","state_code":"IN","zip5":"46280","latitude":"39.9385072990000000","longitude":"-86.131548813000000","publicwifi":"N","url":null,"broadband_type_id":2}
{"id":null,"anchorname":"RENAL CARE GROUP NORTH","address":"10585 N MERIDIAN ST # 160","bldgnbr":"BLDGNUMBER","predir":null,"streetname":"STREETNAME","streettype":null,"suffdir":null,"city":"INDIANAPOLIS","state_code":"IN","zip5":"46290","latitude":"39.9412242400000000","longitude":"-86.157497935000000","publicwifi":"I","url":null,"broadband_type_id":3}
{"id":null,"anchorname":"CIRCLE HEALTH PARTNERS","address":"450 E 96TH ST","bldgnbr":"BLDGNUMBER","predir":null,"streetname":"STREETNAME","streettype":null,"suffdir":null,"city":"INDIANAPOLIS","state_code":"IN","zip5":"46240","latitude":"39.9271703550000000","longitude":"-86.150258047000000","publicwifi":"I","url":null,"broadband_type_id":3}
{"id":null,"anchorname":"IN CONNECTIONS ACAD VIRTUAL PILOT","address":"450 EAST 96TH ST","bldgnbr":"BLDGNUMBER","predir":null,"streetname":"STREETNAME","streettype":null,"suffdir":null,"city":"INDIANAPOLIS","state_code":"IN","zip5":"46240","latitude":"39.9271703550000000","longitude":"-86.150258047000000","publicwifi":"N","url":null,"broadband_type_id":null}
{"id":null,"anchorname":"NAVIGANT CONSULTING INC","address":"250 E 96TH ST # 415","bldgnbr":"BLDGNUMBER","predir":null,"streetname":"STREETNAME","streettype":null,"suffdir":null,"city":"INDIANAPOLIS","state_code":"IN","zip5":"46240","latitude":"39.9271234510000000","longitude":"-86.153028814000000","publicwifi":"N","url":null,"broadband_type_id":null}
{"id":null,"anchorname":"CHILDREN'S THERAPLAY","address":"9919 TOWNE RD","bldgnbr":"BLDGNUMBER","predir":null,"streetname":"STREETNAME","streettype":null,"suffdir":null,"city":"CARMEL","state_code":"IN","zip5":"46032","latitude":"39.9322606580000000","longitude":"-86.203012408000000","publicwifi":"I","url":null,"broadband_type_id":null}
{"id":null,"anchorname":"KINGEN INTERSTATE EXPRESS INC","address":"2236 E 1000 N","bldgnbr":"BLDGNUMBER","predir":null,"streetname":"STREETNAME","streettype":null,"suffdir":null,"city":"PENDLETON","state_code":"IN","zip5":"46064","latitude":"39.9302922710000000","longitude":"-85.765442408000000","publicwifi":"N","url":null,"broadband_type_id":6}
{"id":null,"anchorname":"US POST OFFICE","address":"330 MAIN ST","bldgnbr":"BLDGNUMBER","predir":null,"streetname":"STREETNAME","streettype":null,"suffdir":null,"city":"SHIRLEY","state_code":"IN","zip5":"47384","latitude":"39.8911337870000000","longitude":"-85.576712479000000","publicwifi":"N","url":"COMCAST","broadband_type_id":null}
{"id":null,"anchorname":"US POST OFFICE","address":"145 S MAIN ST","bldgnbr":"BLDGNUMBER","predir":null,"streetname":"STREETNAME","streettype":null,"suffdir":null,"city":"WILKINSON","state_code":"IN","zip5":"46186","latitude":"39.8858694590000000","longitude":"-85.608452887000000","publicwifi":"I","url":null,"broadband_type_id":null}
{"id":null,"anchorname":"HANCOCK-SOUTH MADISON JOINT SRVS","address":"1834 FIELDS BLVD","bldgnbr":"BLDGNUMBER","predir":null,"streetname":"STREETNAME","streettype":null,"suffdir":null,"city":"GREENFIELD","state_code":"IN","zip5":"46140","latitude":"39.8116590630000000","longitude":"-85.773554165000000","publicwifi":"N","url":null,"broadband_type_id":6}
{"id":null,"anchorname":"HANCOCK COUNTY EMPLOYMENT","address":"836 S STATE ST","bldgnbr":"BLDGNUMBER","predir":null,"streetname":"STREETNAME","streettype":null,"suffdir":null,"city":"GREENFIELD","state_code":"IN","zip5":"46140","latitude":"39.7763988430000000","longitude":"-85.767644333000000","publicwifi":"I","url":null,"broadband_type_id":1}
{"id":null,"anchorname":"WORK FORCE INDIANA EMPLOYMENT","address":"836 S STATE ST","bldgnbr":"BLDGNUMBER","predir":null,"streetname":"STREETNAME","streettype":null,"suffdir":null,"city":"GREENFIELD","state_code":"IN","zip5":"46140","latitude":"39.7763988430000000","longitude":"-85.767644333000000","publicwifi":"I","url":null,"broadband_type_id":4}
{"id":null,"anchorname":"SHARES INC","address":"645 S STATE ST","bldgnbr":"BLDGNUMBER","predir":null,"streetname":"STREETNAME","streettype":null,"suffdir":null,"city":"GREENFIELD","state_code":"IN","zip5":"46140","latitude":"39.7781871230000000","longitude":"-85.768120997000000","publicwifi":"I","url":null,"broadband_type_id":6}
{"id":null,"anchorname":"HANCOCK COUNTY CHILD SUPPORT","address":"27 AMERICAN LEGION PL","bldgnbr":"BLDGNUMBER","predir":null,"streetname":"STREETNAME","streettype":null,"suffdir":null,"city":"GREENFIELD","state_code":"IN","zip5":"46140","latitude":"39.7850376700000000","longitude":"-85.768327621000000","publicwifi":"I","url":null,"broadband_type_id":1}
{"id":null,"anchorname":"THE RESIDENT HOME","address":"3030 W FORK RD CINCINNATI, OH 45239","bldgnbr":"3030","predir":null,"streetname":"W FORK RD","streettype":null,"suffdir":null,"city":"CINCINNATI","state_code":"OH","zip5":"45239","latitude":"39.1812400000000000","longitude":"-84.588560000000000","publicwifi":"U","url":null,"broadband_type_id":6}
{"id":null,"anchorname":"US POST OFFICE","address":"6045 W BROADWAY","bldgnbr":"BLDGNUMBER","predir":null,"streetname":"STREETNAME","streettype":null,"suffdir":null,"city":"MC CORDSVILLE","state_code":"IN","zip5":"46055","latitude":"39.8955380690000000","longitude":"-85.919627660000000","publicwifi":"I","url":null,"broadband_type_id":null}
{"id":null,"anchorname":"US POST OFFICE","address":"7397 N 600 W # 1000","bldgnbr":"BLDGNUMBER","predir":null,"streetname":"STREETNAME","streettype":null,"suffdir":null,"city":"MC CORDSVILLE","state_code":"IN","zip5":"46055","latitude":"39.8900611190000000","longitude":"-85.919004522000000","publicwifi":"I","url":null,"broadband_type_id":null}
{"id":null,"anchorname":"FIRST CHURCH-GOD","address":"700 NORTH BROADWAY","bldgnbr":"BLDGNUMBER","predir":null,"streetname":"STREETNAME","streettype":null,"suffdir":null,"city":"GREENFIELD","state_code":"IN","zip5":"46140","latitude":"39.7902085900000000","longitude":"-85.779450893000000","publicwifi":"N","url":"NINE STAR CONNECT","broadband_type_id":null}
{"id":null,"anchorname":"REGENCY PLACE-GREENFIELD","address":"200 W GREEN MEADOWS DR","bldgnbr":"BLDGNUMBER","predir":null,"streetname":"STREETNAME","streettype":null,"suffdir":null,"city":"GREENFIELD","state_code":"IN","zip5":"46140","latitude":"39.8044261540000000","longitude":"-85.772030462000000","publicwifi":"Y","url":null,"broadband_type_id":null}
{"id":null,"anchorname":"GREEN TOWNSHIP FIRE DEPT","address":"8031 N STATE ROAD 9","bldgnbr":"BLDGNUMBER","predir":null,"streetname":"STREETNAME","streettype":null,"suffdir":null,"city":"GREENFIELD","state_code":"IN","zip5":"46140","latitude":"39.9015582520000000","longitude":"-85.770626932000000","publicwifi":"I","url":null,"broadband_type_id":5}
{"id":null,"anchorname":"EDEN ELEMENTARY SCHOOL","address":"8185 NORTH SR 9","bldgnbr":"BLDGNUMBER","predir":null,"streetname":"STREETNAME","streettype":null,"suffdir":null,"city":"GREENFIELD","state_code":"IN","zip5":"46140","latitude":"39.9036418390000000","longitude":"-85.770643475000000","publicwifi":"N","url":null,"broadband_type_id":6}
{"id":null,"anchorname":"FIRE DEPT","address":"714 E BROADWAY ST","bldgnbr":"BLDGNUMBER","predir":null,"streetname":"STREETNAME","streettype":null,"suffdir":null,"city":"FORTVILLE","state_code":"IN","zip5":"46040","latitude":"39.9352771330000000","longitude":"-85.841177591000000","publicwifi":"I","url":null,"broadband_type_id":5}
{"id":null,"anchorname":"FORTVILLE POLICE DEPT FOR NON-","address":"714 E BROADWAY ST","bldgnbr":"BLDGNUMBER","predir":null,"streetname":"STREETNAME","streettype":null,"suffdir":null,"city":"FORTVILLE","state_code":"IN","zip5":"46040","latitude":"39.9352771330000000","longitude":"-85.841177591000000","publicwifi":"I","url":null,"broadband_type_id":4}
{"id":null,"anchorname":"FORTVILLE-VERNON TOWNSHIP PUBLIC LIBRARY","address":"625 EAST BROADWAY","bldgnbr":"BLDGNUMBER","predir":null,"streetname":"STREETNAME","streettype":null,"suffdir":null,"city":"FORTVILLE","state_code":"IN","zip5":"99999","latitude":"39.9340564410000000","longitude":"-85.842912338000000","publicwifi":"N","url":null,"broadband_type_id":6}
{"id":null,"anchorname":"FORTVILLE ELEMENTARY SCHOOL","address":"1806 WEST SR 234","bldgnbr":"BLDGNUMBER","predir":null,"streetname":"STREETNAME","streettype":null,"suffdir":null,"city":"FORTVILLE","state_code":"IN","zip5":"46040","latitude":"39.9002452730000000","longitude":"-85.839718477000000","publicwifi":"N","url":null,"broadband_type_id":6}
{"id":null,"anchorname":"MT VERNON HIGH SCHOOL","address":"8112 NORTH 200 WEST","bldgnbr":"BLDGNUMBER","predir":null,"streetname":"STREETNAME","streettype":null,"suffdir":null,"city":"FORTVILLE","state_code":"IN","zip5":"46040","latitude":"39.9019254270000000","longitude":"-85.843282312000000","publicwifi":"N","url":null,"broadband_type_id":6}
{"id":null,"anchorname":"MT VERNON INTERMEDIATE SCHOOL","address":"8414 NORTH 200 WEST","bldgnbr":"BLDGNUMBER","predir":null,"streetname":"STREETNAME","streettype":null,"suffdir":null,"city":"FORTVILLE","state_code":"IN","zip5":"46040","latitude":"39.9060780970000000","longitude":"-85.843332235000000","publicwifi":"N","url":null,"broadband_type_id":6}
{"id":null,"anchorname":"MT VERNON MIDDLE SCHOOL","address":"1862 WEST SR 234","bldgnbr":"BLDGNUMBER","predir":null,"streetname":"STREETNAME","streettype":null,"suffdir":null,"city":"FORTVILLE","state_code":"IN","zip5":"46040","latitude":"39.9002157270000000","longitude":"-85.841792679000000","publicwifi":"N","url":null,"broadband_type_id":6}
{"id":null,"anchorname":"REHAB CARE GROUP","address":"6459 HIGHLAND LN","bldgnbr":"BLDGNUMBER","predir":null,"streetname":"STREETNAME","streettype":null,"suffdir":null,"city":"MC CORDSVILLE","state_code":"IN","zip5":"46055","latitude":"39.9209602710000000","longitude":"-85.926453963000000","publicwifi":"I","url":null,"broadband_type_id":3}
{"id":null,"anchorname":"GEIST MONTESSORI SCHOOL","address":"6633 W 900 N","bldgnbr":"BLDGNUMBER","predir":null,"streetname":"STREETNAME","streettype":null,"suffdir":null,"city":"MC CORDSVILLE","state_code":"IN","zip5":"46055","latitude":"39.9131006260000000","longitude":"-85.931015150000000","publicwifi":"N","url":null,"broadband_type_id":6}
{"id":null,"anchorname":"MCCORDSVILLE ELEMENTARY SCHOOL","address":"7177 NORTH 600 WEST","bldgnbr":"BLDGNUMBER","predir":null,"streetname":"STREETNAME","streettype":null,"suffdir":null,"city":"MCCORDSVILLE","state_code":"IN","zip5":"46055","latitude":"39.8870911790000000","longitude":"-85.918983959000000","publicwifi":"N","url":null,"broadband_type_id":6}
{"id":null,"anchorname":"J B STEPHENS ELEMENTARY SCHOOL","address":"1331 NORTH BLUE RD","bldgnbr":"BLDGNUMBER","predir":null,"streetname":"STREETNAME","streettype":null,"suffdir":null,"city":"GREENFIELD","state_code":"IN","zip5":"46140","latitude":"39.8031452140000000","longitude":"-85.746228509000000","publicwifi":"N","url":null,"broadband_type_id":6}
{"id":null,"anchorname":"MAXWELL INTERMEDIATE SCHOOL","address":"102 NORTH MAIN ST","bldgnbr":"BLDGNUMBER","predir":null,"streetname":"STREETNAME","streettype":null,"suffdir":null,"city":"MAXWELL","state_code":"IN","zip5":"46154","latitude":"39.8574975030000000","longitude":"-85.769997803000000","publicwifi":"N","url":null,"broadband_type_id":6}
{"id":null,"anchorname":"ST MICHAEL'S CATHOLIC SCHOOL","address":"515 JEFFERSON BLVD","bldgnbr":"BLDGNUMBER","predir":null,"streetname":"STREETNAME","streettype":null,"suffdir":null,"city":"GREENFIELD","state_code":"IN","zip5":"46140","latitude":"39.7885023500000000","longitude":"-85.790097678000000","publicwifi":"N","url":null,"broadband_type_id":6}
{"id":null,"anchorname":"WESTON ELEMENTARY SCHOOL","address":"140 POLK ST","bldgnbr":"BLDGNUMBER","predir":null,"streetname":"STREETNAME","streettype":null,"suffdir":null,"city":"GREENFIELD","state_code":"IN","zip5":"46140","latitude":"39.7873083610000000","longitude":"-85.787041851000000","publicwifi":"N","url":null,"broadband_type_id":6}
{"id":null,"anchorname":"P J'S COLLEGE OF COSMETOLOGY","address":"1400 W MAIN ST","bldgnbr":"BLDGNUMBER","predir":null,"streetname":"STREETNAME","streettype":null,"suffdir":null,"city":"GREENFIELD","state_code":"IN","zip5":"46140","latitude":"39.7841989560000000","longitude":"-85.792489068000000","publicwifi":"I","url":null,"broadband_type_id":6}
{"id":null,"anchorname":"GREENFIELD FIRST CARE","address":"10 W BOYD AVE","bldgnbr":"BLDGNUMBER","predir":null,"streetname":"STREETNAME","streettype":null,"suffdir":null,"city":"GREENFIELD","state_code":"IN","zip5":"46140","latitude":"39.7937548790000000","longitude":"-85.769701984000000","publicwifi":"I","url":null,"broadband_type_id":3}
{"id":null,"anchorname":"GREENFIELD INTERMEDIATE SCHOOL","address":"204 WEST PARK AVE","bldgnbr":"BLDGNUMBER","predir":null,"streetname":"STREETNAME","streettype":null,"suffdir":null,"city":"GREENFIELD","state_code":"IN","zip5":"46140","latitude":"39.7922332500000000","longitude":"-85.771983879000000","publicwifi":"N","url":null,"broadband_type_id":6}
{"id":null,"anchorname":"HARRIS ELEMENTARY SCHOOL","address":"200 WEST PARK AVE","bldgnbr":"BLDGNUMBER","predir":null,"streetname":"STREETNAME","streettype":null,"suffdir":null,"city":"GREENFIELD","state_code":"IN","zip5":"46140","latitude":"39.7922346900000000","longitude":"-85.771896781000000","publicwifi":"N","url":null,"broadband_type_id":6}
{"id":null,"anchorname":"HANCOCK COUNTY PUBLIC LIBRARY","address":"900 WEST MCKENZIE ROAD","bldgnbr":"BLDGNUMBER","predir":null,"streetname":"STREETNAME","streettype":null,"suffdir":null,"city":"GREENFIELD","state_code":"IN","zip5":"99999","latitude":"39.7993180340000000","longitude":"-85.780800781000000","publicwifi":"N","url":null,"broadband_type_id":6}
{"id":null,"anchorname":"PRIME TIME URGENT CARE","address":"124 W MUSKEGON DR","bldgnbr":"BLDGNUMBER","predir":null,"streetname":"STREETNAME","streettype":null,"suffdir":null,"city":"GREENFIELD","state_code":"IN","zip5":"46140","latitude":"39.8104337160000000","longitude":"-85.771853154000000","publicwifi":"N","url":null,"broadband_type_id":3}
{"id":null,"anchorname":"FAMILY MEDICINE OF GREENFIELD","address":"740 W GREEN MEADOWS DR","bldgnbr":"BLDGNUMBER","predir":null,"streetname":"STREETNAME","streettype":null,"suffdir":null,"city":"GREENFIELD","state_code":"IN","zip5":"46140","latitude":"39.8043880030000000","longitude":"-85.778159790000000","publicwifi":"I","url":null,"broadband_type_id":3}
{"id":null,"anchorname":"GREENFIELD FIRE DEPT","address":"17 W SOUTH ST","bldgnbr":"BLDGNUMBER","predir":null,"streetname":"STREETNAME","streettype":null,"suffdir":null,"city":"GREENFIELD","state_code":"IN","zip5":"46140","latitude":"39.7842376350000000","longitude":"-85.769450112000000","publicwifi":"Y","url":"NINESTAR","broadband_type_id":5}
{"id":null,"anchorname":"PALMETTO LAKES SURGICAL CENTER, LLC","address":"2100 W 76TH ST, HIALEAH, FL, 33016","bldgnbr":"2100","predir":"W","streetname":"76TH","streettype":"ST","suffdir":"0","city":"HIALEAH","state_code":"FL","zip5":"33016","latitude":"25.8914600000000000","longitude":"-80.326294000000000","publicwifi":"U","url":"0","broadband_type_id":6}
{"id":null,"anchorname":"OAKES FIELD-66IN","address":"8933 E US HIGHWAY 40","bldgnbr":"BLDGNUMBER","predir":null,"streetname":"STREETNAME","streettype":null,"suffdir":null,"city":"GREENFIELD","state_code":"IN","zip5":"46140","latitude":"39.7906350050000000","longitude":"-85.634332125000000","publicwifi":"I","url":null,"broadband_type_id":6}
{"id":null,"anchorname":"SUGAR CREEK ELEMENTARY SCH","address":"2337 SOUTH 600 WEST","bldgnbr":"BLDGNUMBER","predir":null,"streetname":"STREETNAME","streettype":null,"suffdir":null,"city":"NEW PALESTINE","state_code":"IN","zip5":"46163","latitude":"39.7515046870000000","longitude":"-85.914005783000000","publicwifi":"N","url":null,"broadband_type_id":6}
{"id":null,"anchorname":"CNS TECHNOLOGIES INC","address":"1365 N MANCHESTER DR","bldgnbr":"BLDGNUMBER","predir":null,"streetname":"STREETNAME","streettype":null,"suffdir":null,"city":"GREENFIELD","state_code":"IN","zip5":"46140","latitude":"39.8025530900000000","longitude":"-85.948698003000000","publicwifi":"I","url":null,"broadband_type_id":6}
{"id":null,"anchorname":"DAVIS \u0026 ASSOC","address":"7595 BROWNSTONE CT","bldgnbr":"BLDGNUMBER","predir":null,"streetname":"STREETNAME","streettype":null,"suffdir":null,"city":"GREENFIELD","state_code":"IN","zip5":"46140","latitude":"39.8005202300000000","longitude":"-85.944681719000000","publicwifi":"I","url":null,"broadband_type_id":6}
{"id":null,"anchorname":"NORTH HARRISON ELEMENTARY SCH","address":"1115 WEST WHISKEY RUN RD NW","bldgnbr":"BLDGNUMBER","predir":null,"streetname":"STREETNAME","streettype":null,"suffdir":null,"city":"RAMSEY","state_code":"IN","zip5":"47166","latitude":"38.3267062780000000","longitude":"-86.144843835000000","publicwifi":"N","url":null,"broadband_type_id":6}
{"id":null,"anchorname":"MT COMFORT AIRPORT-MQJ","address":"3867 N AVIATION WAY","bldgnbr":"BLDGNUMBER","predir":null,"streetname":"STREETNAME","streettype":null,"suffdir":null,"city":"GREENFIELD","state_code":"IN","zip5":"46140","latitude":"39.8448781250000000","longitude":"-85.903973362000000","publicwifi":"Y","url":null,"broadband_type_id":1}
{"id":null,"anchorname":"SAUER-HARTER AIRPORT-79II","address":"140 N WALNUT DR","bldgnbr":"BLDGNUMBER","predir":null,"streetname":"STREETNAME","streettype":null,"suffdir":null,"city":"GREENFIELD","state_code":"IN","zip5":"46140","latitude":"39.7831925440000000","longitude":"-85.848452821000000","publicwifi":"I","url":null,"broadband_type_id":1}
{"id":null,"anchorname":"US POST OFFICE","address":"10372 E US HIGHWAY 40","bldgnbr":"BLDGNUMBER","predir":null,"streetname":"STREETNAME","streettype":null,"suffdir":null,"city":"CHARLOTTESVILLE","state_code":"IN","zip5":"46117","latitude":"39.7914744610000000","longitude":"-85.612205417000000","publicwifi":"N","url":null,"broadband_type_id":null}
{"id":null,"anchorname":"HARRISON COUNTY HOSP REHAB SVC","address":"1141 HOSPITAL DR NW","bldgnbr":"BLDGNUMBER","predir":null,"streetname":"STREETNAME","streettype":null,"suffdir":null,"city":"CORYDON","state_code":"IN","zip5":"47112","latitude":"38.2389270070000000","longitude":"-86.147786546000000","publicwifi":"I","url":null,"broadband_type_id":6}
{"id":null,"anchorname":"SUGAR CREEK BRANCH","address":"5087 WEST US 52","bldgnbr":"BLDGNUMBER","predir":null,"streetname":"STREETNAME","streettype":null,"suffdir":null,"city":"NEW PALESTINE","state_code":"IN","zip5":"99999","latitude":"39.7223572860000000","longitude":"-85.896252583000000","publicwifi":"N","url":null,"broadband_type_id":null}
{"id":null,"anchorname":"US POST OFFICE","address":"17 S WESTSIDE DR","bldgnbr":"BLDGNUMBER","predir":null,"streetname":"STREETNAME","streettype":null,"suffdir":null,"city":"NEW PALESTINE","state_code":"IN","zip5":"46163","latitude":"39.7222514410000000","longitude":"-85.897347317000000","publicwifi":"N","url":null,"broadband_type_id":null}
{"id":null,"anchorname":"US POST OFFICE","address":"805 MAIN ST NE","bldgnbr":"BLDGNUMBER","predir":null,"streetname":"STREETNAME","streettype":null,"suffdir":null,"city":"PALMYRA","state_code":"IN","zip5":"47164","latitude":"38.4078554540000000","longitude":"-86.109870600000000","publicwifi":"I","url":null,"broadband_type_id":null}
{"id":null,"anchorname":"PALMYRA BRANCH","address":"689 HAUB STREET","bldgnbr":"BLDGNUMBER","predir":null,"streetname":"STREETNAME","streettype":null,"suffdir":null,"city":"PALMYRA","state_code":"IN","zip5":"99999","latitude":"38.4004375830000000","longitude":"-86.111854218000000","publicwifi":"N","url":null,"broadband_type_id":null}
{"id":null,"anchorname":"US POST OFFICE","address":"1310 HIGHWAY 64 NW","bldgnbr":"BLDGNUMBER","predir":null,"streetname":"STREETNAME","streettype":null,"suffdir":null,"city":"RAMSEY","state_code":"IN","zip5":"47166","latitude":"38.3219937170000000","longitude":"-86.148533798000000","publicwifi":"N","url":null,"broadband_type_id":null}
{"id":null,"anchorname":"US POST OFFICE","address":"7735 HIGHWAY 135 NE","bldgnbr":"BLDGNUMBER","predir":null,"streetname":"STREETNAME","streettype":null,"suffdir":null,"city":"NEW SALISBURY","state_code":"IN","zip5":"47161","latitude":"38.3122428120000000","longitude":"-86.095350632000000","publicwifi":"N","url":"INSIGHT COMMUNICATIONS","broadband_type_id":null}
{"id":null,"anchorname":"US POST OFFICE","address":"6090 WALNUT ST NE","bldgnbr":"BLDGNUMBER","predir":null,"streetname":"STREETNAME","streettype":null,"suffdir":null,"city":"CRANDALL","state_code":"IN","zip5":"47114","latitude":"38.2883011040000000","longitude":"-86.063987345000000","publicwifi":"N","url":null,"broadband_type_id":null}
{"id":null,"anchorname":"UPS STORE","address":"2131 EDSEL LN NW","bldgnbr":"BLDGNUMBER","predir":null,"streetname":"STREETNAME","streettype":null,"suffdir":null,"city":"CORYDON","state_code":"IN","zip5":"47112","latitude":"38.2312911290000000","longitude":"-86.134228429000000","publicwifi":"I","url":null,"broadband_type_id":null}
{"id":null,"anchorname":"KIDS FIRST PEDIATRICS SPECS","address":"2201 CONCORD AVE NW","bldgnbr":"BLDGNUMBER","predir":null,"streetname":"STREETNAME","streettype":null,"suffdir":null,"city":"CORYDON","state_code":"IN","zip5":"47112","latitude":"38.2331480320000000","longitude":"-86.134749393000000","publicwifi":"I","url":null,"broadband_type_id":null}
{"id":null,"anchorname":"FRAZIER REHAB INSTITUTE","address":"313 FEDERAL DR NW # 110","bldgnbr":"BLDGNUMBER","predir":null,"streetname":"STREETNAME","streettype":null,"suffdir":null,"city":"CORYDON","state_code":"IN","zip5":"47112","latitude":"38.2330807520000000","longitude":"-86.132604030000000","publicwifi":"N","url":"INSIGHT","broadband_type_id":null}
{"id":null,"anchorname":"FLOYD MEMORIAL WOUND HEALING","address":"1995 EDSEL LN NW","bldgnbr":"BLDGNUMBER","predir":null,"streetname":"STREETNAME","streettype":null,"suffdir":null,"city":"CORYDON","state_code":"IN","zip5":"47112","latitude":"38.2301700750000000","longitude":"-86.135422485000000","publicwifi":"I","url":null,"broadband_type_id":null}
{"id":null,"anchorname":"HEALTH DEPARTMENT","address":"111 AMERICAN LEGION PL # 150","bldgnbr":"BLDGNUMBER","predir":null,"streetname":"STREETNAME","streettype":null,"suffdir":null,"city":"GREENFIELD","state_code":"IN","zip5":"46140","latitude":"39.7842906840000000","longitude":"-85.768263341000000","publicwifi":"I","url":null,"broadband_type_id":3}
{"id":null,"anchorname":"HANCOCK COUNTY HEALTH DEPT","address":"111 AMERICAN LEGION PL # 148","bldgnbr":"BLDGNUMBER","predir":null,"streetname":"STREETNAME","streettype":null,"suffdir":null,"city":"GREENFIELD","state_code":"IN","zip5":"46140","latitude":"39.7842906840000000","longitude":"-85.768263341000000","publicwifi":"N","url":null,"broadband_type_id":3}
{"id":null,"anchorname":"HANCOCK REGIONAL HOSPITAL","address":"801 N. STATE ST.","bldgnbr":"BLDGNUMBER","predir":null,"streetname":"STREETNAME","streettype":null,"suffdir":null,"city":"GREENFIELD","state_code":"IN","zip5":"46140","latitude":"39.7937396630000000","longitude":"-85.769534907000000","publicwifi":"Y","url":null,"broadband_type_id":3}
{"id":null,"anchorname":"HANCOCK REGIONAL HOSPITAL","address":"801 N STATE ST","bldgnbr":"BLDGNUMBER","predir":null,"streetname":"STREETNAME","streettype":null,"suffdir":null,"city":"GREENFIELD","state_code":"IN","zip5":"46140","latitude":"39.7937396630000000","longitude":"-85.769534907000000","publicwifi":"Y","url":null,"broadband_type_id":3}
{"id":null,"anchorname":"EASTERN HANCOCK ELEM SCHOOL","address":"10450 EAST 250 NORTH","bldgnbr":"BLDGNUMBER","predir":null,"streetname":"STREETNAME","streettype":null,"suffdir":null,"city":"CHARLOTTESVILLE","state_code":"IN","zip5":"46117","latitude":"39.8097169680000000","longitude":"-85.607690116000000","publicwifi":"N","url":null,"broadband_type_id":6}
{"id":null,"anchorname":"BRANDYWINE ELEMENTARY SCHOOL","address":"413 EAST 400 SOUTH","bldgnbr":"BLDGNUMBER","predir":null,"streetname":"STREETNAME","streettype":null,"suffdir":null,"city":"GREENFIELD","state_code":"IN","zip5":"46140","latitude":"39.7281266490000000","longitude":"-85.793111656000000","publicwifi":"N","url":null,"broadband_type_id":6}
{"id":null,"anchorname":"NEW PALESTINE FIRE DEPT","address":"3545 S 600 W","bldgnbr":"BLDGNUMBER","predir":null,"streetname":"STREETNAME","streettype":null,"suffdir":null,"city":"NEW PALESTINE","state_code":"IN","zip5":"46163","latitude":"39.7333877950000000","longitude":"-85.913787528000000","publicwifi":"I","url":null,"broadband_type_id":5}
{"id":null,"anchorname":"ZION LUTHERAN SCHOOL","address":"6513 W 300 S","bldgnbr":"BLDGNUMBER","predir":null,"streetname":"STREETNAME","streettype":null,"suffdir":null,"city":"NEW PALESTINE","state_code":"IN","zip5":"46163","latitude":"39.7415376440000000","longitude":"-85.923260161000000","publicwifi":"N","url":null,"broadband_type_id":6}
{"id":null,"anchorname":"DOE CREEK MIDDLE SCHOOL","address":"2279 SOUTH 600 WEST","bldgnbr":"BLDGNUMBER","predir":null,"streetname":"STREETNAME","streettype":null,"suffdir":null,"city":"NEW PALESTINE","state_code":"IN","zip5":"46163","latitude":"39.7524099570000000","longitude":"-85.914010780000000","publicwifi":"N","url":null,"broadband_type_id":6}
{"id":null,"anchorname":"SUGAR CREEK TOWNSHIP FIRE DEPT","address":"3337 W US HIGHWAY 40","bldgnbr":"BLDGNUMBER","predir":null,"streetname":"STREETNAME","streettype":null,"suffdir":null,"city":"GREENFIELD","state_code":"IN","zip5":"46140","latitude":"39.7808157770000000","longitude":"-85.863536678000000","publicwifi":"I","url":null,"broadband_type_id":5}
{"id":null,"anchorname":"POLICE","address":"42 E MAIN ST","bldgnbr":"BLDGNUMBER","predir":null,"streetname":"STREETNAME","streettype":null,"suffdir":null,"city":"NEW PALESTINE","state_code":"IN","zip5":"46163","latitude":"39.7203843710000000","longitude":"-85.886349593000000","publicwifi":"I","url":null,"broadband_type_id":4}
{"id":null,"anchorname":"NEW PALESTINE HIGH SCHOOL","address":"4485 SOUTH VICTORY DR","bldgnbr":"BLDGNUMBER","predir":null,"streetname":"STREETNAME","streettype":null,"suffdir":null,"city":"NEW PALESTINE","state_code":"IN","zip5":"46163","latitude":"39.7180153810000000","longitude":"-85.891725048000000","publicwifi":"N","url":null,"broadband_type_id":6}
{"id":null,"anchorname":"NEW PALESTINE ELEMENTARY SCHOOL","address":"4801 SOUTH 500 WEST","bldgnbr":"BLDGNUMBER","predir":null,"streetname":"STREETNAME","streettype":null,"suffdir":null,"city":"NEW PALESTINE","state_code":"IN","zip5":"46163","latitude":"39.7148733550000000","longitude":"-85.895111831000000","publicwifi":"N","url":null,"broadband_type_id":6}
{"id":null,"anchorname":"MORGAN ELEMENTARY SCHOOL","address":"12225 HWY 135 NE","bldgnbr":"BLDGNUMBER","predir":null,"streetname":"STREETNAME","streettype":null,"suffdir":null,"city":"PALMYRA","state_code":"IN","zip5":"47164","latitude":"38.3784427020000000","longitude":"-86.096673059000000","publicwifi":"N","url":null,"broadband_type_id":6}
{"id":null,"anchorname":"NORTH HARRISON HIGH SCHOOL","address":"1070 HWY 64 NW","bldgnbr":"BLDGNUMBER","predir":null,"streetname":"STREETNAME","streettype":null,"suffdir":null,"city":"RAMSEY","state_code":"IN","zip5":"47166","latitude":"38.3202373980000000","longitude":"-86.143653307000000","publicwifi":"N","url":null,"broadband_type_id":6}
{"id":null,"anchorname":"NORTH HARRISON MIDDLE SCHOOL","address":"1180 HWY 64 NW","bldgnbr":"BLDGNUMBER","predir":null,"streetname":"STREETNAME","streettype":null,"suffdir":null,"city":"RAMSEY","state_code":"IN","zip5":"47166","latitude":"38.3210448910000000","longitude":"-86.146554540000000","publicwifi":"N","url":null,"broadband_type_id":6}
{"id":null,"anchorname":"AT-HOME CARE-HARRISON COUNTY","address":"1263 HOSPITAL DR NW # 140","bldgnbr":"BLDGNUMBER","predir":null,"streetname":"STREETNAME","streettype":null,"suffdir":null,"city":"CORYDON","state_code":"IN","zip5":"47112","latitude":"38.2387966640000000","longitude":"-86.146355097000000","publicwifi":"Y","url":"FRONTIER COMMUNICATIONS OF INDIANA, INC.","broadband_type_id":3}
{"id":null,"anchorname":"HARRISON COUNTY HOSPITAL","address":"1141 HOSPITAL DR NW","bldgnbr":"BLDGNUMBER","predir":null,"streetname":"STREETNAME","streettype":null,"suffdir":null,"city":"CORYDON","state_code":"IN","zip5":"47112","latitude":"38.2389270070000000","longitude":"-86.147786546000000","publicwifi":"I","url":null,"broadband_type_id":3}
{"id":null,"anchorname":"AFTER HOURS CARE-HARRISON COUN","address":"1995 EDSEL LN NW","bldgnbr":"BLDGNUMBER","predir":null,"streetname":"STREETNAME","streettype":null,"suffdir":null,"city":"CORYDON","state_code":"IN","zip5":"47112","latitude":"38.2301700750000000","longitude":"-86.135422485000000","publicwifi":"I","url":null,"broadband_type_id":3}
{"id":null,"anchorname":"MAGIC KIDS LEARNING CENTER II","address":"9160 NW 122ND ST, HIALEAH GARDENS, FL 33018","bldgnbr":"9160","predir":null,"streetname":"122ND","streettype":"ST","suffdir":null,"city":"HIALEAH GARDENS","state_code":"FL","zip5":"33018","latitude":"25.8837511200000000","longitude":"-80.346575440000000","publicwifi":"U","url":"0","broadband_type_id":6}
{"id":null,"anchorname":"DU CO TRANSPORTATION INC","address":"1025 MAIN ST NW","bldgnbr":"BLDGNUMBER","predir":null,"streetname":"STREETNAME","streettype":null,"suffdir":null,"city":"CORYDON","state_code":"IN","zip5":"47112","latitude":"38.2218885510000000","longitude":"-86.146175782000000","publicwifi":"N","url":"INSIGHT COMMUNICATIONS","broadband_type_id":null}
{"id":null,"anchorname":"CORYDON CENTRAL JR HIGH SCH","address":"377 COUNTRY CLUB RD","bldgnbr":"BLDGNUMBER","predir":null,"streetname":"STREETNAME","streettype":null,"suffdir":null,"city":"CORYDON","state_code":"IN","zip5":"47112","latitude":"38.2007441500000000","longitude":"-86.119589182000000","publicwifi":"N","url":null,"broadband_type_id":6}
{"id":null,"anchorname":"DA VITA INC","address":"1937 OLD HIGHWAY 135 NW","bldgnbr":"BLDGNUMBER","predir":null,"streetname":"STREETNAME","streettype":null,"suffdir":null,"city":"CORYDON","state_code":"IN","zip5":"47112","latitude":"38.2321308470000000","longitude":"-86.130835293000000","publicwifi":"I","url":null,"broadband_type_id":null}
{"id":null,"anchorname":"US POST OFFICE","address":"245 W HIGHWAY 62","bldgnbr":"BLDGNUMBER","predir":null,"streetname":"STREETNAME","streettype":null,"suffdir":null,"city":"CORYDON","state_code":"IN","zip5":"47112","latitude":"38.2129373410000000","longitude":"-86.131421581000000","publicwifi":"N","url":null,"broadband_type_id":null}
{"id":null,"anchorname":"LANESVILLE JR-SR HS","address":"2725 CRESTVIEW","bldgnbr":"BLDGNUMBER","predir":null,"streetname":"STREETNAME","streettype":null,"suffdir":null,"city":"LANESVILLE","state_code":"IN","zip5":"47136","latitude":"38.2380293040000000","longitude":"-85.987656999000000","publicwifi":"N","url":null,"broadband_type_id":6}
{"id":null,"anchorname":"LANESVILLE BRANCH","address":"7340 E PENNINGTON ST NE","bldgnbr":"BLDGNUMBER","predir":null,"streetname":"STREETNAME","streettype":null,"suffdir":null,"city":"LANESVILLE","state_code":"IN","zip5":"99999","latitude":"38.2366435260000000","longitude":"-85.985263041000000","publicwifi":"N","url":null,"broadband_type_id":6}
{"id":null,"anchorname":"GREENRIDGE RLA AIRPORT-IN14","address":"2741 FERREE RD NE","bldgnbr":"BLDGNUMBER","predir":null,"streetname":"STREETNAME","streettype":null,"suffdir":null,"city":"LANESVILLE","state_code":"IN","zip5":"47136","latitude":"38.2359587470000000","longitude":"-86.014161476000000","publicwifi":"I","url":null,"broadband_type_id":1}
{"id":null,"anchorname":"SOUTH CENTRAL JR \u0026 SR HS","address":"6675 EAST HWY 11 SE","bldgnbr":"BLDGNUMBER","predir":null,"streetname":"STREETNAME","streettype":null,"suffdir":null,"city":"ELIZABETH","state_code":"IN","zip5":"47117","latitude":"38.0826349500000000","longitude":"-86.003058909000000","publicwifi":"N","url":null,"broadband_type_id":6}
{"id":null,"anchorname":"SOUTH CENTRAL ELEMENTARY","address":"6595 EAST HWY 11 SE","bldgnbr":"BLDGNUMBER","predir":null,"streetname":"STREETNAME","streettype":null,"suffdir":null,"city":"ELIZABETH","state_code":"IN","zip5":"47117","latitude":"38.0826392830000000","longitude":"-86.003852471000000","publicwifi":"N","url":null,"broadband_type_id":6}
{"id":null,"anchorname":"CARDINAL ELEMENTARY SCH","address":"3590 SOUTH HORNADAY RD","bldgnbr":"BLDGNUMBER","predir":null,"streetname":"STREETNAME","streettype":null,"suffdir":null,"city":"BROWNSBURG","state_code":"IN","zip5":"46112","latitude":"39.8180501660000000","longitude":"-86.382046541000000","publicwifi":"N","url":null,"broadband_type_id":6}
{"id":null,"anchorname":"ORTHOPAEDICS INDIANAPOLIS PC","address":"7950 ORTHO LN","bldgnbr":"BLDGNUMBER","predir":null,"streetname":"STREETNAME","streettype":null,"suffdir":null,"city":"BROWNSBURG","state_code":"IN","zip5":"46112","latitude":"39.8015743960000000","longitude":"-86.382428735000000","publicwifi":"Y","url":null,"broadband_type_id":6}
{"id":null,"anchorname":"INDIANA ORTHOPAEDIC HOSP WEST","address":"7950 ORTHO LN","bldgnbr":"BLDGNUMBER","predir":null,"streetname":"STREETNAME","streettype":null,"suffdir":null,"city":"BROWNSBURG","state_code":"IN","zip5":"46112","latitude":"39.8015743960000000","longitude":"-86.382428735000000","publicwifi":"I","url":null,"broadband_type_id":6}
{"id":null,"anchorname":"BETHESDA BAPTIST CHURCH \u0026 SCHO","address":"7950 N COUNTY ROAD 650 E","bldgnbr":"BLDGNUMBER","predir":null,"streetname":"STREETNAME","streettype":null,"suffdir":null,"city":"BROWNSBURG","state_code":"IN","zip5":"46112","latitude":"39.8793112920000000","longitude":"-86.411425308000000","publicwifi":"N","url":null,"broadband_type_id":6}
{"id":null,"anchorname":"CHAMPION PHYSICAL THERAPY","address":"65 E GARNER RD # 100","bldgnbr":"BLDGNUMBER","predir":null,"streetname":"STREETNAME","streettype":null,"suffdir":null,"city":"BROWNSBURG","state_code":"IN","zip5":"46112","latitude":"39.8655092740000000","longitude":"-86.390274579000000","publicwifi":"I","url":null,"broadband_type_id":3}
{"id":null,"anchorname":"US POST OFFICE","address":"5465 MAIN ST SE","bldgnbr":"BLDGNUMBER","predir":null,"streetname":"STREETNAME","streettype":null,"suffdir":null,"city":"ELIZABETH","state_code":"IN","zip5":"47117","latitude":"38.1198695980000000","longitude":"-85.974063333000000","publicwifi":"N","url":null,"broadband_type_id":null}
{"id":null,"anchorname":"US POST OFFICE","address":"11525 MAIN ST SE","bldgnbr":"BLDGNUMBER","predir":null,"streetname":"STREETNAME","streettype":null,"suffdir":null,"city":"LACONIA","state_code":"IN","zip5":"47135","latitude":"38.0311639700000000","longitude":"-86.085586363000000","publicwifi":"I","url":null,"broadband_type_id":null}
{"id":null,"anchorname":"US POST OFFICE","address":"12010 MAIN ST SW","bldgnbr":"BLDGNUMBER","predir":null,"streetname":"STREETNAME","streettype":null,"suffdir":null,"city":"MAUCKPORT","state_code":"IN","zip5":"47142","latitude":"38.0286475860000000","longitude":"-86.199906865000000","publicwifi":"I","url":null,"broadband_type_id":null}
{"id":null,"anchorname":"UPS STORE","address":"124 E NORTHFIELD DR # F","bldgnbr":"BLDGNUMBER","predir":null,"streetname":"STREETNAME","streettype":null,"suffdir":null,"city":"BROWNSBURG","state_code":"IN","zip5":"46112","latitude":"39.8573485220000000","longitude":"-86.390058014000000","publicwifi":"I","url":null,"broadband_type_id":null}
{"id":null,"anchorname":"WYANDOTTE FIRE DEPT","address":"7240 OLD FOREST RD SW","bldgnbr":"BLDGNUMBER","predir":null,"streetname":"STREETNAME","streettype":null,"suffdir":null,"city":"CORYDON","state_code":"IN","zip5":"47112","latitude":"38.2005719180000000","longitude":"-86.254144119000000","publicwifi":"I","url":null,"broadband_type_id":5}
{"id":null,"anchorname":"ST JOSEPH CATHOLIC SCHOOL","address":"512 N MULBERRY ST","bldgnbr":"BLDGNUMBER","predir":null,"streetname":"STREETNAME","streettype":null,"suffdir":null,"city":"CORYDON","state_code":"IN","zip5":"47112","latitude":"38.2134917420000000","longitude":"-86.124062269000000","publicwifi":"N","url":null,"broadband_type_id":6}
{"id":null,"anchorname":"HEALTHY FAMILIES","address":"405 N CAPITOL AVE # 103","bldgnbr":"BLDGNUMBER","predir":null,"streetname":"STREETNAME","streettype":null,"suffdir":null,"city":"CORYDON","state_code":"IN","zip5":"47112","latitude":"38.2123213620000000","longitude":"-86.126385671000000","publicwifi":"I","url":null,"broadband_type_id":3}
{"id":null,"anchorname":"HARRISON COUNTY PUBLIC LIBRARY","address":"105 NORTH CAPITOL AVENUE","bldgnbr":"BLDGNUMBER","predir":null,"streetname":"STREETNAME","streettype":null,"suffdir":null,"city":"CORYDON","state_code":"IN","zip5":"99999","latitude":"38.2106159100000000","longitude":"-86.126427946000000","publicwifi":"N","url":null,"broadband_type_id":6}
{"id":null,"anchorname":"CORYDON ELEMENTARY SCHOOL","address":"125 BEECHMONT DR","bldgnbr":"BLDGNUMBER","predir":null,"streetname":"STREETNAME","streettype":null,"suffdir":null,"city":"CORYDON","state_code":"IN","zip5":"47112","latitude":"38.2076526950000000","longitude":"-86.121309874000000","publicwifi":"N","url":null,"broadband_type_id":6}
{"id":null,"anchorname":"HARRISON COUNTY HEALTH DEPT","address":"241 ATWOOD ST # 105","bldgnbr":"BLDGNUMBER","predir":null,"streetname":"STREETNAME","streettype":null,"suffdir":null,"city":"CORYDON","state_code":"IN","zip5":"47112","latitude":"38.2076011720000000","longitude":"-86.122146842000000","publicwifi":"Y","url":null,"broadband_type_id":3}
{"id":null,"anchorname":"HARRISON HEALTH \u0026 REHAB CTR","address":"150 BEECHMONT DR NE","bldgnbr":"BLDGNUMBER","predir":null,"streetname":"STREETNAME","streettype":null,"suffdir":null,"city":"CORYDON","state_code":"IN","zip5":"47112","latitude":"38.2074421550000000","longitude":"-86.120741701000000","publicwifi":"Y","url":"FRONTIER","broadband_type_id":3}
{"id":null,"anchorname":"INDIAN CREEK HEALTH \u0026 REHAB","address":"240 BEECHMONT DR NE","bldgnbr":"BLDGNUMBER","predir":null,"streetname":"STREETNAME","streettype":null,"suffdir":null,"city":"CORYDON","state_code":"IN","zip5":"47112","latitude":"38.2059597790000000","longitude":"-86.119685516000000","publicwifi":"N","url":null,"broadband_type_id":3}
{"id":null,"anchorname":"CORYDON INTERMEDIATE SCHOOL","address":"100 HIGH SCHOOL RD","bldgnbr":"BLDGNUMBER","predir":null,"streetname":"STREETNAME","streettype":null,"suffdir":null,"city":"CORYDON","state_code":"IN","zip5":"47112","latitude":"38.2016371680000000","longitude":"-86.121950746000000","publicwifi":"N","url":null,"broadband_type_id":6}
{"id":null,"anchorname":"SHILOH HOLINESS CHRISTIAN SCHOOL","address":"1450 OLD HIGHWAY 135 SW","bldgnbr":"BLDGNUMBER","predir":null,"streetname":"STREETNAME","streettype":null,"suffdir":null,"city":"CORYDON","state_code":"IN","zip5":"47112","latitude":"38.1805489270000000","longitude":"-86.135418779000000","publicwifi":"N","url":null,"broadband_type_id":6}
{"id":null,"anchorname":"CORYDON CENTRAL HIGH SCHOOL","address":"375 COUNTRY CLUB RD","bldgnbr":"BLDGNUMBER","predir":null,"streetname":"STREETNAME","streettype":null,"suffdir":null,"city":"CORYDON","state_code":"IN","zip5":"47112","latitude":"38.2007454670000000","longitude":"-86.119642550000000","publicwifi":"N","url":null,"broadband_type_id":6}
{"id":null,"anchorname":"LANESVILLE ELEMENTARY SCHOOL","address":"2725 CRESTVIEW","bldgnbr":"BLDGNUMBER","predir":null,"streetname":"STREETNAME","streettype":null,"suffdir":null,"city":"LANESVILLE","state_code":"IN","zip5":"47136","latitude":"38.2380293040000000","longitude":"-85.987656999000000","publicwifi":"N","url":null,"broadband_type_id":6}
{"id":null,"anchorname":"ST JOHN'S LUTHERAN SCHOOL","address":"1507 SAINT JOHNS CHURCH RD NE","bldgnbr":"BLDGNUMBER","predir":null,"streetname":"STREETNAME","streettype":null,"suffdir":null,"city":"LANESVILLE","state_code":"IN","zip5":"47136","latitude":"38.2180343850000000","longitude":"-85.969489591000000","publicwifi":"N","url":null,"broadband_type_id":6}
{"id":null,"anchorname":"NEW MIDDLETOWN ELEMENTARY SCHOOL","address":"2460 NEW MIDDLETOWN RD SE","bldgnbr":"BLDGNUMBER","predir":null,"streetname":"STREETNAME","streettype":null,"suffdir":null,"city":"NEW MIDDLETOWN","state_code":"IN","zip5":"47160","latitude":"38.1190102800000000","longitude":"-86.021364834000000","publicwifi":"N","url":null,"broadband_type_id":6}
{"id":null,"anchorname":"ROBINSON AIRPARK-1IN4","address":"7300 PINE SHORE DR SE","bldgnbr":"BLDGNUMBER","predir":null,"streetname":"STREETNAME","streettype":null,"suffdir":null,"city":"ELIZABETH","state_code":"IN","zip5":"47117","latitude":"38.1427519660000000","longitude":"-85.988762587000000","publicwifi":"I","url":null,"broadband_type_id":2}
{"id":null,"anchorname":"HETH-WASHINGTON ELEM SCHOOL","address":"2450 HETHWASHINGTON RD SW","bldgnbr":"BLDGNUMBER","predir":null,"streetname":"STREETNAME","streettype":null,"suffdir":null,"city":"CENTRAL","state_code":"IN","zip5":"47110","latitude":"38.0931033730000000","longitude":"-86.213723106000000","publicwifi":"N","url":null,"broadband_type_id":6}
{"id":null,"anchorname":"BROWNSBURG WEST MIDDLE SCHOOL","address":"1555 SOUTH ODELL ST","bldgnbr":"BLDGNUMBER","predir":null,"streetname":"STREETNAME","streettype":null,"suffdir":null,"city":"BROWNSBURG","state_code":"IN","zip5":"46112","latitude":"39.8206384370000000","longitude":"-86.386539206000000","publicwifi":"N","url":null,"broadband_type_id":6}
{"id":null,"anchorname":"DELAWARE TRAIL ELEMENTARY SCHOOL","address":"3680 SOUTH HORNADAY RD","bldgnbr":"BLDGNUMBER","predir":null,"streetname":"STREETNAME","streettype":null,"suffdir":null,"city":"BROWNSBURG","state_code":"IN","zip5":"46112","latitude":"39.8182518540000000","longitude":"-86.382050878000000","publicwifi":"N","url":null,"broadband_type_id":6}
{"id":null,"anchorname":"BETHESDA CHRISTIAN SCHOOLS","address":"7950 N COUNTY ROAD 650 E","bldgnbr":"BLDGNUMBER","predir":null,"streetname":"STREETNAME","streettype":null,"suffdir":null,"city":"BROWNSBURG","state_code":"IN","zip5":"46112","latitude":"39.8793112920000000","longitude":"-86.411425308000000","publicwifi":"N","url":null,"broadband_type_id":6}
{"id":null,"anchorname":"BROWNSBURG FIRE TERRITORY","address":"470 E NORTHFIELD DR","bldgnbr":"BLDGNUMBER","predir":null,"streetname":"STREETNAME","streettype":null,"suffdir":null,"city":"BROWNSBURG","state_code":"IN","zip5":"46112","latitude":"39.8552982870000000","longitude":"-86.383347641000000","publicwifi":"I","url":null,"broadband_type_id":5}
{"id":null,"anchorname":"US POST OFFICE","address":"411 E NORTHFIELD DR","bldgnbr":"BLDGNUMBER","predir":null,"streetname":"STREETNAME","streettype":null,"suffdir":null,"city":"BROWNSBURG","state_code":"IN","zip5":"46112","latitude":"39.8563087500000000","longitude":"-86.384730986000000","publicwifi":"N","url":null,"broadband_type_id":null}
{"id":null,"anchorname":"EXCELLENT GROUP SERVICES INC","address":"10550 NW 77TH CT STE 310, HIALEAH GARDENS, FL, 33016","bldgnbr":"10550","predir":"NW","streetname":"77TH","streettype":"CT","suffdir":"STE 310","city":"HIALEAH GARDENS","state_code":"FL","zip5":"33016","latitude":"25.8690200000000000","longitude":"-80.324708000000000","publicwifi":"U","url":"0","broadband_type_id":6}
{"id":null,"anchorname":"EAGLE ELEMENTARY SCH","address":"555 SYCAMORE","bldgnbr":"BLDGNUMBER","predir":null,"streetname":"STREETNAME","streettype":null,"suffdir":null,"city":"BROWNSBURG","state_code":"IN","zip5":"46112","latitude":"39.8287375340000000","longitude":"-86.390065761000000","publicwifi":"N","url":null,"broadband_type_id":6}
{"id":null,"anchorname":"PITTSBORO ELEMENTARY","address":"206 NORTH MERIDIAN ST","bldgnbr":"BLDGNUMBER","predir":null,"streetname":"STREETNAME","streettype":null,"suffdir":null,"city":"PITTSBORO","state_code":"IN","zip5":"46167","latitude":"39.8658006940000000","longitude":"-86.467949613000000","publicwifi":"N","url":null,"broadband_type_id":6}
{"id":null,"anchorname":"BERGS AIRPORT-6II7","address":"3200 W COUNTY ROAD 850 N","bldgnbr":"BLDGNUMBER","predir":null,"streetname":"STREETNAME","streettype":null,"suffdir":null,"city":"LIZTON","state_code":"IN","zip5":"46149","latitude":"39.8864374690000000","longitude":"-86.581719794000000","publicwifi":"I","url":null,"broadband_type_id":1}
{"id":null,"anchorname":"DIALYSIS INSTITUTE OF DANVILLE","address":"1594 E MAIN ST","bldgnbr":"BLDGNUMBER","predir":null,"streetname":"STREETNAME","streettype":null,"suffdir":null,"city":"DANVILLE","state_code":"IN","zip5":"46122","latitude":"39.7614619810000000","longitude":"-86.495379677000000","publicwifi":"I","url":"COMCAST","broadband_type_id":6}
{"id":null,"anchorname":"COMMUNITY ACTION OF GREATER","address":"45 W CLINTON ST","bldgnbr":"BLDGNUMBER","predir":null,"streetname":"STREETNAME","streettype":null,"suffdir":null,"city":"DANVILLE","state_code":"IN","zip5":"46122","latitude":"39.7616209500000000","longitude":"-86.524437477000000","publicwifi":"I","url":null,"broadband_type_id":1}
{"id":null,"anchorname":"HENDRICKS COUNTY ENVRNMTL HLTH","address":"355 S WASHINGTON ST # 210","bldgnbr":"BLDGNUMBER","predir":null,"streetname":"STREETNAME","streettype":null,"suffdir":null,"city":"DANVILLE","state_code":"IN","zip5":"46122","latitude":"39.7571120890000000","longitude":"-86.523763100000000","publicwifi":"I","url":null,"broadband_type_id":1}
