{"id":null,"anchorname":"ORRVILLE HIGH SCHOOL","address":"841 N ELLA ST ORRVILLE, OH 44667","bldgnbr":"841","predir":null,"streetname":"N ELLA ST","streettype":null,"suffdir":null,"city":"ORRVILLE","state_code":"OH","zip5":"44667","latitude":"40.8477300000000000","longitude":"-81.769740000000000","publicwifi":"U","url":null,"broadband_type_id":6}
{"id":null,"anchorname":"SHREVE POLICE DEPARTMENT","address":"150 W MCCONKEY ST SHREVE, OH 44676-9301","bldgnbr":"150","predir":null,"streetname":"W MCCONKEY ST","streettype":null,"suffdir":null,"city":"SHREVE","state_code":"OH","zip5":"44676","latitude":"40.6816400000000000","longitude":"-82.023260000000000","publicwifi":"U","url":null,"broadband_type_id":4}
{"id":null,"anchorname":"MARSHALLVILLE ELEMENTARY SCHOOL","address":"5 CHESTNUT ST MARSHALLVILLE, OH 44645","bldgnbr":"5","predir":null,"streetname":"CHESTNUT ST","streettype":null,"suffdir":null,"city":"MARSHALLVILLE","state_code":"OH","zip5":"44645","latitude":"40.9010100000000000","longitude":"-81.731160000000000","publicwifi":"U","url":null,"broadband_type_id":6}
{"id":null,"anchorname":"WILLIAMS COUNTY EMERGENCY MEDICAL SERVICES","address":"5842 STATE ROUTE 15 BRYAN, OH 43506","bldgnbr":"5842","predir":null,"streetname":"STATE ROUTE 15","streettype":null,"suffdir":null,"city":"BRYAN","state_code":"OH","zip5":"43506","latitude":"41.4976500000000000","longitude":"-84.554850000000000","publicwifi":"U","url":null,"broadband_type_id":3}
{"id":null,"anchorname":"PERRYSBURG FIRE DIVISION","address":"140 WEST INDIANA AVENUE PERRYSBURG, OH 43551","bldgnbr":"140","predir":null,"streetname":"WEST INDIANA AVENUE","streettype":null,"suffdir":null,"city":"PERRYSBURG","state_code":"OH","zip5":"43551","latitude":"41.5563400000000000","longitude":"-83.629440000000000","publicwifi":"U","url":null,"broadband_type_id":5}
{"id":null,"anchorname":"LAKE TOWNSHIP FIRE DEPARTMENT STATION 1","address":"4505 WALBRIDGE ROAD WALBRIDGE, OH 43465","bldgnbr":"4505","predir":null,"streetname":"WALBRIDGE ROAD","streettype":null,"suffdir":null,"city":"WALBRIDGE","state_code":"OH","zip5":"43465","latitude":"41.5877300000000000","longitude":"-83.483640000000000","publicwifi":"U","url":null,"broadband_type_id":5}
{"id":null,"anchorname":"PEMBERVILLE PUBLIC LIBRARY","address":"375 E FRONT ST PEMBERVILLE, OH 43450-7037","bldgnbr":"375","predir":null,"streetname":"E FRONT ST","streettype":null,"suffdir":null,"city":"PEMBERVILLE","state_code":"OH","zip5":"43450","latitude":"41.4123500000000000","longitude":"-83.456450000000000","publicwifi":"Y","url":null,"broadband_type_id":6}
{"id":null,"anchorname":"PERRYSBURG HIGH SCHOOL","address":"13385 ROACHTON RD PERRYSBURG, OH 43551","bldgnbr":"13385","predir":null,"streetname":"ROACHTON RD","streettype":null,"suffdir":null,"city":"PERRYSBURG","state_code":"OH","zip5":"43551","latitude":"41.5220300000000000","longitude":"-83.651710000000000","publicwifi":"U","url":null,"broadband_type_id":6}
{"id":null,"anchorname":"GRAND RAPIDS BRANCH LIBRARY","address":"17620 BRIDGE STREET GRAND RAPIDS, OH 43522","bldgnbr":"17620","predir":null,"streetname":"BRIDGE STREET","streettype":null,"suffdir":null,"city":"GRAND RAPIDS","state_code":"OH","zip5":"43522","latitude":"41.4098500000000000","longitude":"-83.860320000000000","publicwifi":"No","url":null,"broadband_type_id":6}
{"id":null,"anchorname":"WESTON FIRE DEPARTMENT","address":"20761 TAYLOR STREET WESTON, OH 43569","bldgnbr":"20761","predir":null,"streetname":"TAYLOR STREET","streettype":null,"suffdir":null,"city":"WESTON","state_code":"OH","zip5":"43569","latitude":"41.3428900000000000","longitude":"-83.800100000000000","publicwifi":"U","url":null,"broadband_type_id":5}
{"id":null,"anchorname":"CENTRAL JOINT FIRE DISTRICT","address":"13179 MERMILL ROAD PORTAGE, OH 43451","bldgnbr":"13179","predir":null,"streetname":"MERMILL ROAD","streettype":null,"suffdir":null,"city":"PORTAGE","state_code":"OH","zip5":"43451","latitude":"41.2974000000000000","longitude":"-83.654480000000000","publicwifi":"U","url":null,"broadband_type_id":5}
{"id":null,"anchorname":"HERITAGE INN NURSING HOME","address":"1069 KLOTZ RD BOWLING GREEN, OH 43402","bldgnbr":"1069","predir":null,"streetname":"KLOTZ RD","streettype":null,"suffdir":null,"city":"BOWLING GREEN","state_code":"OH","zip5":"43402","latitude":"41.3569700000000000","longitude":"-83.638420000000000","publicwifi":"U","url":null,"broadband_type_id":3}
{"id":null,"anchorname":"WAYNE VOLUNTEER FIRE DEPARTMENT","address":"200 NORTH CENTER STREET WAYNE, OH 43466","bldgnbr":"200","predir":null,"streetname":"NORTH CENTER STREET","streettype":null,"suffdir":null,"city":"WAYNE","state_code":"OH","zip5":"43466","latitude":"41.3019200000000000","longitude":"-83.473450000000000","publicwifi":"U","url":null,"broadband_type_id":5}
{"id":null,"anchorname":"CARMEN FIRE DEPARTMENT","address":"421 E Main St","bldgnbr":"421","predir":"East","streetname":"Main","streettype":"St","suffdir":null,"city":"CARMEN","state_code":"OK","zip5":"73726","latitude":"36.5788679200000000","longitude":"-98.450315170000000","publicwifi":"U","url":null,"broadband_type_id":5}
{"id":null,"anchorname":"CANEY VOLUNTEER FIRE DEPARTMENT","address":"201 NORTH COBB AVENUE","bldgnbr":"201","predir":"North","streetname":"COBB","streettype":"Ave","suffdir":null,"city":"CANEY","state_code":"OK","zip5":"74533","latitude":"34.2335833000000000","longitude":"-96.212075800000000","publicwifi":"U","url":null,"broadband_type_id":5}
{"id":null,"anchorname":"FORGAN FIRE DEPARTMENT","address":"110 WEST MAIN STREET","bldgnbr":"110","predir":"West","streetname":"MAIN","streettype":"St","suffdir":null,"city":"FORGAN","state_code":"OK","zip5":"73938","latitude":"36.9065987000000000","longitude":"-100.53685000000000","publicwifi":"U","url":null,"broadband_type_id":5}
{"id":null,"anchorname":"COLBERT FIRE DEPARTMENT","address":"705 MOORE AVENUE","bldgnbr":"705","predir":null,"streetname":"MOORE","streettype":"Ave","suffdir":null,"city":"COLBERT","state_code":"OK","zip5":"74733","latitude":"33.8521538000000000","longitude":"-96.508701300000000","publicwifi":"U","url":null,"broadband_type_id":5}
{"id":null,"anchorname":"HINTON VOLUNTEER FIRE DEPARTMENT","address":"115 BROADWAY AVENUE","bldgnbr":"115","predir":null,"streetname":"BROADWAY","streettype":"Ave","suffdir":null,"city":"HINTON","state_code":"OK","zip5":"73047","latitude":"35.4706428000000000","longitude":"-98.355214000000000","publicwifi":"U","url":null,"broadband_type_id":5}
{"id":null,"anchorname":"TWIN CITY FIRE DEPARTMENT","address":"STATE HIGHWAY 146","bldgnbr":"N/A","predir":null,"streetname":"N/A","streettype":null,"suffdir":null,"city":"FORT COBB","state_code":"OK","zip5":"73038","latitude":"35.2315872000000000","longitude":"-98.411699500000000","publicwifi":"U","url":null,"broadband_type_id":5}
{"id":null,"anchorname":"Cement Town Hall","address":"411 N Main St","bldgnbr":"411","predir":"North","streetname":"Main","streettype":"St","suffdir":null,"city":"Cement","state_code":"OK","zip5":"73017","latitude":"34.9315800000000000","longitude":"-98.140230000000000","publicwifi":"U","url":null,"broadband_type_id":1}
{"id":null,"anchorname":"El Reno City Hall","address":"101 N Choctaw","bldgnbr":"101","predir":"North","streetname":"Choctaw","streettype":null,"suffdir":null,"city":"El Reno","state_code":"OK","zip5":"73036","latitude":"35.5332900000000000","longitude":"-97.954990000000000","publicwifi":"U","url":null,"broadband_type_id":1}
{"id":null,"anchorname":"YUKON FIRE STATION 1","address":"302 SOUTH FIFTH STREET","bldgnbr":"302","predir":"South","streetname":"FIFTH","streettype":"St","suffdir":null,"city":"YUKON","state_code":"OK","zip5":"73099","latitude":"35.5044446000000000","longitude":"-97.750897300000000","publicwifi":"U","url":null,"broadband_type_id":5}
{"id":null,"anchorname":"DILLARD VOLUNTEER FIRE DEPARTMENT","address":"8058 DILLARD ROAD","bldgnbr":"8058","predir":null,"streetname":"DILLARD","streettype":"Road","suffdir":null,"city":"WILSON","state_code":"OK","zip5":"73463","latitude":"34.1893986000000000","longitude":"-97.404310800000000","publicwifi":"U","url":null,"broadband_type_id":5}
{"id":null,"anchorname":"Oak Hall School","address":"Po Box 1807","bldgnbr":"N/A","predir":null,"streetname":"N/A","streettype":null,"suffdir":null,"city":"Ardmore","state_code":"OK","zip5":"73402","latitude":"34.2032794100000000","longitude":"-97.125329220000000","publicwifi":"U","url":null,"broadband_type_id":6}
{"id":null,"anchorname":"UNION TOWNSHIP AND SOUTH LEBANON FIRE DEPARTMENT","address":"285 EAST PIKE STREET SOUTH LEBANON, OH 45065","bldgnbr":"285","predir":null,"streetname":"EAST PIKE STREET","streettype":null,"suffdir":null,"city":"SOUTH LEBANON","state_code":"OH","zip5":"45065","latitude":"39.3730500000000000","longitude":"-84.213040000000000","publicwifi":"U","url":null,"broadband_type_id":5}
{"id":null,"anchorname":"HARLAN TOWNSHIP FIRE AND RESCUE STATION 82","address":"7404 SOUTH STATE HIGHWAY 123 PLEASANT PLAIN, OH 45162","bldgnbr":"7404","predir":null,"streetname":"SOUTH STATE HIGHWAY 123","streettype":null,"suffdir":null,"city":"PLEASANT PLAIN","state_code":"OH","zip5":"45162","latitude":"39.2717000000000000","longitude":"-84.084300000000000","publicwifi":"U","url":null,"broadband_type_id":5}
{"id":null,"anchorname":"LITTLE MUSKINGUM VOLUNTEER FIRE DEPARTMENT","address":"15015 STATE HIGHWAY 26 MARIETTA, OH 45750","bldgnbr":"15015","predir":null,"streetname":"STATE HIGHWAY 26","streettype":null,"suffdir":null,"city":"MARIETTA","state_code":"OH","zip5":"45750","latitude":"39.4236000000000000","longitude":"-81.443400000000000","publicwifi":"U","url":null,"broadband_type_id":5}
{"id":null,"anchorname":"OAK GROVE FIRE DEPARTMENT","address":"102 OAK GROVE LANE MARIETTA, OH 45750","bldgnbr":"102","predir":null,"streetname":"OAK GROVE LANE","streettype":null,"suffdir":null,"city":"MARIETTA","state_code":"OH","zip5":"45750","latitude":"39.4474100000000000","longitude":"-81.466740000000000","publicwifi":"U","url":null,"broadband_type_id":5}
{"id":null,"anchorname":"WAYNE COUNTY PUBLIC LIBRARY","address":"304 N. MARKET ST. WOOSTER, OH 44691-3593","bldgnbr":"304","predir":null,"streetname":"N. MARKET ST.","streettype":null,"suffdir":null,"city":"WOOSTER","state_code":"OH","zip5":"44691","latitude":"40.8007770000000000","longitude":"-81.940636000000000","publicwifi":"U","url":null,"broadband_type_id":6}
{"id":null,"anchorname":"WOOSTER POLICE DEPARTMENT","address":"201 W NORTH ST WOOSTER, OH 44691-4805","bldgnbr":"201","predir":null,"streetname":"W NORTH ST","streettype":null,"suffdir":null,"city":"WOOSTER","state_code":"OH","zip5":"44691","latitude":"40.7991800000000000","longitude":"-81.942250000000000","publicwifi":"U","url":null,"broadband_type_id":4}
{"id":null,"anchorname":"EDGEWOOD MIDDLE SCHOOL","address":"2695 GRAUSTARK PATH WOOSTER, OH 44691","bldgnbr":"2695","predir":null,"streetname":"GRAUSTARK PATH","streettype":null,"suffdir":null,"city":"WOOSTER","state_code":"OH","zip5":"44691","latitude":"40.8321200000000000","longitude":"-81.934220000000000","publicwifi":"U","url":null,"broadband_type_id":6}
{"id":null,"anchorname":"TOWN AND COUNTRY FIRE DISTRICT","address":"11 EAST CONGRESS STREET WEST SALEM, OH 44287","bldgnbr":"11","predir":null,"streetname":"EAST CONGRESS STREET","streettype":null,"suffdir":null,"city":"WEST SALEM","state_code":"OH","zip5":"44287","latitude":"40.9715100000000000","longitude":"-82.109030000000000","publicwifi":"U","url":null,"broadband_type_id":5}
{"id":null,"anchorname":"MARSHALLVILLE VOLUNTEER FIRE DEPARTMENT","address":"4 SOUTH MAIN STREET MARSHALLVILLE, OH 44645","bldgnbr":"4","predir":null,"streetname":"SOUTH MAIN STREET","streettype":null,"suffdir":null,"city":"MARSHALLVILLE","state_code":"OH","zip5":"44645","latitude":"40.9020300000000000","longitude":"-81.733720000000000","publicwifi":"U","url":null,"broadband_type_id":5}
{"id":null,"anchorname":"NORTH CENTRAL JUNIOR/HIGH SCHOOL","address":"400 E BAUBICE ST PIONEER, OH 43554","bldgnbr":"400","predir":null,"streetname":"E BAUBICE ST","streettype":null,"suffdir":null,"city":"PIONEER","state_code":"OH","zip5":"43554","latitude":"41.6795100000000000","longitude":"-84.548410000000000","publicwifi":"U","url":null,"broadband_type_id":6}
{"id":null,"anchorname":"EDON HIGH SCHOOL","address":"802 W INDIANA ST EDON, OH 43518","bldgnbr":"802","predir":null,"streetname":"W INDIANA ST","streettype":null,"suffdir":null,"city":"EDON","state_code":"OH","zip5":"43518","latitude":"41.5581500000000000","longitude":"-84.781090000000000","publicwifi":"U","url":null,"broadband_type_id":6}
{"id":null,"anchorname":"FLORENCE TOWNSHIP FIRE DEPARTMENT","address":"201 SOUTH MICHIGAN STREET EDON, OH 43518","bldgnbr":"201","predir":null,"streetname":"SOUTH MICHIGAN STREET","streettype":null,"suffdir":null,"city":"EDON","state_code":"OH","zip5":"43518","latitude":"41.5552400000000000","longitude":"-84.768620000000000","publicwifi":"U","url":null,"broadband_type_id":5}
{"id":null,"anchorname":"STRYKER BRANCH LIBRARY","address":"304 SOUTH DEFIANCE STRYKER, OH 43557","bldgnbr":"304","predir":null,"streetname":"SOUTH DEFIANCE","streettype":null,"suffdir":null,"city":"STRYKER","state_code":"OH","zip5":"43557","latitude":"41.5022800000000000","longitude":"-84.414520000000000","publicwifi":"No","url":null,"broadband_type_id":6}
{"id":null,"anchorname":"WILLIAMS COUNTY SHERIFF","address":"218 W BRYAN ST BRYAN, OH 43506-1240","bldgnbr":"218","predir":null,"streetname":"W BRYAN ST","streettype":null,"suffdir":null,"city":"BRYAN","state_code":"OH","zip5":"43506","latitude":"41.4761900000000000","longitude":"-84.553300000000000","publicwifi":"U","url":null,"broadband_type_id":4}
{"id":null,"anchorname":"PENTA COUNTY JOINT VOCATIONAL SCHOOL","address":"9301 BUCK ROAD PERRYSBURG, OH 43551-4594","bldgnbr":"9301","predir":null,"streetname":"BUCK ROAD","streettype":null,"suffdir":null,"city":"PERRYSBURG","state_code":"OH","zip5":"43551","latitude":"41.5868000000000000","longitude":"-83.573533000000000","publicwifi":"U","url":null,"broadband_type_id":6}
{"id":null,"anchorname":"CENTER TOWNSHIP FIRE DEPARTMENT","address":"9986 BOWLING GREEN ROAD EAST BOWLING GREEN, OH 43402","bldgnbr":"9986","predir":null,"streetname":"BOWLING GREEN ROAD EAST","streettype":null,"suffdir":null,"city":"BOWLING GREEN","state_code":"OH","zip5":"43402","latitude":"41.3743400000000000","longitude":"-83.582860000000000","publicwifi":"U","url":null,"broadband_type_id":5}
{"id":null,"anchorname":"WYANDOT MEMORIAL HOSPITAL","address":"885 NORTH SANDUSKY AVENUE UPPER SANDUSKY, OH 43351","bldgnbr":"885","predir":null,"streetname":"NORTH SANDUSKY AVENUE","streettype":null,"suffdir":null,"city":"UPPER SANDUSKY","state_code":"OH","zip5":"43351","latitude":"40.8417800000000000","longitude":"-83.280550000000000","publicwifi":"U","url":null,"broadband_type_id":3}
{"id":null,"anchorname":"WYANDOT COUNTY JAIL-SHERIFF OFFICE","address":"125 E WYANDOT AVE UPPER SANDUSKY, OH 43351","bldgnbr":"125","predir":null,"streetname":"E WYANDOT AVE","streettype":null,"suffdir":null,"city":"UPPER SANDUSKY","state_code":"OH","zip5":"43351","latitude":"40.8273800000000000","longitude":"-83.280890000000000","publicwifi":"U","url":null,"broadband_type_id":4}
{"id":null,"anchorname":"CHRISTIE VOLUNTEER FIRE ASSOCIATION","address":"N4670 ROAD","bldgnbr":"N4670","predir":null,"streetname":"Road","streettype":null,"suffdir":null,"city":"WESTVILLE","state_code":"OK","zip5":"74965","latitude":"35.9485293000000000","longitude":"-94.690204000000000","publicwifi":"U","url":null,"broadband_type_id":5}
{"id":null,"anchorname":"ADAIR COUNTY HEALTH DEPARTMENT","address":"600 West Hickory","bldgnbr":"600","predir":"West","streetname":"Hickory","streettype":null,"suffdir":null,"city":"Stilwell","state_code":"OK","zip5":"74960","latitude":"35.8117920000000000","longitude":"-94.634192000000000","publicwifi":"U","url":null,"broadband_type_id":3}
{"id":null,"anchorname":"WARDS CHAPEL FIRE DEPARTMENT","address":"200 SOUTH WARDS CHAPEL ROAD","bldgnbr":"200","predir":"South","streetname":"WARDS CHAPEL","streettype":"Road","suffdir":null,"city":"ATOKA","state_code":"OK","zip5":"74525","latitude":"34.3535193000000000","longitude":"-96.250743800000000","publicwifi":"U","url":null,"broadband_type_id":5}
{"id":null,"anchorname":"Great Plains Regional Medical Center","address":"1705 W 2nd St","bldgnbr":"1705","predir":"West","streetname":"2nd","streettype":"St","suffdir":null,"city":"Elk City","state_code":"OK","zip5":"73644","latitude":"35.4127440000000000","longitude":"-99.425812000000000","publicwifi":"U","url":null,"broadband_type_id":3}
{"id":null,"anchorname":"SOUTHWESTERN OKLAHOMA STATE UNIVERSITY - SAYRE CAMPUS","address":"409 E Mississippi Ave","bldgnbr":"409","predir":"East","streetname":"Mississippi","streettype":"Ave","suffdir":null,"city":"SAYRE","state_code":"OK","zip5":"73662","latitude":"35.3099314700000000","longitude":"-99.635328150000000","publicwifi":"U","url":null,"broadband_type_id":6}
{"id":null,"anchorname":"CANTON VOLUNTEER FIRE DEPARTMENT","address":"310 WEST MAIN STREET","bldgnbr":"310","predir":"West","streetname":"MAIN","streettype":"St","suffdir":null,"city":"CANTON","state_code":"OK","zip5":"73724","latitude":"36.0537401000000000","longitude":"-98.591610300000000","publicwifi":"U","url":null,"broadband_type_id":5}
{"id":null,"anchorname":"GEARY POLICE DEPARTMENT","address":"129 NORTHWEST 5TH STREET","bldgnbr":"129","predir":"Northwest","streetname":"5TH","streettype":"St","suffdir":null,"city":"GEARY","state_code":"OK","zip5":"73040","latitude":"35.6365287000000000","longitude":"-98.318802800000000","publicwifi":"U","url":null,"broadband_type_id":4}
{"id":null,"anchorname":"BOKCHITO VOLUNTEER FIRE DEPARTMENT STATION 1","address":"102 NORTH STATE HIGHWAY 22","bldgnbr":"102","predir":"North","streetname":"22","streettype":null,"suffdir":null,"city":"BOKCHITO","state_code":"OK","zip5":"74726","latitude":"34.0173124000000000","longitude":"-96.144125600000000","publicwifi":"U","url":null,"broadband_type_id":5}
{"id":null,"anchorname":"WEST BRYAN COUNTY FIRE DEPARTMENT STATION 7","address":"3580 UNITED STATES HIGHWAY 70 WEST","bldgnbr":"3580","predir":null,"streetname":"UNITED STATES HIGHWAY 70","streettype":null,"suffdir":"West","city":"MEAD","state_code":"OK","zip5":"73449","latitude":"33.9985102000000000","longitude":"-96.554462500000000","publicwifi":"U","url":null,"broadband_type_id":5}
{"id":null,"anchorname":"DURANT - ROBERT L WILLIAMS PUBLIC LIBRARY","address":"323 WEST BEECH","bldgnbr":"323","predir":"West","streetname":"BEECH","streettype":null,"suffdir":null,"city":"DURANT","state_code":"OK","zip5":"74701","latitude":"33.9935330000000000","longitude":"-96.378255000000000","publicwifi":"U","url":null,"broadband_type_id":6}
{"id":null,"anchorname":"HINTON POLICE DEPARTMENT","address":"115 EAST MAIN STREET","bldgnbr":"115","predir":"East","streetname":"MAIN","streettype":"St","suffdir":null,"city":"HINTON","state_code":"OK","zip5":"73047","latitude":"35.4711052000000000","longitude":"-98.354547200000000","publicwifi":"U","url":null,"broadband_type_id":4}
{"id":null,"anchorname":"Carnegie Town Hall","address":"11 E Main","bldgnbr":"11","predir":"East","streetname":"Main","streettype":null,"suffdir":null,"city":"Carnegie","state_code":"OK","zip5":"73015","latitude":"35.1060900000000000","longitude":"-98.604130000000000","publicwifi":"U","url":null,"broadband_type_id":1}
{"id":null,"anchorname":"COMANCHE COUNTY HOSPITAL AUTHORITY","address":"624 S. Cobb Lk","bldgnbr":"624","predir":"South","streetname":"Cobb","streettype":"Lake","suffdir":null,"city":"Apache","state_code":"OK","zip5":"73006","latitude":"34.8922970000000000","longitude":"-98.365671000000000","publicwifi":"U","url":null,"broadband_type_id":3}
{"id":null,"anchorname":"OKARCHE POLICE DEPARTMENT","address":"103 WEST OKLAHOMA AVENUE","bldgnbr":"103","predir":"West","streetname":"OKLAHOMA","streettype":"Ave","suffdir":null,"city":"OKARCHE","state_code":"OK","zip5":"73762","latitude":"35.7255995000000000","longitude":"-97.974099400000000","publicwifi":"U","url":null,"broadband_type_id":4}
{"id":null,"anchorname":"RICHLAND VOLUNTEER FIRE DEPARTMENT","address":"10500 NORTH 5TH STREET","bldgnbr":"10500","predir":"North","streetname":"5TH","streettype":"St","suffdir":null,"city":"YUKON","state_code":"OK","zip5":"73099","latitude":"35.5767676000000000","longitude":"-97.803517700000000","publicwifi":"U","url":null,"broadband_type_id":5}
{"id":null,"anchorname":"ARDMORE PUBLIC LIBRARY","address":"320 E STREET NW","bldgnbr":"320","predir":null,"streetname":"E","streettype":"St","suffdir":"Northwest","city":"ARDMORE","state_code":"OK","zip5":"73401","latitude":"34.1779070000000000","longitude":"-97.133342000000000","publicwifi":"U","url":null,"broadband_type_id":6}
{"id":null,"anchorname":"LOWREY VOLUNTEER FIRE DEPARTMENT STATION 2","address":"19300 EAST 660 ROAD","bldgnbr":"19300","predir":"East","streetname":"660","streettype":"Road","suffdir":null,"city":"TAHLEQUAH","state_code":"OK","zip5":"74464","latitude":"36.0598918000000000","longitude":"-94.953307800000000","publicwifi":"U","url":null,"broadband_type_id":5}
{"id":null,"anchorname":"TAHLEQUAH FIRE DEPARTMENT","address":"125 EAST CHICKASAW STREET","bldgnbr":"125","predir":"East","streetname":"CHICKASAW","streettype":"St","suffdir":null,"city":"TAHLEQUAH","state_code":"OK","zip5":"74464","latitude":"35.9100794000000000","longitude":"-94.971361400000000","publicwifi":"U","url":null,"broadband_type_id":5}
{"id":null,"anchorname":"HUGO - CHOCTAW COUNTY PUBLIC LIBRARY","address":"703 EAST JACKSON","bldgnbr":"703","predir":"East","streetname":"JACKSON","streettype":null,"suffdir":null,"city":"HUGO","state_code":"OK","zip5":"74743","latitude":"34.0106490000000000","longitude":"-95.505003000000000","publicwifi":"U","url":null,"broadband_type_id":6}
{"id":null,"anchorname":"Lane Frost Health and Rehabilitation Center","address":"2815 E Jackson St","bldgnbr":"2815","predir":"East","streetname":"Jackson","streettype":"St","suffdir":null,"city":"Hugo","state_code":"OK","zip5":"74743","latitude":"34.0012680000000000","longitude":"-95.482342000000000","publicwifi":"U","url":null,"broadband_type_id":3}
{"id":null,"anchorname":"NEWPORT ELEMENTARY SCHOOL","address":"100 HARRISON STREET NEWPORT, OH 45768","bldgnbr":"100","predir":null,"streetname":"HARRISON STREET","streettype":null,"suffdir":null,"city":"NEWPORT","state_code":"OH","zip5":"45768","latitude":"39.3930140000000000","longitude":"-81.226772000000000","publicwifi":"U","url":null,"broadband_type_id":6}
{"id":null,"anchorname":"CENTRAL FIRE DISTRICT STATION 1 - HEADQUARTERS","address":"232 NORTH SUMMIT STREET SMITHVILLE, OH 44677","bldgnbr":"232","predir":null,"streetname":"NORTH SUMMIT STREET","streettype":null,"suffdir":null,"city":"SMITHVILLE","state_code":"OH","zip5":"44677","latitude":"40.8637500000000000","longitude":"-81.861740000000000","publicwifi":"U","url":null,"broadband_type_id":5}
{"id":null,"anchorname":"ORRVILLE FIRE DEPARTMENT - HEADQUARTERS","address":"223 NORTH VINE STREET ORRVILLE, OH 44667","bldgnbr":"223","predir":null,"streetname":"NORTH VINE STREET","streettype":null,"suffdir":null,"city":"ORRVILLE","state_code":"OH","zip5":"44667","latitude":"40.8419800000000000","longitude":"-81.765780000000000","publicwifi":"U","url":null,"broadband_type_id":5}
{"id":null,"anchorname":"RITTMAN FIRE DEPARTMENT","address":"33 EAST OHIO AVENUE RITTMAN, OH 44270","bldgnbr":"33","predir":null,"streetname":"EAST OHIO AVENUE","streettype":null,"suffdir":null,"city":"RITTMAN","state_code":"OH","zip5":"44270","latitude":"40.9729000000000000","longitude":"-81.780620000000000","publicwifi":"U","url":null,"broadband_type_id":5}
{"id":null,"anchorname":"INDIAN HILLS ELEMENTARY SCHOOL","address":"401 GLENWOOD RD ROSSFORD, OH 43460","bldgnbr":"401","predir":null,"streetname":"GLENWOOD RD","streettype":null,"suffdir":null,"city":"ROSSFORD","state_code":"OH","zip5":"43460","latitude":"41.6033200000000000","longitude":"-83.557540000000000","publicwifi":"U","url":null,"broadband_type_id":6}
{"id":null,"anchorname":"LAKE TOWNSHIP FIRE DEPARTMENT STATION 2","address":"1911 AYERS ROAD MILLBURY, OH 43447","bldgnbr":"1911","predir":null,"streetname":"AYERS ROAD","streettype":null,"suffdir":null,"city":"MILLBURY","state_code":"OH","zip5":"43447","latitude":"41.5731500000000000","longitude":"-83.431100000000000","publicwifi":"U","url":null,"broadband_type_id":5}
{"id":null,"anchorname":"WESTON EMERGENCY MEDICAL SERVICES","address":"20761 TAYLOR STREET WESTON, OH 43569","bldgnbr":"20761","predir":null,"streetname":"TAYLOR STREET","streettype":null,"suffdir":null,"city":"WESTON","state_code":"OH","zip5":"43569","latitude":"41.3428900000000000","longitude":"-83.800100000000000","publicwifi":"U","url":null,"broadband_type_id":3}
{"id":null,"anchorname":"TENDER AGE DAY CARE","address":"1214 W WOOSTER ST BOWLING GREEN, OH 43402-2637","bldgnbr":"1214","predir":null,"streetname":"W WOOSTER ST","streettype":null,"suffdir":null,"city":"BOWLING GREEN","state_code":"OH","zip5":"43402","latitude":"41.3725900000000000","longitude":"-83.671020000000000","publicwifi":"U","url":null,"broadband_type_id":3}
{"id":null,"anchorname":"CRIM ELEMENTARY SCHOOL","address":"1020 SCOTT HAMILTON AVE BOWLING GREEN, OH 43402","bldgnbr":"1020","predir":null,"streetname":"SCOTT HAMILTON AVE","streettype":null,"suffdir":null,"city":"BOWLING GREEN","state_code":"OH","zip5":"43402","latitude":"41.3706200000000000","longitude":"-83.637580000000000","publicwifi":"U","url":null,"broadband_type_id":6}
{"id":null,"anchorname":"NORTH BALTIMORE HIGH SCHOOL","address":"2012 TIGER DR NORTH BALTIMORE, OH 45872","bldgnbr":"2012","predir":null,"streetname":"TIGER DR","streettype":null,"suffdir":null,"city":"NORTH BALTIMORE","state_code":"OH","zip5":"45872","latitude":"41.1877550000000000","longitude":"-83.665872000000000","publicwifi":"U","url":null,"broadband_type_id":6}
{"id":null,"anchorname":"WESTVILLE FIRE DEPARTMENT STATION 1","address":"BUFFINGTON ROAD","bldgnbr":"N/A","predir":null,"streetname":"N/A","streettype":null,"suffdir":null,"city":"WESTVILLE","state_code":"OK","zip5":"74965","latitude":"35.9955310000000000","longitude":"-94.576829500000000","publicwifi":"U","url":null,"broadband_type_id":5}
{"id":null,"anchorname":"WESTVILLE FIRE DEPARTMENT STATION 2","address":"221 SOUTH WILLIAMS AVENUE","bldgnbr":"221","predir":"South","streetname":"WILLIAMS","streettype":"Ave","suffdir":null,"city":"WESTVILLE","state_code":"OK","zip5":"74965","latitude":"35.9920817000000000","longitude":"-94.567263100000000","publicwifi":"U","url":null,"broadband_type_id":5}
{"id":null,"anchorname":"CHEROKEE POLICE DEPARTMENT","address":"121 NORTH GRAND AVENUE","bldgnbr":"121","predir":"North","streetname":"GRAND","streettype":"Ave","suffdir":null,"city":"CHEROKEE","state_code":"OK","zip5":"73728","latitude":"36.7586358000000000","longitude":"-98.357521400000000","publicwifi":"U","url":null,"broadband_type_id":4}
{"id":null,"anchorname":"WARDVILLE RURAL VOLUNTEER FIRE DEPARTMENT","address":"100 A NORTH MAIN STREET","bldgnbr":"100","predir":null,"streetname":"A NORTH MAIN","streettype":"St","suffdir":null,"city":"WARDVILLE","state_code":"OK","zip5":"74576","latitude":"34.6581434000000000","longitude":"-96.030294500000000","publicwifi":"U","url":null,"broadband_type_id":5}
{"id":null,"anchorname":"ELK CITY POLICE DEPARTMENT","address":"422 EAST 3RD STREET","bldgnbr":"422","predir":"East","streetname":"3RD","streettype":"St","suffdir":null,"city":"ELK CITY","state_code":"OK","zip5":"73644","latitude":"35.4112396000000000","longitude":"-99.400115100000000","publicwifi":"U","url":null,"broadband_type_id":4}
{"id":null,"anchorname":"Achille Town Hall","address":"500 N 2nd Ave","bldgnbr":"500","predir":"North","streetname":"2nd","streettype":"Ave","suffdir":null,"city":"Achille","state_code":"OK","zip5":"74720","latitude":"33.8311800000000000","longitude":"-96.390140000000000","publicwifi":"U","url":null,"broadband_type_id":1}
{"id":null,"anchorname":"ALDEN FIRE DEPARTMENT","address":"STATE HIGHWAY 58","bldgnbr":"N/A","predir":null,"streetname":"N/A","streettype":null,"suffdir":null,"city":"CARNEGIE","state_code":"OK","zip5":"73015","latitude":"34.9834876000000000","longitude":"-98.603083800000000","publicwifi":"U","url":null,"broadband_type_id":5}
{"id":null,"anchorname":"OKARCHE FIRE DEPARTMENT","address":"103 WEST OKLAHOMA AVENUE","bldgnbr":"103","predir":"West","streetname":"OKLAHOMA","streettype":"Ave","suffdir":null,"city":"OKARCHE","state_code":"OK","zip5":"73762","latitude":"35.7255963000000000","longitude":"-97.974097500000000","publicwifi":"U","url":null,"broadband_type_id":5}
{"id":null,"anchorname":"INTEGRIS Canadian Valley Regional Hospital","address":"1201 Health Center Pkwy","bldgnbr":"1201","predir":null,"streetname":"Health Center","streettype":"Parkway","suffdir":null,"city":"Yukon","state_code":"OK","zip5":"73099","latitude":"35.4836250000000000","longitude":"-97.762385000000000","publicwifi":"U","url":null,"broadband_type_id":3}
{"id":null,"anchorname":"CARTER COUNTY HEALTH DEPARTMENT","address":"City Hall, 308 Franklin","bldgnbr":"N/A","predir":null,"streetname":"N/A","streettype":null,"suffdir":null,"city":"Healdton","state_code":"OK","zip5":"73438","latitude":"34.2340280000000000","longitude":"-97.486709000000000","publicwifi":"U","url":null,"broadband_type_id":3}
{"id":null,"anchorname":"WILSON POLICE DEPARTMENT","address":"1065 UNITED STATES HIGHWAY 70A","bldgnbr":"1065","predir":null,"streetname":"UNITED STATES HIGHWAY 70A","streettype":null,"suffdir":null,"city":"WILSON","state_code":"OK","zip5":"73463","latitude":"34.1618482000000000","longitude":"-97.424728100000000","publicwifi":"U","url":null,"broadband_type_id":4}
{"id":null,"anchorname":"Northeastern Oklahoma Community Health Centers(NEO Satellite)","address":"407 Daisy Drive","bldgnbr":"407","predir":null,"streetname":"Daisy","streettype":"Drive","suffdir":null,"city":"Tahlequah","state_code":"OK","zip5":"74464","latitude":"35.8903420000000000","longitude":"-94.981389000000000","publicwifi":"U","url":null,"broadband_type_id":3}
{"id":null,"anchorname":"TAHLEQUAH POLICE DEPARTMENT","address":"101 SOUTH CHEROKEE AVENUE","bldgnbr":"101","predir":"South","streetname":"CHEROKEE","streettype":"Ave","suffdir":null,"city":"TAHLEQUAH","state_code":"OK","zip5":"74464","latitude":"35.9135019000000000","longitude":"-94.973416800000000","publicwifi":"U","url":null,"broadband_type_id":4}
{"id":null,"anchorname":"HUGO FIRE DEPARTMENT STATION 2","address":"508 WEST MAIN STREET","bldgnbr":"508","predir":"West","streetname":"MAIN","streettype":"St","suffdir":null,"city":"HUGO","state_code":"OK","zip5":"74743","latitude":"34.0083748000000000","longitude":"-95.518220000000000","publicwifi":"U","url":null,"broadband_type_id":5}
{"id":null,"anchorname":"CLEVELAND COUNTY SHERIFFS OFFICE / CLEVELAND COUNTY DETENTION CENTER","address":"203 SOUTH JONES AVENUE","bldgnbr":"203","predir":"South","streetname":"JONES","streettype":"Ave","suffdir":null,"city":"NORMAN","state_code":"OK","zip5":"73069","latitude":"35.2195521000000000","longitude":"-97.441816700000000","publicwifi":"U","url":null,"broadband_type_id":4}
{"id":null,"anchorname":"Lexington Town Hall","address":"111 E Broadway Street","bldgnbr":"111","predir":"East","streetname":"Broadway","streettype":"St","suffdir":null,"city":"Lexington","state_code":"OK","zip5":"73051","latitude":"35.0151000000000000","longitude":"-97.335300000000000","publicwifi":"U","url":null,"broadband_type_id":1}
{"id":null,"anchorname":"TUPELO FIRE DEPARTMENT - CENTRAHOMA STATION","address":"MAIN STREET","bldgnbr":"N/A","predir":null,"streetname":"N/A","streettype":null,"suffdir":null,"city":"CENTRAHOMA","state_code":"OK","zip5":"74534","latitude":"34.6100956000000000","longitude":"-96.344964200000000","publicwifi":"U","url":null,"broadband_type_id":5}
{"id":null,"anchorname":"Southwestern Medical Center","address":"5602 SW Lee Blvd","bldgnbr":"5602","predir":"Southwest","streetname":"Lee","streettype":"Boulevard","suffdir":null,"city":"Lawton","state_code":"OK","zip5":"73505","latitude":"34.5943050000000000","longitude":"-98.461829000000000","publicwifi":"U","url":null,"broadband_type_id":3}
{"id":null,"anchorname":"LAWTON FIRE DEPARTMENT STATION 4","address":"2409 NORTHWEST CACHE ROAD","bldgnbr":"2409","predir":"Northwest","streetname":"CACHE","streettype":"Road","suffdir":null,"city":"LAWTON","state_code":"OK","zip5":"73505","latitude":"34.6237638000000000","longitude":"-98.427406000000000","publicwifi":"U","url":null,"broadband_type_id":5}
{"id":null,"anchorname":"Reynolds Army Community Hospital","address":"4301 NW Mow Way Rd","bldgnbr":"4301","predir":"Northwest","streetname":"Mow Way","streettype":"Road","suffdir":null,"city":"Fort Sill","state_code":"OK","zip5":"73503","latitude":"34.6497440000000000","longitude":"-98.422737000000000","publicwifi":"U","url":null,"broadband_type_id":3}
{"id":null,"anchorname":"BIG CABIN VOLUNTEER FIRE DEPARTMENT","address":"134 WEST MAIN STREET","bldgnbr":"134","predir":"West","streetname":"MAIN","streettype":"St","suffdir":null,"city":"BIG CABIN","state_code":"OK","zip5":"74332","latitude":"36.5383808000000000","longitude":"-95.221982700000000","publicwifi":"U","url":null,"broadband_type_id":5}
{"id":null,"anchorname":"CREEK COUNTY HEALTH DEPARTMENT","address":"1808 South Hickory","bldgnbr":"1808","predir":"South","streetname":"Hickory","streettype":null,"suffdir":null,"city":"Sapulpa","state_code":"OK","zip5":"74066","latitude":"35.9790590000000000","longitude":"-96.118941000000000","publicwifi":"U","url":null,"broadband_type_id":3}
{"id":null,"anchorname":"WEATHERFORD POLICE DEPARTMENT","address":"201 SOUTHWEST MAIN STREET","bldgnbr":"201","predir":"Southwest","streetname":"MAIN","streettype":"St","suffdir":null,"city":"WEATHERFORD","state_code":"OK","zip5":"73096","latitude":"35.5246265000000000","longitude":"-98.713721700000000","publicwifi":"U","url":null,"broadband_type_id":4}
{"id":null,"anchorname":"Jay City Hall","address":"102 S 5th St","bldgnbr":"102","predir":"South","streetname":"5th","streettype":"St","suffdir":null,"city":"Jay","state_code":"OK","zip5":"74346","latitude":"36.4232500000000000","longitude":"-94.797250000000000","publicwifi":"U","url":null,"broadband_type_id":1}
{"id":null,"anchorname":"COLCORD POLICE DEPARTMENT","address":"107 EAST MAIN STREET","bldgnbr":"107","predir":"East","streetname":"MAIN","streettype":"St","suffdir":null,"city":"COLCORD","state_code":"OK","zip5":"74338","latitude":"36.2642749000000000","longitude":"-94.691819900000000","publicwifi":"U","url":null,"broadband_type_id":4}
{"id":null,"anchorname":"GAGE POLICE DEPARTMENT","address":"513 NORTH MAIN STREET","bldgnbr":"513","predir":"North","streetname":"MAIN","streettype":"St","suffdir":null,"city":"GAGE","state_code":"OK","zip5":"73843","latitude":"36.3204361000000000","longitude":"-99.756462000000000","publicwifi":"U","url":null,"broadband_type_id":4}
{"id":null,"anchorname":"SHATTUCK POLICE DEPARTMENT","address":"405 SOUTH MAIN STREET","bldgnbr":"405","predir":"South","streetname":"MAIN","streettype":"St","suffdir":null,"city":"SHATTUCK","state_code":"OK","zip5":"73858","latitude":"36.2726408000000000","longitude":"-99.881816600000000","publicwifi":"U","url":null,"broadband_type_id":4}
{"id":null,"anchorname":"NORTH ENID POLICE DEPARTMENT","address":"220 REDWOOD","bldgnbr":"220","predir":null,"streetname":"REDWOOD","streettype":null,"suffdir":null,"city":"ENID","state_code":"OK","zip5":"73701","latitude":"36.4363098000000000","longitude":"-97.866663000000000","publicwifi":"U","url":null,"broadband_type_id":4}
{"id":null,"anchorname":"PAOLI POLICE DEPARTMENT","address":"406 WEST DAVIS STREET","bldgnbr":"406","predir":"West","streetname":"DAVIS","streettype":"St","suffdir":null,"city":"PAOLI","state_code":"OK","zip5":"73074","latitude":"34.8256049000000000","longitude":"-97.263579000000000","publicwifi":"U","url":null,"broadband_type_id":4}
{"id":null,"anchorname":"VERDEN VOLUNTEER FIRE DEPARTMENT","address":"101 MORRIS AVENUE","bldgnbr":"101","predir":null,"streetname":"MORRIS","streettype":"Ave","suffdir":null,"city":"VERDEN","state_code":"OK","zip5":"73092","latitude":"35.0855435000000000","longitude":"-98.088589900000000","publicwifi":"U","url":null,"broadband_type_id":5}
{"id":null,"anchorname":"CHEROKEE COUNTY SHERIFFS OFFICE","address":"213 WEST DELAWARE STREET","bldgnbr":"213","predir":"West","streetname":"DELAWARE","streettype":"St","suffdir":null,"city":"TAHLEQUAH","state_code":"OK","zip5":"74464","latitude":"35.9137450000000000","longitude":"-94.973271000000000","publicwifi":"U","url":null,"broadband_type_id":4}
{"id":null,"anchorname":"CHEROKEE COUNTY HEALTH DEPARTMENT","address":"912 South College","bldgnbr":"912","predir":"South","streetname":"College","streettype":null,"suffdir":null,"city":"Tahlequah","state_code":"OK","zip5":"74464","latitude":"35.9037880000000000","longitude":"-94.975691000000000","publicwifi":"U","url":null,"broadband_type_id":3}
{"id":null,"anchorname":"SPEER FIRE DEPARTMENT","address":"2163 EAST 1990 ROAD","bldgnbr":"2163","predir":"East","streetname":"1990","streettype":"Road","suffdir":null,"city":"HUGO","state_code":"OK","zip5":"74743","latitude":"34.1279833000000000","longitude":"-95.565720700000000","publicwifi":"U","url":null,"broadband_type_id":5}
{"id":null,"anchorname":"CIMARRON MEMORIAL RURAL HEALTH CLINIC","address":"102 S. Ellis","bldgnbr":"102","predir":"South","streetname":"Ellis","streettype":null,"suffdir":null,"city":"Boise City","state_code":"OK","zip5":"73933","latitude":"36.7297380000000000","longitude":"-102.51759700000000","publicwifi":"U","url":null,"broadband_type_id":3}
{"id":null,"anchorname":"UNIVERSITY OF OKLAHOMA POLICE DEPARTMENT","address":"2775 SOUTH MONITOR AVENUE","bldgnbr":"2775","predir":"South","streetname":"MONITOR","streettype":"Ave","suffdir":null,"city":"NORMAN","state_code":"OK","zip5":"73072","latitude":"35.1898080000000000","longitude":"-97.434978100000000","publicwifi":"U","url":null,"broadband_type_id":4}
{"id":null,"anchorname":"MOORE POLICE DEPARTMENT","address":"117 EAST MAIN STREET","bldgnbr":"117","predir":"East","streetname":"MAIN","streettype":"St","suffdir":null,"city":"MOORE","state_code":"OK","zip5":"73160","latitude":"35.3385289000000000","longitude":"-97.485747400000000","publicwifi":"U","url":null,"broadband_type_id":4}
{"id":null,"anchorname":"OKLAHOMA CITY FIRE DEPARTMENT STATION 36","address":"17700 SOUTHEAST 104TH STREET","bldgnbr":"17700","predir":"Southeast","streetname":"104TH","streettype":"St","suffdir":null,"city":"NEWALLA","state_code":"OK","zip5":"74857","latitude":"35.3623101000000000","longitude":"-97.217617200000000","publicwifi":"U","url":null,"broadband_type_id":5}
{"id":null,"anchorname":"FLETCHER VOLUNTEER FIRE DEPARTMENT","address":"321 NORTH DRIVE","bldgnbr":"321","predir":null,"streetname":"NORTH","streettype":"Drive","suffdir":null,"city":"FLETCHER","state_code":"OK","zip5":"73541","latitude":"34.8264921000000000","longitude":"-98.246645400000000","publicwifi":"U","url":null,"broadband_type_id":5}
{"id":null,"anchorname":"GERONIMO POLICE DEPARTMENT","address":"100 WEST MAIN STREET","bldgnbr":"100","predir":"West","streetname":"MAIN","streettype":"St","suffdir":null,"city":"GERONIMO","state_code":"OK","zip5":"73543","latitude":"34.4805486000000000","longitude":"-98.389338700000000","publicwifi":"U","url":null,"broadband_type_id":4}
{"id":null,"anchorname":"DEVOL VOLUNTEER FIRE DEPARTMENT","address":"WICHITA AVENUE","bldgnbr":"N/A","predir":null,"streetname":"N/A","streettype":null,"suffdir":null,"city":"DEVOL","state_code":"OK","zip5":"73531","latitude":"34.1937043000000000","longitude":"-98.589650800000000","publicwifi":"U","url":null,"broadband_type_id":5}
{"id":null,"anchorname":"Bluejacket Town Hall","address":"122 SE 3rd St","bldgnbr":"122","predir":"Southeast","streetname":"3rd","streettype":"St","suffdir":null,"city":"Bluejacket","state_code":"OK","zip5":"74333","latitude":"36.7967570000000000","longitude":"-95.071406000000000","publicwifi":"U","url":null,"broadband_type_id":1}
{"id":null,"anchorname":"Ketchum Town Hall","address":"124 Broadway Ave","bldgnbr":"124","predir":null,"streetname":"Broadway","streettype":"Ave","suffdir":null,"city":"Ketchum","state_code":"OK","zip5":"74349","latitude":"36.5273700000000000","longitude":"-95.025608000000000","publicwifi":"U","url":null,"broadband_type_id":1}
{"id":null,"anchorname":"CUSTER COUNTY HEALTH DEPARTMENT","address":"3030 Custer Avenue","bldgnbr":"3030","predir":null,"streetname":"Custer","streettype":"Ave","suffdir":null,"city":"Clinton","state_code":"OK","zip5":"73601","latitude":"35.5160260000000000","longitude":"-98.992963000000000","publicwifi":"U","url":null,"broadband_type_id":3}
{"id":null,"anchorname":"THOMAS VOLUNTEER FIRE DEPARTMENT","address":"320 EAST FRISCO AVENUE","bldgnbr":"320","predir":"East","streetname":"FRISCO","streettype":"Ave","suffdir":null,"city":"THOMAS","state_code":"OK","zip5":"73669","latitude":"35.7425685000000000","longitude":"-98.744007200000000","publicwifi":"U","url":null,"broadband_type_id":5}
{"id":null,"anchorname":"CLEORA COMMUNITY FIRE DEPARTMENT","address":"30527 STATE HIGHWAY 85 SOUTH","bldgnbr":"30527","predir":null,"streetname":"85","streettype":null,"suffdir":"South","city":"AFTON","state_code":"OK","zip5":"74331","latitude":"36.5742334000000000","longitude":"-94.971112300000000","publicwifi":"U","url":null,"broadband_type_id":5}
{"id":null,"anchorname":"KANSAS VOLUNTEER FIRE DEPARTMENT","address":"130 NORTH WOODS AVENUE","bldgnbr":"130","predir":"North","streetname":"WOODS","streettype":"Ave","suffdir":null,"city":"KANSAS","state_code":"OK","zip5":"74347","latitude":"36.2059732000000000","longitude":"-94.803637800000000","publicwifi":"U","url":null,"broadband_type_id":5}
{"id":null,"anchorname":"Colcord Town Hall","address":"128 Colcord Ave","bldgnbr":"128","predir":null,"streetname":"Colcord","streettype":"Ave","suffdir":null,"city":"Colcord","state_code":"OK","zip5":"74338","latitude":"36.2628600000000000","longitude":"-94.692990000000000","publicwifi":"U","url":null,"broadband_type_id":1}
{"id":null,"anchorname":"INTEGRIS Bass Baptist Health Center","address":"600 S Monroe St","bldgnbr":"600","predir":"South","streetname":"Monroe","streettype":"St","suffdir":null,"city":"Enid","state_code":"OK","zip5":"73701","latitude":"36.3910320000000000","longitude":"-97.886558000000000","publicwifi":"U","url":null,"broadband_type_id":3}
{"id":null,"anchorname":"COVINGTON VOLUNTEER FIRE AND RESCUE","address":"109 WEST MAIN STREET","bldgnbr":"109","predir":"West","streetname":"MAIN","streettype":"St","suffdir":null,"city":"COVINGTON","state_code":"OK","zip5":"73730","latitude":"36.3055848000000000","longitude":"-97.587351500000000","publicwifi":"U","url":null,"broadband_type_id":5}
{"id":null,"anchorname":"MEDICAL CENTER OF STRATFORD, I","address":"217 W. Smith","bldgnbr":"217","predir":"West","streetname":"Smith","streettype":null,"suffdir":null,"city":"Stratford","state_code":"OK","zip5":"74872","latitude":"34.7966070000000000","longitude":"-96.964136000000000","publicwifi":"U","url":null,"broadband_type_id":3}
{"id":null,"anchorname":"Paoli Town Hall","address":"406 W Davis St","bldgnbr":"406","predir":"West","streetname":"Davis","streettype":"St","suffdir":null,"city":"Paoli","state_code":"OK","zip5":"73074","latitude":"34.8262100000000000","longitude":"-97.267780000000000","publicwifi":"U","url":null,"broadband_type_id":1}
{"id":null,"anchorname":"GRADY COUNTY FIRE DEPARTMENT - BAILEY STATION","address":"1497 COUNTY ROAD 1590","bldgnbr":"1497","predir":null,"streetname":"1590","streettype":null,"suffdir":null,"city":"RUSH SPRINGS","state_code":"OK","zip5":"73082","latitude":"34.7101819000000000","longitude":"-97.844593100000000","publicwifi":"U","url":null,"broadband_type_id":5}
{"id":null,"anchorname":"Mangum Community Hospital","address":"1 Wickersham St","bldgnbr":"1","predir":null,"streetname":"Wickersham","streettype":"St","suffdir":null,"city":"Mangum","state_code":"OK","zip5":"73554","latitude":"34.8918750000000000","longitude":"-99.501318000000000","publicwifi":"U","url":null,"broadband_type_id":3}
{"id":null,"anchorname":"HESTER RURAL VOLUNTEER FIRE DEPARTMENT","address":"NORTH COUNTY ROAD 1980","bldgnbr":"N/A","predir":null,"streetname":"N/A","streettype":null,"suffdir":null,"city":"MANGUM","state_code":"OK","zip5":"73554","latitude":"34.8185158000000000","longitude":"-99.441402300000000","publicwifi":"U","url":null,"broadband_type_id":5}
{"id":null,"anchorname":"HARMON COUNTY SHERIFFS OFFICE / HARMON COUNTY JAIL","address":"105 WEST JONES STREET","bldgnbr":"105","predir":"West","streetname":"JONES","streettype":"St","suffdir":null,"city":"HOLLIS","state_code":"OK","zip5":"73550","latitude":"34.6826304000000000","longitude":"-99.918832200000000","publicwifi":"U","url":null,"broadband_type_id":4}
{"id":null,"anchorname":"SELMAN FIRE DEPARTMENT","address":"100 WEST MAIN STREET","bldgnbr":"100","predir":"West","streetname":"MAIN","streettype":"St","suffdir":null,"city":"BUFFALO","state_code":"OK","zip5":"73834","latitude":"36.8035841000000000","longitude":"-99.492627900000000","publicwifi":"U","url":null,"broadband_type_id":5}
{"id":null,"anchorname":"HOLDENVILLE GENERAL HOSPITAL RURAL HEALTH CLINIC","address":"100 McDougal Dr.","bldgnbr":"100","predir":null,"streetname":"McDougal Dr.","streettype":null,"suffdir":null,"city":"Holdenville","state_code":"OK","zip5":"74848","latitude":"35.0882640000000000","longitude":"-96.378252000000000","publicwifi":"U","url":null,"broadband_type_id":3}
{"id":null,"anchorname":"MARTHA VOLUNTEER FIRE DEPARTMENT","address":"110 SCHOOL STREET","bldgnbr":"110","predir":null,"streetname":"SCHOOL","streettype":"St","suffdir":null,"city":"MARTHA","state_code":"OK","zip5":"73556","latitude":"34.7243145000000000","longitude":"-99.384339500000000","publicwifi":"U","url":null,"broadband_type_id":5}
{"id":null,"anchorname":"PONCA CITY FIRE DEPARTMENT STATION 2","address":"2600 NORTH ASH STREET","bldgnbr":"2600","predir":"North","streetname":"ASH","streettype":"St","suffdir":null,"city":"PONCA CITY","state_code":"OK","zip5":"74601","latitude":"36.7349917000000000","longitude":"-97.091956600000000","publicwifi":"U","url":null,"broadband_type_id":5}
{"id":null,"anchorname":"MOUNTAIN VIEW POLICE DEPARTMENT","address":"114 SOUTH 2ND STREET","bldgnbr":"114","predir":"South","streetname":"2ND","streettype":"St","suffdir":null,"city":"MOUNTAIN VIEW","state_code":"OK","zip5":"73062","latitude":"35.0973161000000000","longitude":"-98.745482000000000","publicwifi":"U","url":null,"broadband_type_id":4}
{"id":null,"anchorname":"RED OAK FIRE DEPARTMENT","address":"109 NORTHWEST DIVISION STREET","bldgnbr":"109","predir":"Northwest","streetname":"DIVISION","streettype":"St","suffdir":null,"city":"RED OAK","state_code":"OK","zip5":"74563","latitude":"34.9521518000000000","longitude":"-95.079223500000000","publicwifi":"U","url":null,"broadband_type_id":5}
{"id":null,"anchorname":"CARNEY POLICE DEPARTMENT","address":"202 NORTH MAIN STREET","bldgnbr":"202","predir":"North","streetname":"MAIN","streettype":"St","suffdir":null,"city":"CARNEY","state_code":"OK","zip5":"74832","latitude":"35.8085375000000000","longitude":"-97.012096100000000","publicwifi":"U","url":null,"broadband_type_id":4}
{"id":null,"anchorname":"EASTMAN COMMUNITY VOLUNTEER FIRE DEPARTMENT","address":"EASTMAN ROAD","bldgnbr":"N/A","predir":null,"streetname":"N/A","streettype":null,"suffdir":null,"city":"OVERBROOK","state_code":"OK","zip5":"73453","latitude":"33.9500062000000000","longitude":"-97.282128200000000","publicwifi":"U","url":null,"broadband_type_id":5}
{"id":null,"anchorname":"WASHINGTON POLICE DEPARTMENT","address":"204 NORTH MAIN STREET","bldgnbr":"204","predir":"North","streetname":"MAIN","streettype":"St","suffdir":null,"city":"WASHINGTON","state_code":"OK","zip5":"73093","latitude":"35.0601890000000000","longitude":"-97.484140700000000","publicwifi":"U","url":null,"broadband_type_id":4}
{"id":null,"anchorname":"MCCLAIN COUNTY SHERIFFS OFFICE / ESAU R. GREEN DETENTION CENTER","address":"121 NORTH 2ND AVENUE","bldgnbr":"121","predir":"North","streetname":"2ND","streettype":"Ave","suffdir":null,"city":"PURCELL","state_code":"OK","zip5":"73080","latitude":"35.0132045000000000","longitude":"-97.361631600000000","publicwifi":"U","url":null,"broadband_type_id":4}
{"id":null,"anchorname":"SHINEWELL FIRE DEPARTMENT - GOODWATER SUBSTATION","address":"GOODWATER ROAD","bldgnbr":"N/A","predir":null,"streetname":"N/A","streettype":null,"suffdir":null,"city":"HAWORTH","state_code":"OK","zip5":"74740","latitude":"33.9104466000000000","longitude":"-94.575049300000000","publicwifi":"U","url":null,"broadband_type_id":5}
{"id":null,"anchorname":"VIVIAN AREA FIRE PROTECTION ASSOCIATION - STIDHAM","address":"EAST 1130 ROAD","bldgnbr":"EAST 1130","predir":null,"streetname":"Road","streettype":null,"suffdir":null,"city":"STIDHAM","state_code":"OK","zip5":"74432","latitude":"35.3766282000000000","longitude":"-95.699464000000000","publicwifi":"U","url":null,"broadband_type_id":5}
{"id":null,"anchorname":"EUFAULA POLICE DEPARTMENT","address":"107 MCKINLEY AVENUE","bldgnbr":"107","predir":null,"streetname":"MCKINLEY","streettype":"Ave","suffdir":null,"city":"EUFAULA","state_code":"OK","zip5":"74432","latitude":"35.2868031000000000","longitude":"-95.579584900000000","publicwifi":"U","url":null,"broadband_type_id":4}
{"id":null,"anchorname":"Ames Town Hall","address":"106 E Corporate Dr","bldgnbr":"106","predir":"East","streetname":"Corporate","streettype":"Drive","suffdir":null,"city":"Ames","state_code":"OK","zip5":"73718","latitude":"36.2495900000000000","longitude":"-98.185450000000000","publicwifi":"U","url":null,"broadband_type_id":1}
{"id":null,"anchorname":"Kingston Town Hall","address":"22 N Main St","bldgnbr":"22","predir":"North","streetname":"Main","streettype":"St","suffdir":null,"city":"Kingston","state_code":"OK","zip5":"73439","latitude":"33.9993100000000000","longitude":"-96.719450000000000","publicwifi":"U","url":null,"broadband_type_id":1}
{"id":null,"anchorname":"LOCUST GROVE PUBLIC LIBRARY","address":"715  E. HAROLD ANDREWS BLVD","bldgnbr":"715","predir":"East","streetname":"HAROLD ANDREWS","streettype":"Boulevard","suffdir":null,"city":"LOCUST GROVE","state_code":"OK","zip5":"74352","latitude":"36.1999530000000000","longitude":"-95.160946000000000","publicwifi":"U","url":null,"broadband_type_id":6}
{"id":null,"anchorname":"NORMAN FIRE DEPARTMENT STATION 3","address":"500 EAST CONSTITUTION STREET","bldgnbr":"500","predir":"East","streetname":"CONSTITUTION","streettype":"St","suffdir":null,"city":"NORMAN","state_code":"OK","zip5":"73072","latitude":"35.1909892000000000","longitude":"-97.435017900000000","publicwifi":"U","url":null,"broadband_type_id":5}
{"id":null,"anchorname":"LEXINGTON FIRE DEPARTMENT","address":"121 EAST BROADWAY STREET","bldgnbr":"121","predir":"East","streetname":"BROADWAY","streettype":"St","suffdir":null,"city":"LEXINGTON","state_code":"OK","zip5":"73051","latitude":"35.0151946000000000","longitude":"-97.334678000000000","publicwifi":"U","url":null,"broadband_type_id":5}
{"id":null,"anchorname":"FLOWER MOUND VOLUNTEER FIRE DEPARTMENT INCORPORATED","address":"4002 1/2 SOUTHEAST FLOWER MOUND ROAD","bldgnbr":"4002 1/2","predir":"Southeast","streetname":"FLOWER MOUND","streettype":"Road","suffdir":null,"city":"LAWTON","state_code":"OK","zip5":"73501","latitude":"34.5711475000000000","longitude":"-98.351914300000000","publicwifi":"U","url":null,"broadband_type_id":5}
{"id":null,"anchorname":"STERLING FIRE DEPARTMENT","address":"222 WEST JAMES STREET","bldgnbr":"222","predir":"West","streetname":"JAMES","streettype":"St","suffdir":null,"city":"STERLING","state_code":"OK","zip5":"73567","latitude":"34.7499299000000000","longitude":"-98.172919800000000","publicwifi":"U","url":null,"broadband_type_id":5}
{"id":null,"anchorname":"CACHE VOLUNTEER FIRE DEPARTMENT","address":"602 SOUTH 8TH STREET","bldgnbr":"602","predir":"South","streetname":"8TH","streettype":"St","suffdir":null,"city":"CACHE","state_code":"OK","zip5":"73527","latitude":"34.6254070000000000","longitude":"-98.632389200000000","publicwifi":"U","url":null,"broadband_type_id":5}
{"id":null,"anchorname":"KETCHUM FIRE DEPARTMENT","address":"KETCHUM AVENUE","bldgnbr":"N/A","predir":null,"streetname":"N/A","streettype":null,"suffdir":null,"city":"KETCHUM","state_code":"OK","zip5":"74349","latitude":"36.5248801000000000","longitude":"-95.024255300000000","publicwifi":"U","url":null,"broadband_type_id":5}
{"id":null,"anchorname":"FREEDOM HILL FIRE DEPARTMENT","address":"35677 WEST 91ST STREET SOUTH","bldgnbr":"35677","predir":"West","streetname":"91ST","streettype":"St","suffdir":"South","city":"MANNFORD","state_code":"OK","zip5":"74044","latitude":"36.0324844000000000","longitude":"-96.389908200000000","publicwifi":"U","url":null,"broadband_type_id":5}
{"id":null,"anchorname":"CREEK COUNTY HEALTH DEPARTMENT","address":"420 East Broadway","bldgnbr":"420","predir":"East","streetname":"Broadway","streettype":null,"suffdir":null,"city":"Drumright","state_code":"OK","zip5":"74030","latitude":"35.9882590000000000","longitude":"-96.596161000000000","publicwifi":"U","url":null,"broadband_type_id":3}
{"id":null,"anchorname":"GYPSY PUBLIC SCHOOL","address":"30899 South 417 West Ave.","bldgnbr":"30899","predir":"South","streetname":"417 West Ave.","streettype":null,"suffdir":null,"city":"Depew","state_code":"OK","zip5":"74028","latitude":"35.7121468800000000","longitude":"-96.458696560000000","publicwifi":"U","url":null,"broadband_type_id":6}
{"id":null,"anchorname":"Kellyville Town Hall","address":"410 E Buffalo St","bldgnbr":"410","predir":"East","streetname":"Buffalo","streettype":"St","suffdir":null,"city":"Kellyville","state_code":"OK","zip5":"74039","latitude":"35.9435000000000000","longitude":"-96.211810000000000","publicwifi":"U","url":null,"broadband_type_id":1}
{"id":null,"anchorname":"PRETTY WATER PUBLIC SCHOOL","address":"15223 W 81st","bldgnbr":"15223","predir":"West","streetname":"81st","streettype":null,"suffdir":null,"city":"Sapulpa","state_code":"OK","zip5":"74066","latitude":"36.0466281000000000","longitude":"-96.162784360000000","publicwifi":"U","url":null,"broadband_type_id":6}
{"id":null,"anchorname":"CLINTON POLICE DEPARTMENT","address":"401 GARY BOULEVARD","bldgnbr":"401","predir":null,"streetname":"GARY","streettype":"Boulevard","suffdir":null,"city":"CLINTON","state_code":"OK","zip5":"73601","latitude":"35.5157987000000000","longitude":"-98.965482500000000","publicwifi":"U","url":null,"broadband_type_id":4}
{"id":null,"anchorname":"Weatherford Regional Hospital","address":"3701 E Main St","bldgnbr":"3701","predir":"East","streetname":"Main","streettype":"St","suffdir":null,"city":"Weatherford","state_code":"OK","zip5":"73096","latitude":"35.5369520000000000","longitude":"-98.662385000000000","publicwifi":"U","url":null,"broadband_type_id":3}
{"id":null,"anchorname":"JAY - DELAWARE COUNTY LIBRARY","address":"429 S. 9TH","bldgnbr":"429","predir":"South","streetname":"9TH","streettype":null,"suffdir":null,"city":"JAY","state_code":"OK","zip5":"74346","latitude":"36.4196220000000000","longitude":"-94.802710000000000","publicwifi":"U","url":null,"broadband_type_id":6}
{"id":null,"anchorname":"HUNTER VOLUNTEER FIRE DEPARTMENT","address":"327 WEST CHEROKEE STREET","bldgnbr":"327","predir":"West","streetname":"CHEROKEE","streettype":"St","suffdir":null,"city":"HUNTER","state_code":"OK","zip5":"74640","latitude":"36.5633100000000000","longitude":"-97.666395400000000","publicwifi":"U","url":null,"broadband_type_id":5}
{"id":null,"anchorname":"Fairmont Town Hall","address":"Fairmont Road","bldgnbr":"N/A","predir":null,"streetname":"N/A","streettype":null,"suffdir":null,"city":"Fairmont","state_code":"OK","zip5":"73736","latitude":"36.3578700000000000","longitude":"-97.704870000000000","publicwifi":"U","url":null,"broadband_type_id":1}
{"id":null,"anchorname":"WALKER FIRE DISTRICT","address":"18059 NORTH COUNTY ROAD 3330","bldgnbr":"18059","predir":"North","streetname":"3330","streettype":null,"suffdir":null,"city":"STRATFORD","state_code":"OK","zip5":"74872","latitude":"34.6502999000000000","longitude":"-97.141585400000000","publicwifi":"U","url":null,"broadband_type_id":5}
{"id":null,"anchorname":"LINDSAY POLICE DEPARTMENT","address":"101 EAST KIOWA STREET","bldgnbr":"101","predir":"East","streetname":"KIOWA","streettype":"St","suffdir":null,"city":"LINDSAY","state_code":"OK","zip5":"73052","latitude":"34.8325947000000000","longitude":"-97.602428300000000","publicwifi":"U","url":null,"broadband_type_id":4}
{"id":null,"anchorname":"KATIE FIRE DEPARTMENT ASSOCIATION","address":"COUNTY ROAD N3170","bldgnbr":"N/A","predir":null,"streetname":"N/A","streettype":null,"suffdir":null,"city":"ELMORE CITY","state_code":"OK","zip5":"73433","latitude":"34.5802825000000000","longitude":"-97.352757300000000","publicwifi":"U","url":null,"broadband_type_id":5}
{"id":null,"anchorname":"GRADY COUNTY FIRE DEPARTMENT - COX CITY STATION","address":"1983 COX CITY ROAD","bldgnbr":"1983","predir":null,"streetname":"COX CITY","streettype":"Road","suffdir":null,"city":"RUSH SPRINGS","state_code":"OK","zip5":"73082","latitude":"34.7625709000000000","longitude":"-97.783127300000000","publicwifi":"U","url":null,"broadband_type_id":5}
{"id":null,"anchorname":"POND CREEK FIRE AND AMBULANCE","address":"109 SOUTH SECOND STREET","bldgnbr":"109","predir":"South","streetname":"SECOND","streettype":"St","suffdir":null,"city":"POND CREEK","state_code":"OK","zip5":"73766","latitude":"36.6685619000000000","longitude":"-97.801670800000000","publicwifi":"U","url":null,"broadband_type_id":5}
{"id":null,"anchorname":"BUFFALO PUBLIC LIBRARY","address":"11 E TURNER","bldgnbr":"11","predir":"East","streetname":"TURNER","streettype":null,"suffdir":null,"city":"BUFFALO","state_code":"OK","zip5":"73834","latitude":"36.8008760000000000","longitude":"-99.526611000000000","publicwifi":"U","url":null,"broadband_type_id":6}
{"id":null,"anchorname":"McCurtain Town Hall","address":"308 W Main Street","bldgnbr":"308","predir":"West","streetname":"Main","streettype":"St","suffdir":null,"city":"McCurtain","state_code":"OK","zip5":"74944","latitude":"35.1497700000000000","longitude":"-94.973160000000000","publicwifi":"U","url":null,"broadband_type_id":1}
{"id":null,"anchorname":"ALTUS INTERMEDIATE SCHOOL","address":"1221 N. Howse","bldgnbr":"1221","predir":"North","streetname":"Howse","streettype":null,"suffdir":null,"city":"Altus","state_code":"OK","zip5":"73521","latitude":"34.6496302500000000","longitude":"-99.324656720000000","publicwifi":"U","url":null,"broadband_type_id":6}
{"id":null,"anchorname":"RYAN FIRE DEPARTMENT","address":"704 WASHINGTON STREET","bldgnbr":"704","predir":null,"streetname":"WASHINGTON","streettype":"St","suffdir":null,"city":"RYAN","state_code":"OK","zip5":"73565","latitude":"34.0217862000000000","longitude":"-97.956034900000000","publicwifi":"U","url":null,"broadband_type_id":5}
{"id":null,"anchorname":"BLACKWELL POLICE DEPARTMENT","address":"224 WEST BLACKWELL AVENUE","bldgnbr":"224","predir":"West","streetname":"BLACKWELL","streettype":"Ave","suffdir":null,"city":"BLACKWELL","state_code":"OK","zip5":"74631","latitude":"36.8045988000000000","longitude":"-97.285239100000000","publicwifi":"U","url":null,"broadband_type_id":4}
{"id":null,"anchorname":"LOYAL VOLUNTEER FIRE DEPARTMENT","address":"MAIN STREET","bldgnbr":"N/A","predir":null,"streetname":"N/A","streettype":null,"suffdir":null,"city":"LOYAL","state_code":"OK","zip5":"73756","latitude":"35.9733401000000000","longitude":"-98.118939900000000","publicwifi":"U","url":null,"broadband_type_id":5}
{"id":null,"anchorname":"DOVER VOLUNTEER FIRE DEPARTMENT","address":"121 EAST REDFORK DRIVE","bldgnbr":"121","predir":"East","streetname":"REDFORK","streettype":"Drive","suffdir":null,"city":"DOVER","state_code":"OK","zip5":"73734","latitude":"35.9813030000000000","longitude":"-97.910708000000000","publicwifi":"U","url":null,"broadband_type_id":5}
{"id":null,"anchorname":"LE FLORE COUNTY SHERIFF / LE FLORE COUNTY DETENTION CENTER","address":"100 NORTH CHURCH STREET","bldgnbr":"100","predir":null,"streetname":"NORTH","streettype":null,"suffdir":null,"city":"POTEAU","state_code":"OK","zip5":"74953","latitude":"35.0547295000000000","longitude":"-94.623965400000000","publicwifi":"U","url":null,"broadband_type_id":4}
{"id":null,"anchorname":"HAW CREEK RURAL FIRE DEPARTMENT","address":"51800 HAW CREEK ROAD","bldgnbr":"51800","predir":null,"streetname":"HAW CREEK","streettype":"Road","suffdir":null,"city":"HEAVENER","state_code":"OK","zip5":"74937","latitude":"34.7704738000000000","longitude":"-94.509018600000000","publicwifi":"U","url":null,"broadband_type_id":5}
{"id":null,"anchorname":"SPARKS POLICE DEPARTMENT","address":"6TH STREET AND GUSS AVENUE","bldgnbr":"6TH","predir":null,"streetname":"STREET AND GUSS","streettype":"Ave","suffdir":null,"city":"SPARKS","state_code":"OK","zip5":"74869","latitude":"35.6088649000000000","longitude":"-96.817487800000000","publicwifi":"U","url":null,"broadband_type_id":4}
{"id":null,"anchorname":"LOGAN COUNTY SHERIFFS OFFICE / LOGAN COUNTY JAIL","address":"216 SOUTH BROAD STREET","bldgnbr":"216","predir":"South","streetname":"BROAD","streettype":"St","suffdir":null,"city":"GUTHRIE","state_code":"OK","zip5":"73044","latitude":"35.8762328000000000","longitude":"-97.422329700000000","publicwifi":"U","url":null,"broadband_type_id":4}
{"id":null,"anchorname":"MERIDIAN VOLUNTEER FIRE DEPARTMENT","address":"12250 EAST STATE HIGHWAY 105","bldgnbr":"12250","predir":"East","streetname":"105","streettype":null,"suffdir":null,"city":"GUTHRIE","state_code":"OK","zip5":"73044","latitude":"35.8701391000000000","longitude":"-97.271308700000000","publicwifi":"U","url":null,"broadband_type_id":5}
{"id":null,"anchorname":"McCLAIN COUNTY HEALTH DEPARTMENT","address":"919 North Ninth Street","bldgnbr":"919","predir":"North","streetname":"Ninth","streettype":"St","suffdir":null,"city":"Purcell","state_code":"OK","zip5":"73080","latitude":"35.0241810000000000","longitude":"-97.371114000000000","publicwifi":"U","url":null,"broadband_type_id":3}
{"id":null,"anchorname":"VALLIANT - MATTIE TERRY LIBRARY","address":"311 N JOHNSON","bldgnbr":"311","predir":"North","streetname":"JOHNSON","streettype":null,"suffdir":null,"city":"VALLIANT","state_code":"OK","zip5":"74764","latitude":"34.0047690000000000","longitude":"-95.089494000000000","publicwifi":"U","url":null,"broadband_type_id":6}
{"id":null,"anchorname":"HOLLY CREEK-OAK HILL FIRE DEPARTMENT","address":"E2080","bldgnbr":"E2080","predir":null,"streetname":"N/A","streettype":null,"suffdir":null,"city":"BROKEN BOW","state_code":"OK","zip5":"74728","latitude":"33.9963311000000000","longitude":"-94.826833000000000","publicwifi":"U","url":null,"broadband_type_id":5}
{"id":null,"anchorname":"Checotah City Hall","address":"414 W Gentry Ave","bldgnbr":"414","predir":"West","streetname":"Gentry","streettype":"Ave","suffdir":null,"city":"Checotah","state_code":"OK","zip5":"74426","latitude":"35.4703000000000000","longitude":"-95.524350000000000","publicwifi":"U","url":null,"broadband_type_id":1}
{"id":null,"anchorname":"MCINTOSH COUNTY SHERIFFS DEPARTMENT / MCINTOSH COUNTY JAIL","address":"1425 INDUSTRIAL STREET","bldgnbr":"1425","predir":null,"streetname":"INDUSTRIAL","streettype":"St","suffdir":null,"city":"EUFAULA","state_code":"OK","zip5":"74432","latitude":"35.3027540000000000","longitude":"-95.590735000000000","publicwifi":"U","url":null,"broadband_type_id":4}
{"id":null,"anchorname":"TRI CITY FIRE DEPARTMENT INCORPORATED STATION 2","address":"STATE HIGHWAY 199","bldgnbr":"N/A","predir":null,"streetname":"N/A","streettype":null,"suffdir":null,"city":"MADILL","state_code":"OK","zip5":"73446","latitude":"34.0850645000000000","longitude":"-96.619677300000000","publicwifi":"U","url":null,"broadband_type_id":5}
{"id":null,"anchorname":"CARDINAL COVE FIRE DISTRICT","address":"1354 POSTOAK ROAD","bldgnbr":"1354","predir":null,"streetname":"POSTOAK","streettype":"Road","suffdir":null,"city":"KINGSTON","state_code":"OK","zip5":"73439","latitude":"33.8851873000000000","longitude":"-96.751425600000000","publicwifi":"U","url":null,"broadband_type_id":5}
{"id":null,"anchorname":"SPORTSMEN ACRES POLICE DEPARTMENT","address":"97 QUAIL DRIVE","bldgnbr":"97","predir":null,"streetname":"QUAIL","streettype":"Drive","suffdir":null,"city":"PRYOR","state_code":"OK","zip5":"74361","latitude":"36.2485622000000000","longitude":"-95.251740700000000","publicwifi":"U","url":null,"broadband_type_id":4}
{"id":null,"anchorname":"NINNEKAH POLICE DEPARTMENT","address":"301 NORTH OLD UNITED STATES HIGHWAY 81","bldgnbr":"301","predir":"North","streetname":"81","streettype":null,"suffdir":null,"city":"NINNEKAH","state_code":"OK","zip5":"73067","latitude":"34.9588419000000000","longitude":"-97.934253300000000","publicwifi":"U","url":null,"broadband_type_id":4}
{"id":null,"anchorname":"MINCO POLICE DEPARTMENT","address":"202 WEST MAIN STREET","bldgnbr":"202","predir":"West","streetname":"MAIN","streettype":"St","suffdir":null,"city":"MINCO","state_code":"OK","zip5":"73059","latitude":"35.3130031000000000","longitude":"-97.943512200000000","publicwifi":"U","url":null,"broadband_type_id":4}
{"id":null,"anchorname":"Wakita Town Hall","address":"112 W Main S","bldgnbr":"112","predir":"West","streetname":"Main","streettype":null,"suffdir":"South","city":"Wakita","state_code":"OK","zip5":"73771","latitude":"36.8834500000000000","longitude":"-97.922160000000000","publicwifi":"U","url":null,"broadband_type_id":1}
{"id":null,"anchorname":"MEDFORD FAMILY CLINIC","address":"158 Sunset Dr. # B","bldgnbr":"158","predir":null,"streetname":"Sunset Dr.","streettype":null,"suffdir":null,"city":"Medford","state_code":"OK","zip5":"73759","latitude":"36.8138800000000000","longitude":"-97.733560000000000","publicwifi":"U","url":null,"broadband_type_id":3}
{"id":null,"anchorname":"MANGUM FIRE DEPARTMENT","address":"201 NORTH OKLAHOMA AVENUE","bldgnbr":"201","predir":"North","streetname":"OKLAHOMA","streettype":"Ave","suffdir":null,"city":"MANGUM","state_code":"OK","zip5":"73554","latitude":"34.8752832000000000","longitude":"-99.506402100000000","publicwifi":"U","url":null,"broadband_type_id":5}
{"id":null,"anchorname":"WETUMKA POLICE DEPARTMENT","address":"202 NORTH MAIN STREET","bldgnbr":"202","predir":"North","streetname":"MAIN","streettype":"St","suffdir":null,"city":"WETUMKA","state_code":"OK","zip5":"74883","latitude":"35.2386179000000000","longitude":"-96.241957100000000","publicwifi":"U","url":null,"broadband_type_id":4}
{"id":null,"anchorname":"GERTY VOLUNTEER FIRE DEPARTMENT","address":"422 ELDER AVENUE","bldgnbr":"422","predir":null,"streetname":"ELDER","streettype":"Ave","suffdir":null,"city":"CALVIN","state_code":"OK","zip5":"74531","latitude":"34.8364641000000000","longitude":"-96.288786900000000","publicwifi":"U","url":null,"broadband_type_id":5}
{"id":null,"anchorname":"ALTUS AIR FORCE BASE FIRE DEPARTMENT STATION 1 - HEADQUARTERS-DOD","address":"606 F AVENUE","bldgnbr":"606","predir":null,"streetname":"F","streettype":"Ave","suffdir":null,"city":"ALTUS AIR FORCE BASE","state_code":"OK","zip5":"73523","latitude":"34.6548114000000000","longitude":"-99.279244400000000","publicwifi":"U","url":null,"broadband_type_id":5}
{"id":null,"anchorname":"WAURIKA FIRE DEPARTMENT","address":"107 WEST ANDERSON AVENUE","bldgnbr":"107","predir":"West","streetname":"ANDERSON","streettype":"Ave","suffdir":null,"city":"WAURIKA","state_code":"OK","zip5":"73573","latitude":"34.1625398000000000","longitude":"-98.001904000000000","publicwifi":"U","url":null,"broadband_type_id":5}
{"id":null,"anchorname":"BROMIDE FIRE DEPARTMENT","address":"105 NORTH MAIN STREET","bldgnbr":"105","predir":"North","streetname":"MAIN","streettype":"St","suffdir":null,"city":"BROMIDE","state_code":"OK","zip5":"74530","latitude":"34.4171980000000000","longitude":"-96.491912000000000","publicwifi":"U","url":null,"broadband_type_id":5}
{"id":null,"anchorname":"WAPANUCKA FIRE DEPARTMENT","address":"208 SOUTH CHOCTAW ROAD","bldgnbr":"208","predir":"South","streetname":"CHOCTAW","streettype":"Road","suffdir":null,"city":"WAPANUCKA","state_code":"OK","zip5":"73461","latitude":"34.3734472000000000","longitude":"-96.424150200000000","publicwifi":"U","url":null,"broadband_type_id":5}
{"id":null,"anchorname":"Johnston Memorial Hospital","address":"1000 S Byrd St","bldgnbr":"1000","predir":"South","streetname":"Byrd","streettype":"St","suffdir":null,"city":"Tishomingo","state_code":"OK","zip5":"73460","latitude":"34.2242690000000000","longitude":"-96.675203000000000","publicwifi":"U","url":null,"broadband_type_id":3}
{"id":null,"anchorname":"Ravia Town Hall","address":"109 E Grand Ave","bldgnbr":"109","predir":"East","streetname":"Grand","streettype":"Ave","suffdir":null,"city":"Ravia","state_code":"OK","zip5":"73455","latitude":"34.2406800000000000","longitude":"-96.756580000000000","publicwifi":"U","url":null,"broadband_type_id":1}
{"id":null,"anchorname":"KAW CITY POLICE DEPARTMENT","address":"900 MORGAN SQUARE EAST","bldgnbr":"900","predir":null,"streetname":"MORGAN","streettype":"Square","suffdir":"East","city":"KAW CITY","state_code":"OK","zip5":"74641","latitude":"36.7648658000000000","longitude":"-96.859618700000000","publicwifi":"U","url":null,"broadband_type_id":4}
{"id":null,"anchorname":"HOBART FIRE DEPARTMENT","address":"103 EAST 3RD STREET","bldgnbr":"103","predir":"East","streetname":"3RD","streettype":"St","suffdir":null,"city":"HOBART","state_code":"OK","zip5":"73651","latitude":"35.0261353000000000","longitude":"-99.092806900000000","publicwifi":"U","url":null,"broadband_type_id":5}
{"id":null,"anchorname":"CRAVENS VOLUNTEER FIRE DEPARTMENT","address":"CRAVENS ROAD","bldgnbr":"N/A","predir":null,"streetname":"N/A","streettype":null,"suffdir":null,"city":"RED OAK","state_code":"OK","zip5":"74563","latitude":"34.8985770000000000","longitude":"-95.158999800000000","publicwifi":"U","url":null,"broadband_type_id":5}
{"id":null,"anchorname":"UNITED STATES WAR VETERAN COLONY VOLUNTEER FIRE DEPARTMENT","address":"204 CIRCLE DRIVE EAST","bldgnbr":"204","predir":null,"streetname":"Circle","streettype":"Drive","suffdir":"East","city":"WILBURTON","state_code":"OK","zip5":"74578","latitude":"34.8082664000000000","longitude":"-95.308786400000000","publicwifi":"U","url":null,"broadband_type_id":5}
{"id":null,"anchorname":"LATHAM DOG CREEK FIRE DEPARTMENT","address":"29844 LATHAM ROAD","bldgnbr":"29844","predir":null,"streetname":"LATHAM","streettype":"Road","suffdir":null,"city":"SHADY POINT","state_code":"OK","zip5":"74956","latitude":"35.1283480000000000","longitude":"-94.785566500000000","publicwifi":"U","url":null,"broadband_type_id":5}
{"id":null,"anchorname":"MONROE PUBLIC SCHOOL","address":"36709 BOYD STREET","bldgnbr":"36709","predir":null,"streetname":"BOYD","streettype":"St","suffdir":null,"city":"MONROE","state_code":"OK","zip5":"74947","latitude":"34.9894523000000000","longitude":"-94.517383160000000","publicwifi":"U","url":null,"broadband_type_id":6}
{"id":null,"anchorname":"HEAVENER FIRE DEPARTMENT - WEST SIDE STATION","address":"112 UNITED STATES HIGHWAY 270","bldgnbr":"112","predir":null,"streetname":"UNITED STATES HIGHWAY 270","streettype":null,"suffdir":null,"city":"HEAVENER","state_code":"OK","zip5":"74937","latitude":"34.8954121000000000","longitude":"-94.605567100000000","publicwifi":"U","url":null,"broadband_type_id":5}
{"id":null,"anchorname":"STROUD POLICE DEPARTMENT","address":"220 WEST 2ND STREET","bldgnbr":"220","predir":"West","streetname":"2ND","streettype":"St","suffdir":null,"city":"STROUD","state_code":"OK","zip5":"74079","latitude":"35.7476900000000000","longitude":"-96.655875400000000","publicwifi":"U","url":null,"broadband_type_id":4}
{"id":null,"anchorname":"Carney Town Hall","address":"202 N Main St","bldgnbr":"202","predir":"North","streetname":"Main","streettype":"St","suffdir":null,"city":"Carney","state_code":"OK","zip5":"74832","latitude":"35.8100900000000000","longitude":"-97.012000000000000","publicwifi":"U","url":null,"broadband_type_id":1}
{"id":null,"anchorname":"SOUTHWEST LINCOLN COUNTY FIRE PROTECTION DISTRICT 1 STATION 2","address":"STATE HIGHWAY 102","bldgnbr":"N/A","predir":null,"streetname":"N/A","streettype":null,"suffdir":null,"city":"WELLSTON","state_code":"OK","zip5":"74881","latitude":"35.6151835000000000","longitude":"-97.088576300000000","publicwifi":"U","url":null,"broadband_type_id":5}
{"id":null,"anchorname":"COYLE POLICE DEPARTMENT","address":"111 NORTH PULLIAM AVENUE","bldgnbr":"111","predir":"North","streetname":"PULLIAM","streettype":"Ave","suffdir":null,"city":"COYLE","state_code":"OK","zip5":"73027","latitude":"35.9574340000000000","longitude":"-97.233420700000000","publicwifi":"U","url":null,"broadband_type_id":4}
{"id":null,"anchorname":"ORLANDO RURAL FIRE DEPARTMENT","address":"5TH STREET AND MAIN STREET","bldgnbr":"5TH","predir":null,"streetname":"STREET AND MAIN","streettype":"St","suffdir":null,"city":"ORLANDO","state_code":"OK","zip5":"73073","latitude":"36.1491823000000000","longitude":"-97.377844600000000","publicwifi":"U","url":null,"broadband_type_id":5}
{"id":null,"anchorname":"LOVE COUNTY SHERIFFS OFFICE / LOVE COUNTY JAIL","address":"408 WEST CHICKASAW STREET","bldgnbr":"408","predir":"West","streetname":"CHICKASAW","streettype":"St","suffdir":null,"city":"MARIETTA","state_code":"OK","zip5":"73448","latitude":"33.9366022000000000","longitude":"-97.121320700000000","publicwifi":"U","url":null,"broadband_type_id":4}
{"id":null,"anchorname":"BLANCHARD PUBLIC LIBRARY","address":"300 N MAIN  /205 NE 10th","bldgnbr":"300","predir":"North","streetname":"MAIN  /205 NE 10th","streettype":null,"suffdir":null,"city":"BLANCHARD","state_code":"OK","zip5":"73010","latitude":"35.1389950000000000","longitude":"-97.658281000000000","publicwifi":"U","url":null,"broadband_type_id":6}
{"id":null,"anchorname":"GOLDSBY VOLUNTEER FIRE DEPARTMENT","address":"100 EAST CENTER ROAD","bldgnbr":"100","predir":"East","streetname":"CENTER","streettype":"Road","suffdir":null,"city":"GOLDSBY","state_code":"OK","zip5":"73093","latitude":"35.1457104000000000","longitude":"-97.476271800000000","publicwifi":"U","url":null,"broadband_type_id":5}
{"id":null,"anchorname":"GARVIN RURAL VOLUNTEER FIRE DEPARTMENT STATION 2","address":"112 EAST WILLIAMS AVENUE","bldgnbr":"112","predir":"East","streetname":"WILLIAMS","streettype":"Ave","suffdir":null,"city":"GARVIN","state_code":"OK","zip5":"74736","latitude":"33.9552649000000000","longitude":"-94.941221700000000","publicwifi":"U","url":null,"broadband_type_id":5}
{"id":null,"anchorname":"Haworth Town Hall","address":"103 N Main St","bldgnbr":"103","predir":"North","streetname":"Main","streettype":"St","suffdir":null,"city":"Haworth","state_code":"OK","zip5":"74740","latitude":"33.8392100000000000","longitude":"-94.657150000000000","publicwifi":"U","url":null,"broadband_type_id":1}
{"id":null,"anchorname":"ADAIR POLICE DEPARTMENT","address":"105 WEST MAIN STREET","bldgnbr":"105","predir":"West","streetname":"MAIN","streettype":"St","suffdir":null,"city":"ADAIR","state_code":"OK","zip5":"74330","latitude":"36.4370469000000000","longitude":"-95.272279200000000","publicwifi":"U","url":null,"broadband_type_id":4}
{"id":null,"anchorname":"OAK GROVE VOLUNTEER FIRE DEPARTMENT","address":"7445 UNITED STATES HIGHWAY 177 NORTH","bldgnbr":"7445","predir":null,"streetname":"UNITED STATES HIGHWAY 177","streettype":null,"suffdir":"North","city":"SULPHUR","state_code":"OK","zip5":"73086","latitude":"34.6142540000000000","longitude":"-96.967068900000000","publicwifi":"U","url":null,"broadband_type_id":5}
{"id":null,"anchorname":"Solara Hospital of Muskogee","address":"351 S 40th St","bldgnbr":"351","predir":"South","streetname":"40th","streettype":"St","suffdir":null,"city":"Muskogee","state_code":"OK","zip5":"74401","latitude":"35.7528760000000000","longitude":"-95.411834000000000","publicwifi":"U","url":null,"broadband_type_id":3}
{"id":null,"anchorname":"Good Shepherd Free Health Clinic of Muskogee","address":"2130 W. Okmulgee","bldgnbr":"2130","predir":"West","streetname":"Okmulgee","streettype":null,"suffdir":null,"city":"Muskogee","state_code":"OK","zip5":"74401","latitude":"35.7550130000000000","longitude":"-95.391498000000000","publicwifi":"U","url":null,"broadband_type_id":3}
{"id":null,"anchorname":"MOUNTAIN VIEW VOLUNTEER FIRE DEPARTMENT","address":"7351 WEST 27TH STREET SOUTH","bldgnbr":"7351","predir":"West","streetname":"27TH","streettype":"St","suffdir":"South","city":"MUSKOGEE","state_code":"OK","zip5":"74401","latitude":"35.7201130000000000","longitude":"-95.463627300000000","publicwifi":"U","url":null,"broadband_type_id":5}
{"id":null,"anchorname":"NEW ALLUWE FIRE DEPARTMENT","address":"STATE HIGHWAY 28","bldgnbr":"N/A","predir":null,"streetname":"N/A","streettype":null,"suffdir":null,"city":"CHELSEA","state_code":"OK","zip5":"74016","latitude":"36.6123040000000000","longitude":"-95.486156400000000","publicwifi":"U","url":null,"broadband_type_id":5}
{"id":null,"anchorname":"FAMILY CLINIC OF WELEETKA","address":"120 W. 8th St.","bldgnbr":"120","predir":"West","streetname":"8th St.","streettype":null,"suffdir":null,"city":"Weleetka","state_code":"OK","zip5":"74880","latitude":"35.3367400000000000","longitude":"-96.138273000000000","publicwifi":"U","url":null,"broadband_type_id":3}
{"id":null,"anchorname":"Baptist Community Clinic","address":"1201 NW 10th","bldgnbr":"1201","predir":"Northwest","streetname":"10th","streettype":null,"suffdir":null,"city":"Oklahoma City","state_code":"OK","zip5":"73106","latitude":"35.4787960000000000","longitude":"-97.531957000000000","publicwifi":"U","url":null,"broadband_type_id":3}
{"id":null,"anchorname":"Healing Hands Health Care Services (MMMHC)","address":"411 NW 11th Street","bldgnbr":"411","predir":"Northwest","streetname":"11th","streettype":"St","suffdir":null,"city":"Oklahoma City","state_code":"OK","zip5":"73103","latitude":"35.4800440000000000","longitude":"-97.519343000000000","publicwifi":"U","url":null,"broadband_type_id":3}
{"id":null,"anchorname":"BUREAU OF ALCOHOL TOBACCO FIREARMS AND EXPLOSIVES - OKLAHOMA CITY FIELD OFFICE","address":"55 NORTH ROBINSON AVENUE","bldgnbr":"55","predir":"North","streetname":"ROBINSON","streettype":"Ave","suffdir":null,"city":"OKLAHOMA CITY","state_code":"OK","zip5":"73102","latitude":"35.4673624000000000","longitude":"-97.516658600000000","publicwifi":"U","url":null,"broadband_type_id":5}
{"id":null,"anchorname":"SALINA FIRE DEPARTMENT","address":"301 SOUTH SALTWELL STREET","bldgnbr":"301","predir":"South","streetname":"SALTWELL","streettype":"St","suffdir":null,"city":"SALINA","state_code":"OK","zip5":"74365","latitude":"36.2910744000000000","longitude":"-95.148866900000000","publicwifi":"U","url":null,"broadband_type_id":5}
{"id":null,"anchorname":"BRAGGS VOLUNTEER FIRE DEPARTMENT","address":"109 PATRICK AVENUE","bldgnbr":"109","predir":null,"streetname":"PATRICK","streettype":"Ave","suffdir":null,"city":"BRAGGS","state_code":"OK","zip5":"74423","latitude":"35.6634683000000000","longitude":"-95.197645700000000","publicwifi":"U","url":null,"broadband_type_id":5}
{"id":null,"anchorname":"MARLAND VOLUNTEER FIRE DEPARTMENT","address":"704 NORTH ANTELOPE AVENUE","bldgnbr":"704","predir":"North","streetname":"ANTELOPE","streettype":"Ave","suffdir":null,"city":"MARLAND","state_code":"OK","zip5":"74644","latitude":"36.5642379000000000","longitude":"-97.152687500000000","publicwifi":"U","url":null,"broadband_type_id":5}
{"id":null,"anchorname":"GREEN COUNTRY MEDICAL CLINIC","address":"238 Willow St.","bldgnbr":"238","predir":null,"streetname":"Willow St.","streettype":null,"suffdir":null,"city":"S. Coffeyvil","state_code":"OK","zip5":"74072","latitude":"36.9977330000000000","longitude":"-95.620570000000000","publicwifi":"U","url":null,"broadband_type_id":3}
{"id":null,"anchorname":"HAYDONVILLE RURAL FIRE DEPARTMENT","address":"STATE HIGHWAY 56","bldgnbr":"N/A","predir":null,"streetname":"N/A","streettype":null,"suffdir":null,"city":"OKEMAH","state_code":"OK","zip5":"74859","latitude":"35.5950305000000000","longitude":"-96.263515800000000","publicwifi":"U","url":null,"broadband_type_id":5}
{"id":null,"anchorname":"OKFUSKEE COUNTY HEALTH DEPARTMENT","address":"125 North Second","bldgnbr":"125","predir":"North","streetname":"Second","streettype":null,"suffdir":null,"city":"Okemah","state_code":"OK","zip5":"74859","latitude":"35.4318940000000000","longitude":"-96.302468000000000","publicwifi":"U","url":null,"broadband_type_id":3}
{"id":null,"anchorname":"Harvest Christian School","address":"6800 N Bryant Ave","bldgnbr":"6800","predir":"North","streetname":"Bryant","streettype":"Ave","suffdir":null,"city":"Oklahoma City","state_code":"OK","zip5":"73121","latitude":"35.5413253600000000","longitude":"-97.458695070000000","publicwifi":"U","url":null,"broadband_type_id":6}
{"id":null,"anchorname":"Mid-Del Community Health Center","address":"4748 S Bryant Avenue","bldgnbr":"4748","predir":"South","streetname":"Bryant","streettype":"Ave","suffdir":null,"city":"Oklahoma City","state_code":"OK","zip5":"73135","latitude":"35.4182710000000000","longitude":"-97.459220000000000","publicwifi":"U","url":null,"broadband_type_id":3}
{"id":null,"anchorname":"Good Shepherd Lutheran School","address":"700 N Air Depot","bldgnbr":"700","predir":"North","streetname":"Air Depot","streettype":null,"suffdir":null,"city":"Midwest City","state_code":"OK","zip5":"73110","latitude":"35.4741350900000000","longitude":"-97.406313000000000","publicwifi":"U","url":null,"broadband_type_id":6}
{"id":null,"anchorname":"EDMOND FIRE DEPARTMENT STATION 3","address":"1540 WEST DANFORTH ROAD","bldgnbr":"1540","predir":"West","streetname":"DANFORTH","streettype":"Road","suffdir":null,"city":"EDMOND","state_code":"OK","zip5":"73003","latitude":"35.6671462000000000","longitude":"-97.504830000000000","publicwifi":"U","url":null,"broadband_type_id":5}
{"id":null,"anchorname":"McBride Clinic Orthopedic Hospital, LLC","address":"9600 Broadway Ext","bldgnbr":"9600","predir":null,"streetname":"Broadway","streettype":"Extension","suffdir":null,"city":"Oklahoma City","state_code":"OK","zip5":"73114","latitude":"35.5677920000000000","longitude":"-97.512809000000000","publicwifi":"U","url":null,"broadband_type_id":3}
{"id":null,"anchorname":"JONES FIRE DEPARTMENT","address":"412 WEST MAIN STREET","bldgnbr":"412","predir":"West","streetname":"MAIN","streettype":"St","suffdir":null,"city":"JONES","state_code":"OK","zip5":"73049","latitude":"35.5654916000000000","longitude":"-97.290893500000000","publicwifi":"U","url":null,"broadband_type_id":5}
{"id":null,"anchorname":"BEGGS POLICE DEPARTMENT","address":"108 NORTH BROADWAY AVENUE","bldgnbr":"108","predir":"North","streetname":"BROADWAY","streettype":"Ave","suffdir":null,"city":"BEGGS","state_code":"OK","zip5":"74421","latitude":"35.7412326000000000","longitude":"-96.069619600000000","publicwifi":"U","url":null,"broadband_type_id":4}
{"id":null,"anchorname":"OSAGE VOLUNTEER FIRE DEPARTMENT","address":"61 MILLER AVENUE","bldgnbr":"61","predir":null,"streetname":"MILLER","streettype":"Ave","suffdir":null,"city":"OSAGE","state_code":"OK","zip5":"74054","latitude":"36.2940556000000000","longitude":"-96.415120600000000","publicwifi":"U","url":null,"broadband_type_id":5}
{"id":null,"anchorname":"HOMINY POLICE DEPARTMENT","address":"201 NORTH REGAN AVENUE","bldgnbr":"201","predir":"North","streetname":"REGAN","streettype":"Ave","suffdir":null,"city":"HOMINY","state_code":"OK","zip5":"74035","latitude":"36.4169235000000000","longitude":"-96.395800200000000","publicwifi":"U","url":null,"broadband_type_id":4}
{"id":null,"anchorname":"LITTLE CHIEF RURAL FIRE COMPANY","address":"1836 LITTLE CHIEF RANCH ROAD","bldgnbr":"1836","predir":null,"streetname":"LITTLE CHIEF RANCH","streettype":"Road","suffdir":null,"city":"FAIRFAX","state_code":"OK","zip5":"74637","latitude":"36.6116514000000000","longitude":"-96.668253500000000","publicwifi":"U","url":null,"broadband_type_id":5}
{"id":null,"anchorname":"SYCAMORE FIRE DEPARTMENT INCORPORATED","address":"SUNNY SLOOP ROAD","bldgnbr":"N/A","predir":null,"streetname":"N/A","streettype":null,"suffdir":null,"city":"RALSTON","state_code":"OK","zip5":"74650","latitude":"36.4354844000000000","longitude":"-96.668872500000000","publicwifi":"U","url":null,"broadband_type_id":5}
{"id":null,"anchorname":"AVANT FIRE DEPARTMENT","address":"419 GRAND AVENUE","bldgnbr":"419","predir":null,"streetname":"GRAND","streettype":"Ave","suffdir":null,"city":"AVANT","state_code":"OK","zip5":"74001","latitude":"36.4878403000000000","longitude":"-96.061066700000000","publicwifi":"U","url":null,"broadband_type_id":5}
{"id":null,"anchorname":"OTTAWA COUNTY SHERIFFS DEPARTMENT / OTTAWA COUNTY JAIL","address":"28 B STREET SOUTHEAST","bldgnbr":"28","predir":null,"streetname":"B","streettype":"St","suffdir":"Southeast","city":"MIAMI","state_code":"OK","zip5":"74354","latitude":"36.8740498000000000","longitude":"-94.875880100000000","publicwifi":"U","url":null,"broadband_type_id":4}
{"id":null,"anchorname":"NORTHERN OKLAHOMA COLLEGE STILLWATER","address":"1118 W. Hall of Fame","bldgnbr":"1118","predir":"West","streetname":"Hall of Fame","streettype":null,"suffdir":null,"city":"STILLWATER","state_code":"OK","zip5":"74078","latitude":"36.1273070000000000","longitude":"-97.072628000000000","publicwifi":"U","url":null,"broadband_type_id":6}
{"id":null,"anchorname":"Stillwater Medical Center","address":"1323 W 6th Ave","bldgnbr":"1323","predir":"West","streetname":"6th","streettype":"Ave","suffdir":null,"city":"Stillwater","state_code":"OK","zip5":"74074","latitude":"36.1158470000000000","longitude":"-97.074177000000000","publicwifi":"U","url":null,"broadband_type_id":3}
{"id":null,"anchorname":"PERKINS POLICE DEPARTMENT","address":"120 NORTH MAIN STREET","bldgnbr":"120","predir":"North","streetname":"MAIN","streettype":"St","suffdir":null,"city":"PERKINS","state_code":"OK","zip5":"74059","latitude":"35.9745296000000000","longitude":"-97.033464500000000","publicwifi":"U","url":null,"broadband_type_id":4}
{"id":null,"anchorname":"TANNEHILL VOLUNTEER FIRE DEPARTMENT - SUBSTATION 5","address":"3200 PYLE MOUNTAIN ROAD","bldgnbr":"3200","predir":null,"streetname":"PYLE MOUNTAIN","streettype":"Road","suffdir":null,"city":"MCALESTER","state_code":"OK","zip5":"74501","latitude":"34.9897497000000000","longitude":"-95.894736900000000","publicwifi":"U","url":null,"broadband_type_id":5}
{"id":null,"anchorname":"HAPPYLAND VOLUNTEER FIRE ASSOCIATION","address":"22680 E1530 ROAD","bldgnbr":"22680","predir":null,"streetname":"E1530","streettype":"Road","suffdir":null,"city":"ADA","state_code":"OK","zip5":"74820","latitude":"34.7965763000000000","longitude":"-96.553598500000000","publicwifi":"U","url":null,"broadband_type_id":5}
{"id":null,"anchorname":"Chickasaw Nation Tribal Library","address":"1003 Chamber Loop","bldgnbr":"1003","predir":null,"streetname":"Chamber","streettype":"Loop","suffdir":null,"city":"Ada","state_code":"OK","zip5":"74820","latitude":"34.7835549000000000","longitude":"-96.672773500000000","publicwifi":"U","url":null,"broadband_type_id":6}
{"id":null,"anchorname":"Unity Health Center","address":"1102 W Macarthur St","bldgnbr":"1102","predir":"West","streetname":"Macarthur","streettype":"St","suffdir":null,"city":"Shawnee","state_code":"OK","zip5":"74804","latitude":"35.3618040000000000","longitude":"-96.936587000000000","publicwifi":"U","url":null,"broadband_type_id":3}
{"id":null,"anchorname":"HALL VOLUNTEER FIRE DEPARTMENT","address":"AIRPORT ROAD","bldgnbr":"N/A","predir":null,"streetname":"N/A","streettype":null,"suffdir":null,"city":"ANTLERS","state_code":"OK","zip5":"74523","latitude":"34.1860226000000000","longitude":"-95.672444000000000","publicwifi":"U","url":null,"broadband_type_id":5}
{"id":null,"anchorname":"ROGERS COUNTY HEALTH DEPARTMENT","address":"2664 N. Highway 88, Unit A","bldgnbr":"N/A","predir":null,"streetname":"N/A","streettype":null,"suffdir":null,"city":"Claremore","state_code":"OK","zip5":"74017","latitude":"36.3350640000000000","longitude":"-95.632569000000000","publicwifi":"U","url":null,"broadband_type_id":3}
{"id":null,"anchorname":"Moffett Town Hall","address":"300 Grand Ave","bldgnbr":"300","predir":null,"streetname":"Grand","streettype":"Ave","suffdir":null,"city":"Moffett","state_code":"OK","zip5":"74946","latitude":"35.3916200000000000","longitude":"-94.442810000000000","publicwifi":"U","url":null,"broadband_type_id":1}
{"id":null,"anchorname":"SALLISAW FIRE DEPARTMENT STATION 2","address":"108 WEST VINE AVENUE","bldgnbr":"108","predir":"West","streetname":"VINE","streettype":"Ave","suffdir":null,"city":"SALLISAW","state_code":"OK","zip5":"74955","latitude":"35.4616586000000000","longitude":"-94.790856400000000","publicwifi":"U","url":null,"broadband_type_id":5}
{"id":null,"anchorname":"DUNCAN FIRE DEPARTMENT STATION 2","address":"503 EAST CHESTNUT AVENUE","bldgnbr":"503","predir":"East","streetname":"CHESTNUT","streettype":"Ave","suffdir":null,"city":"DUNCAN","state_code":"OK","zip5":"73533","latitude":"34.5073051000000000","longitude":"-97.940228900000000","publicwifi":"U","url":null,"broadband_type_id":5}
{"id":null,"anchorname":"HOOKER POLICE DEPARTMENT","address":"111 SOUTH BROADWAY STREET","bldgnbr":"111","predir":"South","streetname":"BROADWAY","streettype":"St","suffdir":null,"city":"HOOKER","state_code":"OK","zip5":"73945","latitude":"36.8596555000000000","longitude":"-101.21318800000000","publicwifi":"U","url":null,"broadband_type_id":4}
{"id":null,"anchorname":"GUYMON FIRE DEPARTMENT STATION 1 / GUYMON AMBULANCE SERVICE","address":"309 NORTH ROOSEVELT STREET","bldgnbr":"309","predir":"North","streetname":"ROOSEVELT","streettype":"St","suffdir":null,"city":"GUYMON","state_code":"OK","zip5":"73942","latitude":"36.6811387000000000","longitude":"-101.48379990000000","publicwifi":"U","url":null,"broadband_type_id":5}
{"id":null,"anchorname":"RUDISILL REGIONAL LIBRARY","address":"1520 N HARTFORD","bldgnbr":"1520","predir":"North","streetname":"HARTFORD","streettype":null,"suffdir":null,"city":"TULSA","state_code":"OK","zip5":"74106","latitude":"36.1778660000000000","longitude":"-95.984533000000000","publicwifi":"U","url":null,"broadband_type_id":6}
{"id":null,"anchorname":"TULSA FIRE DEPARTMENT DISTRICT 4 STATION 10","address":"508 EAST PINE STREET","bldgnbr":"508","predir":"East","streetname":"PINE","streettype":"St","suffdir":null,"city":"TULSA","state_code":"OK","zip5":"74106","latitude":"36.1766933000000000","longitude":"-95.988748700000000","publicwifi":"U","url":null,"broadband_type_id":5}
{"id":null,"anchorname":"Tulsa City Hall","address":"175 E. 2nd Street","bldgnbr":"175","predir":"East","streetname":"2nd","streettype":"St","suffdir":null,"city":"Tulsa","state_code":"OK","zip5":"74103","latitude":"36.1551500000000000","longitude":"-95.989740000000000","publicwifi":"U","url":null,"broadband_type_id":1}
{"id":null,"anchorname":"Chouteau Elementary School","address":"4132 West Cameron","bldgnbr":"4132","predir":"West","streetname":"Cameron","streettype":null,"suffdir":null,"city":"Tulsa","state_code":"OK","zip5":"74127","latitude":"36.1577483300000000","longitude":"-96.038623960000000","publicwifi":"U","url":null,"broadband_type_id":6}
{"id":null,"anchorname":"St Catherine school","address":"2515 W. 46th St.","bldgnbr":"2515","predir":"West","streetname":"46th St.","streettype":null,"suffdir":null,"city":"Tulsa","state_code":"OK","zip5":"74107","latitude":"36.0971084200000000","longitude":"-96.020839290000000","publicwifi":"U","url":null,"broadband_type_id":6}
{"id":null,"anchorname":"BROKEN ARROW LIBRARY","address":"300 W BROADWAY","bldgnbr":"300","predir":"West","streetname":"BROADWAY","streettype":null,"suffdir":null,"city":"BROKEN ARROW","state_code":"OK","zip5":"74012","latitude":"36.0524540000000000","longitude":"-95.793426000000000","publicwifi":"U","url":null,"broadband_type_id":6}
{"id":null,"anchorname":"Good Samaritan Health - Riverside Baptist Church","address":"6363 S. Peoria","bldgnbr":"6363","predir":"South","streetname":"Peoria","streettype":null,"suffdir":null,"city":"Tulsa","state_code":"OK","zip5":"74136","latitude":"36.0705670000000000","longitude":"-95.975775000000000","publicwifi":"U","url":null,"broadband_type_id":3}
{"id":null,"anchorname":"TULSA FIRE DEPARTMENT STATION 28","address":"7310 EAST 71ST STREET","bldgnbr":"7310","predir":"East","streetname":"71ST","streettype":"St","suffdir":null,"city":"TULSA","state_code":"OK","zip5":"74133","latitude":"36.0605183000000000","longitude":"-95.894995300000000","publicwifi":"U","url":null,"broadband_type_id":5}
{"id":null,"anchorname":"TAFT FIRE ASSOCIATION","address":"102 MARTIN LUTHER KING STREET","bldgnbr":"102","predir":null,"streetname":"MARTIN LUTHER KING","streettype":"St","suffdir":null,"city":"TAFT","state_code":"OK","zip5":"74463","latitude":"35.7609921000000000","longitude":"-95.545888000000000","publicwifi":"U","url":null,"broadband_type_id":5}
{"id":null,"anchorname":"WARNER POLICE DEPARTMENT","address":"1000 UNITED STATES HIGHWAY 64","bldgnbr":"1000","predir":null,"streetname":"UNITED STATES HIGHWAY 64","streettype":null,"suffdir":null,"city":"WARNER","state_code":"OK","zip5":"74469","latitude":"35.4959864000000000","longitude":"-95.307490700000000","publicwifi":"U","url":null,"broadband_type_id":4}
{"id":null,"anchorname":"HASKELL VOLUNTEER FIRE DEPARTMENT","address":"119 COMMERCIAL STREET","bldgnbr":"119","predir":null,"streetname":"COMMERCIAL","streettype":"St","suffdir":null,"city":"HASKELL","state_code":"OK","zip5":"74436","latitude":"35.8184050000000000","longitude":"-95.683407000000000","publicwifi":"U","url":null,"broadband_type_id":5}
{"id":null,"anchorname":"BOLEY FIRE DEPARTMENT","address":"307 SOUTH PECAN STREET","bldgnbr":"307","predir":"South","streetname":"PECAN","streettype":"St","suffdir":null,"city":"BOLEY","state_code":"OK","zip5":"74829","latitude":"35.4900062000000000","longitude":"-96.484092800000000","publicwifi":"U","url":null,"broadband_type_id":5}
{"id":null,"anchorname":"OKLAHOMA CITY FIRE DEPARTMENT STATION 11","address":"900 NORTHWEST 50TH STREET","bldgnbr":"900","predir":"Northwest","streetname":"50TH","streettype":"St","suffdir":null,"city":"OKLAHOMA CITY","state_code":"OK","zip5":"73118","latitude":"35.5220242000000000","longitude":"-97.527946500000000","publicwifi":"U","url":null,"broadband_type_id":5}
{"id":null,"anchorname":"OKLAHOMA CITY FIRE DEPARTMENT STATION 24","address":"1500 NORTH MERIDIAN AVENUE","bldgnbr":"1500","predir":"North","streetname":"MERIDIAN","streettype":"Ave","suffdir":null,"city":"OKLAHOMA CITY","state_code":"OK","zip5":"73107","latitude":"35.4845805000000000","longitude":"-97.600703800000000","publicwifi":"U","url":null,"broadband_type_id":5}
{"id":null,"anchorname":"WARR ACRES FIRE DEPARTMENT","address":"5930 NORTHWEST 49TH STREET","bldgnbr":"5930","predir":"Northwest","streetname":"49TH","streettype":"St","suffdir":null,"city":"WARR ACRES","state_code":"OK","zip5":"73122","latitude":"35.5206440000000000","longitude":"-97.622374300000000","publicwifi":"U","url":null,"broadband_type_id":5}
{"id":null,"anchorname":"Oklahoma Community Health Services, Inc.","address":"1025 Straka Terrace","bldgnbr":"1025","predir":null,"streetname":"Straka","streettype":"Terrace","suffdir":null,"city":"Oklahoma City","state_code":"OK","zip5":"73139","latitude":"35.3875410000000000","longitude":"-97.533089000000000","publicwifi":"U","url":null,"broadband_type_id":3}
{"id":null,"anchorname":"OKLAHOMA CITY FIRE DEPARTMENT STATION 13","address":"7000 SOUTHEAST 74TH STREET","bldgnbr":"7000","predir":"Southeast","streetname":"74TH","streettype":"St","suffdir":null,"city":"OKLAHOMA CITY","state_code":"OK","zip5":"73135","latitude":"35.3915137000000000","longitude":"-97.405443200000000","publicwifi":"U","url":null,"broadband_type_id":5}
{"id":null,"anchorname":"DEL CITY FIRE DEPARTMENT STATION 1","address":"4501 SOUTHEAST 15TH STREET","bldgnbr":"4501","predir":"Southeast","streetname":"15TH","streettype":"St","suffdir":null,"city":"DEL CITY","state_code":"OK","zip5":"73115","latitude":"35.4504092000000000","longitude":"-97.436508600000000","publicwifi":"U","url":null,"broadband_type_id":5}
{"id":null,"anchorname":"Oklahoma Surgicare","address":"4317 West Memorial Road","bldgnbr":"4317","predir":"West","streetname":"Memorial","streettype":"Road","suffdir":null,"city":"Oklahoma City","state_code":"OK","zip5":"73134","latitude":"35.6102440000000000","longitude":"-97.600812000000000","publicwifi":"U","url":null,"broadband_type_id":3}
{"id":null,"anchorname":"Oklahoma Heart Hospital","address":"4050 W Memorial Rd","bldgnbr":"4050","predir":"West","streetname":"Memorial","streettype":"Road","suffdir":null,"city":"Oklahoma City","state_code":"OK","zip5":"73120","latitude":"35.6089550000000000","longitude":"-97.595391000000000","publicwifi":"U","url":null,"broadband_type_id":3}
{"id":null,"anchorname":"UNITED STATES BUREAU OF INDIAN AFFAIRS - MUSKOGEE CREEK NATION LIGHTHORSE TRIBAL POLICE DEPARTMENT","address":"1008 EAST EUFAULA STREET","bldgnbr":"1008","predir":"East","streetname":"EUFAULA","streettype":"St","suffdir":null,"city":"OKMULGEE","state_code":"OK","zip5":"74447","latitude":"35.6393391000000000","longitude":"-95.958792000000000","publicwifi":"U","url":null,"broadband_type_id":4}
{"id":null,"anchorname":"PRUE VOLUNTEER FIRE DEPARTMENT","address":"44 SOUTH MAIN STREET","bldgnbr":"44","predir":"South","streetname":"MAIN","streettype":"St","suffdir":null,"city":"PRUE","state_code":"OK","zip5":"74060","latitude":"36.2524948000000000","longitude":"-96.270274400000000","publicwifi":"U","url":null,"broadband_type_id":5}
{"id":null,"anchorname":"BARNSDALL RURAL FIRE FIGHTERS ASSOCIATION","address":"412 SOUTH 5TH STREET","bldgnbr":"412","predir":"South","streetname":"5TH","streettype":"St","suffdir":null,"city":"BARNSDALL","state_code":"OK","zip5":"74002","latitude":"36.5575071000000000","longitude":"-96.162035700000000","publicwifi":"U","url":null,"broadband_type_id":5}
{"id":null,"anchorname":"BARNSDALL POLICE DEPARTMENT","address":"404 WEST MAIN STREET","bldgnbr":"404","predir":"West","streetname":"MAIN","streettype":"St","suffdir":null,"city":"BARNSDALL","state_code":"OK","zip5":"74002","latitude":"36.5619869000000000","longitude":"-96.161059800000000","publicwifi":"U","url":null,"broadband_type_id":4}
{"id":null,"anchorname":"PAWNEE COUNTY SHERIFFS OFFICE / PAWNEE COUNTY JAIL","address":"500 HARRISON STREET","bldgnbr":"500","predir":null,"streetname":"HARRISON","streettype":"St","suffdir":null,"city":"PAWNEE","state_code":"OK","zip5":"74058","latitude":"36.3385148000000000","longitude":"-96.802868800000000","publicwifi":"U","url":null,"broadband_type_id":4}
{"id":null,"anchorname":"CANADIAN SHORES VOLUNTEER FIRE DEPARTMENT","address":"KIOWA","bldgnbr":"N/A","predir":null,"streetname":"N/A","streettype":null,"suffdir":null,"city":"INDIANOLA","state_code":"OK","zip5":"74442","latitude":"35.1716191000000000","longitude":"-95.742281800000000","publicwifi":"U","url":null,"broadband_type_id":5}
{"id":null,"anchorname":"MCALESTER FIRE AND EMERGENCY MEDICAL SERVICES","address":"WASHINGTON AVENUE","bldgnbr":"N/A","predir":null,"streetname":"N/A","streettype":null,"suffdir":null,"city":"MCALESTER","state_code":"OK","zip5":"74501","latitude":"34.9339737000000000","longitude":"-95.768370100000000","publicwifi":"U","url":null,"broadband_type_id":3}
