{"id":null,"anchorname":"ARAPAHOE HIGH SCHOOL","address":"610 WALNUT, ARAPAHOE, NE 68922, ARAPAHOE, NE 68922","bldgnbr":"610","predir":null,"streetname":"WALNUT","streettype":null,"suffdir":null,"city":"ARAPAHOE","state_code":"NE","zip5":"68922","latitude":"40.3083945470000000","longitude":"-99.896489509000000","publicwifi":"U","url":null,"broadband_type_id":6}
{"id":null,"anchorname":"ARAPAHOE PUBLIC SCHOOLS","address":"610 WALNUT ST, ARAPAHOE, NE 68922, ARAPAHOE, NE 68922","bldgnbr":"610","predir":null,"streetname":"WALNUT","streettype":"ST","suffdir":null,"city":"ARAPAHOE","state_code":"NE","zip5":"68922","latitude":"40.3083945470000000","longitude":"-99.896489509000000","publicwifi":"U","url":null,"broadband_type_id":6}
{"id":null,"anchorname":"ARAPAHOE FIRE DEPARTMENT","address":"601 LOCUST ST, ARAPAHOE, NE 68922, ARAPAHOE, NE 68922","bldgnbr":"601","predir":null,"streetname":"LOCUST","streettype":"ST","suffdir":null,"city":"ARAPAHOE","state_code":"NE","zip5":"68922","latitude":"40.3033980640000000","longitude":"-99.897695724000000","publicwifi":"U","url":null,"broadband_type_id":5}
{"id":null,"anchorname":"ARAPAHOE MEDICAL CLINIC","address":"305 NEBRASKA AVE, FARNAM, NE 69029, FARNAM, NE 69029","bldgnbr":"305","predir":null,"streetname":"NEBRASKA","streettype":"AVE","suffdir":null,"city":"FARNAM","state_code":"NE","zip5":"69029","latitude":"40.3012138840000000","longitude":"-99.897678520000000","publicwifi":"U","url":null,"broadband_type_id":3}
{"id":null,"anchorname":"ARAPAHOE PUBLIC LIBRARY","address":"306 NEBRASKA AVE, FARNAM, NE 69029, FARNAM, NE 69029","bldgnbr":"306","predir":null,"streetname":"NEBRASKA","streettype":"AVE","suffdir":null,"city":"FARNAM","state_code":"NE","zip5":"69029","latitude":"40.3012369540000000","longitude":"-99.897678911000000","publicwifi":"U","url":null,"broadband_type_id":6}
{"id":null,"anchorname":"NEW VIEW SCHOOL","address":"1103 CENTRAL ST, OXFORD, NE 68967, OXFORD, NE 68967","bldgnbr":"1103","predir":null,"streetname":"CENTRAL","streettype":"ST","suffdir":null,"city":"OXFORD","state_code":"NE","zip5":"68967","latitude":"40.2597395770000000","longitude":"-99.635156644000000","publicwifi":"U","url":null,"broadband_type_id":6}
{"id":null,"anchorname":"HEARTLAND FAMILY MEDICINE P.C.","address":"803 HOWELL ST, OXFORD, NE 68967, OXFORD, NE 68967","bldgnbr":"803","predir":null,"streetname":"HOWELL","streettype":"ST","suffdir":null,"city":"OXFORD","state_code":"NE","zip5":"68967","latitude":"40.2486940000000000","longitude":"-99.639081000000000","publicwifi":"U","url":null,"broadband_type_id":3}
{"id":null,"anchorname":"OXFORD FIRE DEPARTMENT","address":"206 W S RAILWAY ST, OXFORD, NE 68967, OXFORD, NE 68967","bldgnbr":"206","predir":"W","streetname":"SOUTH RAILWAY","streettype":"ST","suffdir":null,"city":"OXFORD","state_code":"NE","zip5":"68967","latitude":"40.2486940000000000","longitude":"-99.639081000000000","publicwifi":"U","url":null,"broadband_type_id":5}
{"id":null,"anchorname":"SOUTHERN VALLEY SCHOOL","address":"43737 HWY 89, OXFORD, NE 68967, OXFORD, NE 68967","bldgnbr":"43737","predir":null,"streetname":"89","streettype":null,"suffdir":null,"city":"OXFORD","state_code":"NE","zip5":"68967","latitude":"40.2486940000000000","longitude":"-99.639081000000000","publicwifi":"U","url":null,"broadband_type_id":6}
{"id":null,"anchorname":"UNIVERSITY OF NEBRASKA - LINCOLN CAMPUS - COUNTY EXTENSION","address":"912 R ST., BEAVER CITY, NE 69021, BEAVER CITY, NE 69021","bldgnbr":"912","predir":null,"streetname":"R","streettype":"ST","suffdir":null,"city":"BEAVER CITY","state_code":"NE","zip5":"69021","latitude":"40.1384695980000000","longitude":"-99.827559398000000","publicwifi":"U","url":null,"broadband_type_id":6}
{"id":null,"anchorname":"FREEMAN HIGH SCHOOL","address":"415 EIGHTH ST, ADAMS, NE 68301, ADAMS, NE 68301","bldgnbr":"415","predir":null,"streetname":"8TH","streettype":"ST","suffdir":null,"city":"ADAMS","state_code":"NE","zip5":"68301","latitude":"40.4582266290000000","longitude":"-96.511096918000000","publicwifi":"U","url":null,"broadband_type_id":6}
{"id":null,"anchorname":"CORTLAND FIREHALL","address":"100 SOUTH SHERMAN, CORTLAND, NE 68331, CORTLAND, NE 68331","bldgnbr":"100","predir":"S","streetname":"SHERMAN","streettype":null,"suffdir":null,"city":"CORTLAND","state_code":"NE","zip5":"68331","latitude":"40.5057320000000000","longitude":"-96.705825000000000","publicwifi":"U","url":null,"broadband_type_id":5}
{"id":null,"anchorname":"MID-ATLANTIC NEPHROLOGY ASSOCIATES, P.A.","address":"25 CROSSROADS DR OWINGS MILLS MD 21117","bldgnbr":"25","predir":null,"streetname":"CROSSROADS","streettype":"DR","suffdir":null,"city":"OWINGS MILLS","state_code":"MD","zip5":"21117","latitude":"39.3976135690000000","longitude":"-76.750818220000000","publicwifi":"Y","url":null,"broadband_type_id":6}
{"id":null,"anchorname":"STATE OF NEBRASKA","address":"42254 HATCHERY RD, TAYLOR, NE 68814, TAYLOR, NE 68814","bldgnbr":"42254","predir":null,"streetname":"HATCHERY","streettype":"RD","suffdir":null,"city":"TAYLOR","state_code":"NE","zip5":"68814","latitude":"41.8251600000000000","longitude":"-99.210790000000000","publicwifi":"U","url":null,"broadband_type_id":1}
{"id":null,"anchorname":"ANESTHESIA PERIOPERATIVE SERVICES","address":"111000 NACIREMA LN STEVENSON MD 21153","bldgnbr":"111000","predir":null,"streetname":"NACIREMA","streettype":"LN","suffdir":null,"city":"STEVENSON","state_code":"MD","zip5":"21153","latitude":"39.4268536100000000","longitude":"-76.707628076000000","publicwifi":"U","url":null,"broadband_type_id":6}
{"id":null,"anchorname":"DR. STEPHEN MARGOLIS","address":"90 PAINTERS MILL RD OWINGS MILLS MD 21117","bldgnbr":"90","predir":null,"streetname":"PAINTERS MILL","streettype":"RD","suffdir":null,"city":"OWINGS MILLS","state_code":"MD","zip5":"21117","latitude":"39.4135664180000000","longitude":"-76.778286868000000","publicwifi":"U","url":null,"broadband_type_id":6}
{"id":null,"anchorname":"EDUCATIONAL SERVICE UNIT 05","address":"900 WEST COURT, BEATRICE, NE 68310, BEATRICE, NE 68310","bldgnbr":"900","predir":null,"streetname":"WEST","streettype":"CT","suffdir":null,"city":"BEATRICE","state_code":"NE","zip5":"68310","latitude":"40.2659143220000000","longitude":"-96.775249638000000","publicwifi":"U","url":null,"broadband_type_id":6}
{"id":null,"anchorname":"WYMORE CITY OFFICE","address":"115 W. E, WYMORE, NE 68466, WYMORE, NE 68466","bldgnbr":"115","predir":"W","streetname":"E","streettype":null,"suffdir":null,"city":"WYMORE","state_code":"NE","zip5":"68466","latitude":"40.1203283090000000","longitude":"-96.662958730000000","publicwifi":"U","url":null,"broadband_type_id":1}
{"id":null,"anchorname":"GARDEN COUNTY ELEMENTARY SCH","address":"800 WEST 2ND, OSHKOSH, NE 69154, OSHKOSH, NE 69154","bldgnbr":"800","predir":"W","streetname":"2ND","streettype":null,"suffdir":null,"city":"OSHKOSH","state_code":"NE","zip5":"69154","latitude":"41.4095012070000000","longitude":"-102.34755685100000","publicwifi":"U","url":null,"broadband_type_id":6}
{"id":null,"anchorname":"BURWELL DAM-NLRPP \u0026 IRRIG DIST","address":"420 N 8TH AVE, BURWELL, NE 68823, BURWELL, NE 68823","bldgnbr":"420","predir":"N","streetname":"8TH","streettype":"AVE","suffdir":null,"city":"BURWELL","state_code":"NE","zip5":"68823","latitude":"41.7856200000000000","longitude":"-99.135210000000000","publicwifi":"U","url":null,"broadband_type_id":6}
{"id":null,"anchorname":"BOARD OF PUBLIC WORKS","address":"400 ELLA, BEATRICE, NE 68310, BEATRICE, NE 68310","bldgnbr":"400","predir":null,"streetname":"ELLA","streettype":null,"suffdir":null,"city":"BEATRICE","state_code":"NE","zip5":"68310","latitude":"40.2669035760000000","longitude":"-96.749493056000000","publicwifi":"U","url":null,"broadband_type_id":null}
{"id":null,"anchorname":"BURWELL TRANSFER STATION","address":"82758 467TH AVE, BURWELL, NE 68823, BURWELL, NE 68823","bldgnbr":"82758","predir":null,"streetname":"467TH","streettype":"AVE","suffdir":null,"city":"BURWELL","state_code":"NE","zip5":"68823","latitude":"41.8215800000000000","longitude":"-99.125330000000000","publicwifi":"U","url":null,"broadband_type_id":null}
{"id":null,"anchorname":"NEW HOPE REGIONAL FOUNDATION","address":"46800 823RD RD, BURWELL, NE 68823, BURWELL, NE 68823","bldgnbr":"46800","predir":null,"streetname":"823RD","streettype":"RD","suffdir":null,"city":"BURWELL","state_code":"NE","zip5":"68823","latitude":"41.7618700000000000","longitude":"-99.118940000000000","publicwifi":"U","url":null,"broadband_type_id":null}
{"id":null,"anchorname":"BEATRICE HIGH SCHOOL","address":"600 ORANGE BLVD, BEATRICE, NE 68310, BEATRICE, NE 68310","bldgnbr":"600","predir":null,"streetname":"ORANGE","streettype":"BLVD","suffdir":null,"city":"BEATRICE","state_code":"NE","zip5":"68310","latitude":"40.2615647660000000","longitude":"-96.711294880000000","publicwifi":"U","url":null,"broadband_type_id":6}
{"id":null,"anchorname":"UNIVERSITY OF NEBRASKA - LINCOLN CAMPUS - COUNTY EXTENSION","address":"1115 W. SCOTT, BEATRICE, NE 69021, BEATRICE, NE 69021","bldgnbr":"1115","predir":"W","streetname":"SCOTT","streettype":null,"suffdir":null,"city":"BEATRICE","state_code":"NE","zip5":"69021","latitude":"40.2628572700000000","longitude":"-96.780671786000000","publicwifi":"U","url":null,"broadband_type_id":6}
{"id":null,"anchorname":"SOUTHEAST COMMUNITY COLLEGE-BEATRICE CAMPUS","address":"4771 WEST SCOTT ROAD, BEATRICE, NE 68310, BEATRICE, NE 68310","bldgnbr":"4771","predir":"W","streetname":"SCOTT","streettype":"RD","suffdir":null,"city":"BEATRICE","state_code":"NE","zip5":"68310","latitude":"40.2628634940000000","longitude":"-96.787794198000000","publicwifi":"U","url":null,"broadband_type_id":6}
{"id":null,"anchorname":"ST PAUL'S LUTHERAN ELEM SCHOOL","address":"930 PRAIRIE LANE ST, BEATRICE, NE 68310, BEATRICE, NE 68310","bldgnbr":"930","predir":null,"streetname":"PRAIRIE LANE","streettype":"ST","suffdir":null,"city":"BEATRICE","state_code":"NE","zip5":"68310","latitude":"40.2750154610000000","longitude":"-96.724734720000000","publicwifi":"U","url":null,"broadband_type_id":6}
{"id":null,"anchorname":"BEATRICE LIBRARY","address":"100 N 16TH, BEATRICE, NE 68310, BEATRICE, NE 68310","bldgnbr":"100","predir":"N","streetname":"16TH","streettype":null,"suffdir":null,"city":"BEATRICE","state_code":"NE","zip5":"68310","latitude":"40.2663280100000000","longitude":"-96.732464393000000","publicwifi":"U","url":null,"broadband_type_id":6}
{"id":null,"anchorname":"LINCOLN ELEMENTARY SCHOOL","address":"500 N 19TH, BEATRICE, NE 68310, BEATRICE, NE 68310","bldgnbr":"500","predir":"N","streetname":"19TH","streettype":null,"suffdir":null,"city":"BEATRICE","state_code":"NE","zip5":"68310","latitude":"40.2705638170000000","longitude":"-96.727864361000000","publicwifi":"U","url":null,"broadband_type_id":6}
{"id":null,"anchorname":"BEATRICE COURTHOUSE","address":"601 LINCOLN, BEATRICE, NE 68310, BEATRICE, NE 68310","bldgnbr":"601","predir":null,"streetname":"LINCOLN","streettype":null,"suffdir":null,"city":"BEATRICE","state_code":"NE","zip5":"68310","latitude":"40.2717510000000000","longitude":"-96.745193000000000","publicwifi":"U","url":null,"broadband_type_id":1}
{"id":null,"anchorname":"PADDOCK LANE SCHOOL","address":"1300 N 14TH ST, BEATRICE, NE 68310, BEATRICE, NE 68310","bldgnbr":"1300","predir":"N","streetname":"14TH","streettype":"ST","suffdir":null,"city":"BEATRICE","state_code":"NE","zip5":"68310","latitude":"40.2789814710000000","longitude":"-96.736021212000000","publicwifi":"U","url":null,"broadband_type_id":6}
{"id":null,"anchorname":"ST JOSEPH ELEMENTARY SCHOOL","address":"420 N 6TH ST, BEATRICE, NE 68310, BEATRICE, NE 68310","bldgnbr":"420","predir":"N","streetname":"6TH","streettype":"ST","suffdir":null,"city":"BEATRICE","state_code":"NE","zip5":"68310","latitude":"40.2693173890000000","longitude":"-96.746779231000000","publicwifi":"U","url":null,"broadband_type_id":6}
{"id":null,"anchorname":"BEATRICE MIDDLE SCHOOL","address":"215 N 5TH ST, BEATRICE, NE 68310, BEATRICE, NE 68310","bldgnbr":"215","predir":"N","streetname":"5TH","streettype":"ST","suffdir":null,"city":"BEATRICE","state_code":"NE","zip5":"68310","latitude":"40.2670511010000000","longitude":"-96.748126722000000","publicwifi":"U","url":null,"broadband_type_id":6}
{"id":null,"anchorname":"STODDARD ELEMENTARY SCHOOL","address":"400 S 7TH ST, BEATRICE, NE 68310, BEATRICE, NE 68310","bldgnbr":"400","predir":"S","streetname":"7TH","streettype":"ST","suffdir":null,"city":"BEATRICE","state_code":"NE","zip5":"68310","latitude":"40.2627846810000000","longitude":"-96.745428120000000","publicwifi":"U","url":null,"broadband_type_id":6}
{"id":null,"anchorname":"SOUTHERN ELEMENTARY SCHOOL","address":"315 W 2ND ST, BLUE SPRINGS, NE 68318, BLUE SPRINGS, NE 68318","bldgnbr":"315","predir":"W","streetname":"2ND","streettype":"ST","suffdir":null,"city":"BLUE SPRINGS","state_code":"NE","zip5":"68318","latitude":"40.1376530140000000","longitude":"-96.667226314000000","publicwifi":"U","url":null,"broadband_type_id":6}
{"id":null,"anchorname":"SOUTHERN HIGH SCHOOL","address":"115 S 11TH ST, WYMORE, NE 68466, WYMORE, NE 68466","bldgnbr":"115","predir":"S","streetname":"11TH","streettype":"ST","suffdir":null,"city":"WYMORE","state_code":"NE","zip5":"68466","latitude":"40.1222240390000000","longitude":"-96.667600792000000","publicwifi":"U","url":null,"broadband_type_id":6}
{"id":null,"anchorname":"WYMORE LIBRARY","address":"118 WEST F, WYMORE, NE 68466, WYMORE, NE 68466","bldgnbr":"118","predir":"W","streetname":"F","streettype":null,"suffdir":null,"city":"WYMORE","state_code":"NE","zip5":"68466","latitude":"40.1213430370000000","longitude":"-96.662969737000000","publicwifi":"U","url":null,"broadband_type_id":6}
{"id":null,"anchorname":"GARDEN COUNTY HOSPITAL","address":"1100 West 2nd, Oshkosh, NE 69154, Oshkosh, NE 69154","bldgnbr":"N/A","predir":null,"streetname":"N/A","streettype":null,"suffdir":null,"city":"Oshkosh","state_code":"NE","zip5":"69154","latitude":"41.4125770000000000","longitude":"-102.34843200000000","publicwifi":"U","url":null,"broadband_type_id":3}
{"id":null,"anchorname":"UNIVERSITY OF NEBRASKA - LINCOLN CAMPUS - COUNTY EXTENSION","address":"611 MAIN ST, OSHKOSH, NE 69021, OSHKOSH, NE 69021","bldgnbr":"611","predir":null,"streetname":"MAIN","streettype":"ST","suffdir":null,"city":"OSHKOSH","state_code":"NE","zip5":"69021","latitude":"41.4080490780000000","longitude":"-102.34440830600000","publicwifi":"U","url":null,"broadband_type_id":6}
{"id":null,"anchorname":"GARDEN COUNTY HIGH SCHOOL","address":"200 W 4TH ST, OSHKOSH, NE 69154, OSHKOSH, NE 69154","bldgnbr":"200","predir":"W","streetname":"4TH","streettype":"ST","suffdir":null,"city":"OSHKOSH","state_code":"NE","zip5":"69154","latitude":"41.4038264850000000","longitude":"-102.35018287100000","publicwifi":"U","url":null,"broadband_type_id":6}
{"id":null,"anchorname":"GARDEN COUNTY JR HIGH SCHOOL","address":"504 W HWY 26, OSHKOSH, NE 69154, OSHKOSH, NE 69154","bldgnbr":"504","predir":"W","streetname":"26","streettype":null,"suffdir":null,"city":"OSHKOSH","state_code":"NE","zip5":"69154","latitude":"41.4021600000000000","longitude":"-102.34543500000000","publicwifi":"U","url":null,"broadband_type_id":6}
{"id":null,"anchorname":"LOUP BASIN PUBLIC HEALTH DEPT","address":"295 N 8TH AVE, BURWELL, NE 68823, BURWELL, NE 68823","bldgnbr":"295","predir":"N","streetname":"8TH","streettype":"AVE","suffdir":null,"city":"BURWELL","state_code":"NE","zip5":"68823","latitude":"41.7840700000000000","longitude":"-99.135260000000000","publicwifi":"U","url":null,"broadband_type_id":3}
{"id":null,"anchorname":"BURWELL MEDICAL CLINIC","address":"295 N 8TH AVE MED CLINIC, BURWELL, NE 68823, BURWELL, NE 68823","bldgnbr":"295","predir":"N","streetname":"8TH","streettype":"AVE","suffdir":null,"city":"BURWELL","state_code":"NE","zip5":"68823","latitude":"41.7840700000000000","longitude":"-99.135260000000000","publicwifi":"U","url":null,"broadband_type_id":3}
{"id":null,"anchorname":"COMMUNITY MEMORIAL HEALTH","address":"295 N 8TH AVE, BURWELL, NE 68823, BURWELL, NE 68823","bldgnbr":"295","predir":"N","streetname":"8TH","streettype":"AVE","suffdir":null,"city":"BURWELL","state_code":"NE","zip5":"68823","latitude":"41.7840700000000000","longitude":"-99.135260000000000","publicwifi":"U","url":null,"broadband_type_id":3}
{"id":null,"anchorname":"PARKVIEW PLAZA","address":"400 N 8TH AVE, BURWELL, NE 68823, BURWELL, NE 68823","bldgnbr":"400","predir":"N","streetname":"8TH","streettype":"AVE","suffdir":null,"city":"BURWELL","state_code":"NE","zip5":"68823","latitude":"41.7852700000000000","longitude":"-99.135210000000000","publicwifi":"U","url":null,"broadband_type_id":2}
{"id":null,"anchorname":"GARFIELD COUNTY LIBRARY","address":"217 G ST, BURWELL, NE 68823, BURWELL, NE 68823","bldgnbr":"217","predir":null,"streetname":"G","streettype":"ST","suffdir":null,"city":"BURWELL","state_code":"NE","zip5":"68823","latitude":"41.7820300000000000","longitude":"-99.127350000000000","publicwifi":"U","url":null,"broadband_type_id":6}
{"id":null,"anchorname":"CHAPMAN VILLAGE HALL","address":"203 9TH ST, CHAPMAN, NE 68827, CHAPMAN, NE 68827","bldgnbr":"203","predir":null,"streetname":"9TH","streettype":"ST","suffdir":null,"city":"CHAPMAN","state_code":"NE","zip5":"68827","latitude":"41.0241790000000000","longitude":"-98.158150000000000","publicwifi":"U","url":null,"broadband_type_id":1}
{"id":null,"anchorname":"BURWELL ECONOMIC DEVELOPMENT","address":"520 S HIGHWAY 11, BURWELL, NE 68823, BURWELL, NE 68823","bldgnbr":"520","predir":"S","streetname":"11","streettype":null,"suffdir":null,"city":"BURWELL","state_code":"NE","zip5":"68823","latitude":"41.7777100000000000","longitude":"-99.125660000000000","publicwifi":"U","url":null,"broadband_type_id":null}
{"id":null,"anchorname":"CENTRAL MD SURGICAL SPECIALISTS","address":"21 CROSSROADS DR OWINGS MILLS MD 21117","bldgnbr":"21","predir":null,"streetname":"CROSSROADS","streettype":"DR","suffdir":null,"city":"OWINGS MILLS","state_code":"MD","zip5":"21117","latitude":"39.3979006560000000","longitude":"-76.751517487000000","publicwifi":"Y","url":null,"broadband_type_id":6}
{"id":null,"anchorname":"AMERICAN RADIOLOGY SERVICES INC","address":"2700 QUARRY LAKE DR  BALTIMORE MD 21209","bldgnbr":"2700","predir":null,"streetname":"QUARRY LAKE","streettype":"DR","suffdir":null,"city":"BALTIMORE","state_code":"MD","zip5":"21209","latitude":"39.3845255000000000","longitude":"-76.691522770000000","publicwifi":"U","url":null,"broadband_type_id":6}
{"id":null,"anchorname":"CCNS","address":"237 I ST, BURWELL, NE 68823, BURWELL, NE 68823","bldgnbr":"237","predir":null,"streetname":"I","streettype":"ST","suffdir":null,"city":"BURWELL","state_code":"NE","zip5":"68823","latitude":"41.7795700000000000","longitude":"-99.129020000000000","publicwifi":"U","url":null,"broadband_type_id":null}
{"id":null,"anchorname":"SANDHILLS PHYSICAL THERAPY","address":"807 H ST, BURWELL, NE 68823, BURWELL, NE 68823","bldgnbr":"807","predir":null,"streetname":"H","streettype":"ST","suffdir":null,"city":"BURWELL","state_code":"NE","zip5":"68823","latitude":"41.7806200000000000","longitude":"-99.136590000000000","publicwifi":"U","url":null,"broadband_type_id":3}
{"id":null,"anchorname":"PROGRESS UNLIMITED, INC","address":"11431 CRONHILL DR OWINGS MILLS MD 21117","bldgnbr":"11431","predir":null,"streetname":"CRONHILL","streettype":"DR","suffdir":null,"city":"OWINGS MILLS","state_code":"MD","zip5":"21117","latitude":"39.4385426690000000","longitude":"-76.773096081000000","publicwifi":"U","url":null,"broadband_type_id":6}
{"id":null,"anchorname":"PATHOLOGY SERVICES PC","address":"410 S 8TH AVE, BURWELL, NE 68823, BURWELL, NE 68823","bldgnbr":"410","predir":"S","streetname":"8TH","streettype":"AVE","suffdir":null,"city":"BURWELL","state_code":"NE","zip5":"68823","latitude":"41.7783800000000000","longitude":"-99.135300000000000","publicwifi":"U","url":null,"broadband_type_id":6}
{"id":null,"anchorname":"SENIOR CITIZENS CENTER","address":"411 GRAND AVE, BURWELL, NE 68823, BURWELL, NE 68823","bldgnbr":"411","predir":null,"streetname":"GRAND","streettype":"AVE","suffdir":null,"city":"BURWELL","state_code":"NE","zip5":"68823","latitude":"41.7821100000000000","longitude":"-99.136220000000000","publicwifi":"U","url":null,"broadband_type_id":null}
{"id":null,"anchorname":"CITY OF BURWELL","address":"404 GRAND AVE, BURWELL, NE 68823, BURWELL, NE 68823","bldgnbr":"404","predir":null,"streetname":"GRAND","streettype":"AVE","suffdir":null,"city":"BURWELL","state_code":"NE","zip5":"68823","latitude":"41.7818000000000000","longitude":"-99.134560000000000","publicwifi":"U","url":null,"broadband_type_id":1}
{"id":null,"anchorname":"MCMEEN PHYSICAL THERAPY PC","address":"280 N 8TH AVE, BURWELL, NE 68823, BURWELL, NE 68823","bldgnbr":"280","predir":"N","streetname":"8TH","streettype":"AVE","suffdir":null,"city":"BURWELL","state_code":"NE","zip5":"68823","latitude":"41.7843700000000000","longitude":"-99.135220000000000","publicwifi":"U","url":null,"broadband_type_id":3}
{"id":null,"anchorname":"BURWELL REHABILITATION","address":"150 N 9TH, BURWELL, NE 68823, BURWELL, NE 68823","bldgnbr":"150","predir":"N","streetname":"9TH","streettype":null,"suffdir":null,"city":"BURWELL","state_code":"NE","zip5":"68823","latitude":"41.7821100000000000","longitude":"-99.137210000000000","publicwifi":"U","url":null,"broadband_type_id":null}
{"id":null,"anchorname":"PATHWAY BANK","address":"817 H ST, BURWELL, NE 68823, BURWELL, NE 68823","bldgnbr":"817","predir":null,"streetname":"H","streettype":"ST","suffdir":null,"city":"BURWELL","state_code":"NE","zip5":"68823","latitude":"41.7806200000000000","longitude":"-99.136590000000000","publicwifi":"U","url":null,"broadband_type_id":null}
{"id":null,"anchorname":"STATE OF NEBRASKA","address":"82403 HIGHWAY 11, SHELTON, NE 68814, SHELTON, NE 68814","bldgnbr":"82403","predir":null,"streetname":"11","streettype":null,"suffdir":null,"city":"SHELTON","state_code":"NE","zip5":"68814","latitude":"41.7697900000000000","longitude":"-99.126510000000000","publicwifi":"U","url":null,"broadband_type_id":1}
{"id":null,"anchorname":"TIERONE BANK","address":"163 NW GRAND AVE, BURWELL, NE 68823, BURWELL, NE 68823","bldgnbr":"163","predir":"NW","streetname":"GRAND","streettype":"AVE","suffdir":null,"city":"BURWELL","state_code":"NE","zip5":"68823","latitude":"41.7821000000000000","longitude":"-99.135960000000000","publicwifi":"U","url":null,"broadband_type_id":null}
{"id":null,"anchorname":"USDA","address":"415 GRAND AVE, RAVENNA, NE 68823, RAVENNA, NE 68823","bldgnbr":"415","predir":null,"streetname":"GRAND","streettype":"AVE","suffdir":null,"city":"RAVENNA","state_code":"NE","zip5":"68823","latitude":"41.7821000000000000","longitude":"-99.135960000000000","publicwifi":"U","url":null,"broadband_type_id":null}
{"id":null,"anchorname":"BURWELL JR SR HIGH SCHOOL","address":"190 I ST, BURWELL, NE 68823, BURWELL, NE 68823","bldgnbr":"190","predir":null,"streetname":"I","streettype":"ST","suffdir":null,"city":"BURWELL","state_code":"NE","zip5":"68823","latitude":"41.7795700000000000","longitude":"-99.129020000000000","publicwifi":"U","url":null,"broadband_type_id":6}
{"id":null,"anchorname":"GARFIELD COUNTY COURTHOUSE","address":"250 S 8TH AVE, BURWELL, NE 68823, BURWELL, NE 68823","bldgnbr":"250","predir":"S","streetname":"8TH","streettype":"AVE","suffdir":null,"city":"BURWELL","state_code":"NE","zip5":"68823","latitude":"41.7796600000000000","longitude":"-99.135280000000000","publicwifi":"U","url":null,"broadband_type_id":1}
{"id":null,"anchorname":"IVERSON CHIROPRACTIC CLINIC","address":"147 S 8TH AVE, BURWELL, NE 68823, BURWELL, NE 68823","bldgnbr":"147","predir":"S","streetname":"8TH","streettype":"AVE","suffdir":null,"city":"BURWELL","state_code":"NE","zip5":"68823","latitude":"41.7808700000000000","longitude":"-99.135670000000000","publicwifi":"U","url":null,"broadband_type_id":3}
{"id":null,"anchorname":"CHAFFIN CHIROPRACTIC CLINIC PC","address":"147 S 8TH AVE, BURWELL, NE 68823, BURWELL, NE 68823","bldgnbr":"147","predir":"S","streetname":"8TH","streettype":"AVE","suffdir":null,"city":"BURWELL","state_code":"NE","zip5":"68823","latitude":"41.7808700000000000","longitude":"-99.135670000000000","publicwifi":"U","url":null,"broadband_type_id":3}
{"id":null,"anchorname":"RURAL FIRE DEPT","address":"917 G ST, BURWELL, NE 68823, BURWELL, NE 68823","bldgnbr":"917","predir":null,"streetname":"G","streettype":"ST","suffdir":null,"city":"BURWELL","state_code":"NE","zip5":"68823","latitude":"41.7821400000000000","longitude":"-99.137250000000000","publicwifi":"U","url":null,"broadband_type_id":5}
{"id":null,"anchorname":"BURWELL FAMILY PRACTICE CLINIC","address":"410 S 8TH AVE, BURWELL, NE 68823, BURWELL, NE 68823","bldgnbr":"410","predir":"S","streetname":"8TH","streettype":"AVE","suffdir":null,"city":"BURWELL","state_code":"NE","zip5":"68823","latitude":"41.7783800000000000","longitude":"-99.135300000000000","publicwifi":"U","url":null,"broadband_type_id":3}
{"id":null,"anchorname":"BURWELL FAMILY PRACTICE CLINIC","address":"410 S 8TH AVE, BURWELL, NE, NE 68823, BURWELL, NE, NE 68823","bldgnbr":"410","predir":"S","streetname":"8TH","streettype":"AVE","suffdir":null,"city":"BURWELL, NE","state_code":"NE","zip5":"68823","latitude":"41.7783800000000000","longitude":"-99.135300000000000","publicwifi":"U","url":null,"broadband_type_id":3}
{"id":null,"anchorname":"BURWELL JR-SR HIGH SCHOOL","address":"190 I ST, BURWELL, NE 68823, BURWELL, NE 68823","bldgnbr":"190","predir":null,"streetname":"I","streettype":"ST","suffdir":null,"city":"BURWELL","state_code":"NE","zip5":"68823","latitude":"41.7795197310000000","longitude":"-99.126604352000000","publicwifi":"U","url":null,"broadband_type_id":6}
{"id":null,"anchorname":"BURWELL POLICE DEPT","address":"404 GRAND AVE, BURWELL, NE 68823, BURWELL, NE 68823","bldgnbr":"404","predir":null,"streetname":"GRAND","streettype":"AVE","suffdir":null,"city":"BURWELL","state_code":"NE","zip5":"68823","latitude":"41.7818000000000000","longitude":"-99.134560000000000","publicwifi":"U","url":null,"broadband_type_id":4}
{"id":null,"anchorname":"BURWELL DENTAL CLINIC","address":"422 GRAND AVE, BURWELL, NE 68823, BURWELL, NE 68823","bldgnbr":"422","predir":null,"streetname":"GRAND","streettype":"AVE","suffdir":null,"city":"BURWELL","state_code":"NE","zip5":"68823","latitude":"41.7815600000000000","longitude":"-99.135270000000000","publicwifi":"U","url":null,"broadband_type_id":3}
{"id":null,"anchorname":"PLUM CREEK MEDICAL GROUP","address":"202 N SMITH AVE, ELWOOD, NE 68937, ELWOOD, NE 68937","bldgnbr":"202","predir":"N","streetname":"SMITH","streettype":"AVE","suffdir":null,"city":"ELWOOD","state_code":"NE","zip5":"68937","latitude":"40.5922012330000000","longitude":"-99.861396790000000","publicwifi":"U","url":null,"broadband_type_id":3}
{"id":null,"anchorname":"ELWOOD PUBLIC LIBRARY","address":"505 RIPLEY AVE, ELWOOD, NE 68937, ELWOOD, NE 68937","bldgnbr":"505","predir":null,"streetname":"RIPLEY","streettype":"AVE","suffdir":null,"city":"ELWOOD","state_code":"NE","zip5":"68937","latitude":"40.5901985170000000","longitude":"-99.859901428000000","publicwifi":"U","url":null,"broadband_type_id":6}
{"id":null,"anchorname":"GOSPER COUNTY RURAL FIRE DEPARTME","address":"507 RIPLEY AVE, ELWOOD, NE 68937, ELWOOD, NE 68937","bldgnbr":"507","predir":null,"streetname":"RIPLEY","streettype":"AVE","suffdir":null,"city":"ELWOOD","state_code":"NE","zip5":"68937","latitude":"40.5901985170000000","longitude":"-99.859901428000000","publicwifi":"U","url":null,"broadband_type_id":5}
{"id":null,"anchorname":"ESU #11 UP FOR KIDS PRESCHOOL - ELWOOD","address":"314 SMITH AVE, ELWOOD, NE 68937, ELWOOD, NE 68937","bldgnbr":"314","predir":null,"streetname":"SMITH","streettype":"AVE","suffdir":null,"city":"ELWOOD","state_code":"NE","zip5":"68937","latitude":"40.5892405760000000","longitude":"-99.861433152000000","publicwifi":"U","url":null,"broadband_type_id":6}
{"id":null,"anchorname":"UNIVERSITY OF NEBRASKA - LINCOLN CAMPUS - COUNTY EXTENSION","address":"507 SMITH AVE., ELWOOD, NE 69021, ELWOOD, NE 69021","bldgnbr":"507","predir":null,"streetname":"SMITH","streettype":"AVE","suffdir":null,"city":"ELWOOD","state_code":"NE","zip5":"69021","latitude":"40.5882607030000000","longitude":"-99.861408080000000","publicwifi":"U","url":null,"broadband_type_id":6}
{"id":null,"anchorname":"GOSPER COUNTY SHERIFF","address":"507 SMITH AVE, ELWOOD, NE 68937, ELWOOD, NE 68937","bldgnbr":"507","predir":null,"streetname":"SMITH","streettype":"AVE","suffdir":null,"city":"ELWOOD","state_code":"NE","zip5":"68937","latitude":"40.5882987980000000","longitude":"-99.861396790000000","publicwifi":"U","url":null,"broadband_type_id":4}
{"id":null,"anchorname":"ELWOOD ELEMENTARY SCHOOL","address":"502 FIRST AVE, ELWOOD, NE 68937, ELWOOD, NE 68937","bldgnbr":"502","predir":null,"streetname":"1ST","streettype":"AVE","suffdir":null,"city":"ELWOOD","state_code":"NE","zip5":"68937","latitude":"40.5883186920000000","longitude":"-99.864151013000000","publicwifi":"U","url":null,"broadband_type_id":6}
{"id":null,"anchorname":"ELWOOD HIGH SCHOOL","address":"502 FIRST AVE, ELWOOD, NE 68937, ELWOOD, NE 68937","bldgnbr":"502","predir":null,"streetname":"1ST","streettype":"AVE","suffdir":null,"city":"ELWOOD","state_code":"NE","zip5":"68937","latitude":"40.5883186920000000","longitude":"-99.864151013000000","publicwifi":"U","url":null,"broadband_type_id":6}
{"id":null,"anchorname":"ELWOOD PUBLIC SCHOOL","address":"502 1ST AVE, ELWOOD, NE 68937, ELWOOD, NE 68937","bldgnbr":"502","predir":null,"streetname":"1ST","streettype":"AVE","suffdir":null,"city":"ELWOOD","state_code":"NE","zip5":"68937","latitude":"40.5882987980000000","longitude":"-99.864196777000000","publicwifi":"U","url":null,"broadband_type_id":6}
{"id":null,"anchorname":"ELWOOD CARE CENTER","address":"607 SMITH AVE, ELWOOD, NE 68937, ELWOOD, NE 68937","bldgnbr":"607","predir":null,"streetname":"SMITH","streettype":"AVE","suffdir":null,"city":"ELWOOD","state_code":"NE","zip5":"68937","latitude":"40.5872993470000000","longitude":"-99.861396790000000","publicwifi":"U","url":null,"broadband_type_id":3}
{"id":null,"anchorname":"HYANNIS ELEMENTARY SCHOOL","address":"203 S GRANT ST, HYANNIS, NE 69350, HYANNIS, NE 69350","bldgnbr":"203","predir":"S","streetname":"GRANT","streettype":"ST","suffdir":null,"city":"HYANNIS","state_code":"NE","zip5":"69350","latitude":"42.0015990000000000","longitude":"-101.76692700000000","publicwifi":"U","url":null,"broadband_type_id":6}
{"id":null,"anchorname":"CHESAPEAKE UROLOGY","address":"25 CROSSRDS DR  OWINGS MILLS MD 21117","bldgnbr":"25","predir":null,"streetname":"CROSSROADS","streettype":"DR","suffdir":null,"city":"OWINGS MILLS","state_code":"MD","zip5":"21117","latitude":"39.3974068610000000","longitude":"-76.750408869000000","publicwifi":"U","url":null,"broadband_type_id":6}
{"id":null,"anchorname":"MOBILE EYEWEAR SERVICES","address":"11029 MILL CENTRE DR OWINGS MILLS MD 21117","bldgnbr":"11029","predir":null,"streetname":"MILL CENTRE","streettype":"DR","suffdir":null,"city":"OWINGS MILLS","state_code":"MD","zip5":"21117","latitude":"39.4148820000000000","longitude":"-76.811243000000000","publicwifi":"U","url":null,"broadband_type_id":6}
{"id":null,"anchorname":"GREELEY-WOLBACH JUNIOR HIGH","address":"610 KINGSTON, WOLBACH, NE 68882, WOLBACH, NE 68882","bldgnbr":"610","predir":null,"streetname":"KINGSTON","streettype":null,"suffdir":null,"city":"WOLBACH","state_code":"NE","zip5":"68882","latitude":"41.3958809750000000","longitude":"-98.391668571000000","publicwifi":"U","url":null,"broadband_type_id":6}
{"id":null,"anchorname":"TWIN LOUPS RECLAMATION DIST","address":"80309 487TH AVE, SCOTIA, NE 68875, SCOTIA, NE 68875","bldgnbr":"80309","predir":null,"streetname":"487TH","streettype":"AVE","suffdir":null,"city":"SCOTIA","state_code":"NE","zip5":"68875","latitude":"41.4664010000000000","longitude":"-98.703134000000000","publicwifi":"U","url":null,"broadband_type_id":6}
{"id":null,"anchorname":"GREELEY CO SHOP DIST NO 1","address":"305 SABIN ST, SCOTIA, NE 68875, SCOTIA, NE 68875","bldgnbr":"305","predir":null,"streetname":"SABIN","streettype":"ST","suffdir":null,"city":"SCOTIA","state_code":"NE","zip5":"68875","latitude":"41.4664010000000000","longitude":"-98.703134000000000","publicwifi":"U","url":null,"broadband_type_id":6}
{"id":null,"anchorname":"1R ELEMENTARY","address":"3301 W ONE-R ROAD, GRAND ISLAND, NE 68803, GRAND ISLAND, NE 68803","bldgnbr":"3301","predir":"W","streetname":"ONE R","streettype":"RD","suffdir":null,"city":"GRAND ISLAND","state_code":"NE","zip5":"68803","latitude":"41.0034213380000000","longitude":"-98.378524980000000","publicwifi":"U","url":null,"broadband_type_id":6}
{"id":null,"anchorname":"FRIENDSHIP VILLA","address":"241 N CHESTNUT ST OFC, SPALDING, NE 68665, SPALDING, NE 68665","bldgnbr":"241","predir":"N","streetname":"CHESTNUT","streettype":"ST","suffdir":null,"city":"SPALDING","state_code":"NE","zip5":"68665","latitude":"41.6901980000000000","longitude":"-98.364400000000000","publicwifi":"U","url":null,"broadband_type_id":null}
{"id":null,"anchorname":"SCH 497 SPALDNG PUBLC","address":"124 S ASH ST, SPALDING, NE 68665, SPALDING, NE 68665","bldgnbr":"124","predir":"S","streetname":"ASH","streettype":"ST","suffdir":null,"city":"SPALDING","state_code":"NE","zip5":"68665","latitude":"41.6884930000000000","longitude":"-98.360480000000000","publicwifi":"U","url":null,"broadband_type_id":null}
{"id":null,"anchorname":"STATE BANK OF SCOTIA","address":"104 N MAIN ST, SCOTIA, NE 68875, SCOTIA, NE 68875","bldgnbr":"104","predir":"N","streetname":"MAIN","streettype":"ST","suffdir":null,"city":"SCOTIA","state_code":"NE","zip5":"68875","latitude":"41.4664840000000000","longitude":"-98.703058000000000","publicwifi":"U","url":null,"broadband_type_id":1}
{"id":null,"anchorname":"SCH 497 SPALDNG ACDMY","address":"130 W MARGUERITE ST, SPALDING, NE 68665, SPALDING, NE 68665","bldgnbr":"130","predir":"W","streetname":"MARGUERITE","streettype":"ST","suffdir":null,"city":"SPALDING","state_code":"NE","zip5":"68665","latitude":"41.6897820000000000","longitude":"-98.363490000000000","publicwifi":"U","url":null,"broadband_type_id":null}
{"id":null,"anchorname":"GREAT PLAINS COMM 246","address":"400 CENTER AVE, WOLBACH, NE 68882, WOLBACH, NE 68882","bldgnbr":"400","predir":null,"streetname":"CENTER","streettype":"AVE","suffdir":null,"city":"WOLBACH","state_code":"NE","zip5":"68882","latitude":"41.3970350000000000","longitude":"-98.393120000000000","publicwifi":"U","url":null,"broadband_type_id":null}
{"id":null,"anchorname":"GREELEY-WOLBACH ELEM/WOLBACH","address":"610 KINGSTON, WOLBACH, NE 68882, WOLBACH, NE 68882","bldgnbr":"610","predir":null,"streetname":"KINGSTON","streettype":null,"suffdir":null,"city":"WOLBACH","state_code":"NE","zip5":"68882","latitude":"41.3958809750000000","longitude":"-98.391668571000000","publicwifi":"U","url":null,"broadband_type_id":null}
{"id":null,"anchorname":"GREELEY-WOLBACH ELEM/GREELEY","address":"203 N KILDARE, GREELEY, NE 68842, GREELEY, NE 68842","bldgnbr":"203","predir":"N","streetname":"KILDARE","streettype":null,"suffdir":null,"city":"GREELEY","state_code":"NE","zip5":"68842","latitude":"41.5498690420000000","longitude":"-98.531023750000000","publicwifi":"U","url":null,"broadband_type_id":null}
{"id":null,"anchorname":"COW COUNTRY HEALTH CENTER","address":"111 S MAIN AVE, HYANNIS, NE 69350, HYANNIS, NE 69350","bldgnbr":"111","predir":"S","streetname":"MAIN","streettype":"AVE","suffdir":null,"city":"HYANNIS","state_code":"NE","zip5":"69350","latitude":"42.0004080000000000","longitude":"-101.76143200000000","publicwifi":"U","url":null,"broadband_type_id":3}
{"id":null,"anchorname":"GRANT COUNTY COURTHOUSE","address":"105 E HARRISON ST, HYANNIS, NE 69350, HYANNIS, NE 69350","bldgnbr":"105","predir":"E","streetname":"HARRISON","streettype":"ST","suffdir":null,"city":"HYANNIS","state_code":"NE","zip5":"69350","latitude":"42.0001610000000000","longitude":"-101.76065700000000","publicwifi":"U","url":null,"broadband_type_id":1}
{"id":null,"anchorname":"GRANT COUNTY LIBRARY","address":"105 E HARRISON ST, HYANNIS, NE 69350, HYANNIS, NE 69350","bldgnbr":"105","predir":"E","streetname":"HARRISON","streettype":"ST","suffdir":null,"city":"HYANNIS","state_code":"NE","zip5":"69350","latitude":"42.0001610000000000","longitude":"-101.76065700000000","publicwifi":"U","url":null,"broadband_type_id":6}
{"id":null,"anchorname":"HYANNIS HIGH SCHOOL","address":"EAST HWY 2, HYANNIS, NE 69350, HYANNIS, NE 69350","bldgnbr":"0","predir":"E","streetname":"2","streettype":null,"suffdir":null,"city":"HYANNIS","state_code":"NE","zip5":"69350","latitude":"42.0014259740000000","longitude":"-101.76554261300000","publicwifi":"U","url":null,"broadband_type_id":6}
{"id":null,"anchorname":"HYANNIS GRADE SCHOOL GRADE K-6","address":"203 S GRANT AVE, HYANNIS, NE 69350, HYANNIS, NE 69350","bldgnbr":"203","predir":"S","streetname":"GRANT","streettype":"AVE","suffdir":null,"city":"HYANNIS","state_code":"NE","zip5":"69350","latitude":"41.9994050000000000","longitude":"-101.75987000000000","publicwifi":"U","url":null,"broadband_type_id":6}
{"id":null,"anchorname":"SPALDING ELEMENTARY SCHOOL","address":"124 S ASH, SPALDING, NE 68665, SPALDING, NE 68665","bldgnbr":"124","predir":"S","streetname":"ASH","streettype":null,"suffdir":null,"city":"SPALDING","state_code":"NE","zip5":"68665","latitude":"41.6886403040000000","longitude":"-98.360477972000000","publicwifi":"U","url":null,"broadband_type_id":6}
{"id":null,"anchorname":"SPALDING SECONDARY SCHOOL","address":"124 S ASH, SPALDING, NE 68665, SPALDING, NE 68665","bldgnbr":"124","predir":"S","streetname":"ASH","streettype":null,"suffdir":null,"city":"SPALDING","state_code":"NE","zip5":"68665","latitude":"41.6886403040000000","longitude":"-98.360477972000000","publicwifi":"U","url":null,"broadband_type_id":6}
{"id":null,"anchorname":"SPALDING ACADEMY HIGH SCHOOL","address":"130 W MARGUERITE, SPALDING, NE 68665, SPALDING, NE 68665","bldgnbr":"130","predir":"W","streetname":"MARGUERITE","streettype":null,"suffdir":null,"city":"SPALDING","state_code":"NE","zip5":"68665","latitude":"41.6898925640000000","longitude":"-98.363433622000000","publicwifi":"U","url":null,"broadband_type_id":6}
{"id":null,"anchorname":"SPALDING PUBLIC LIBRARY","address":"159 W SAINT JOSEPH ST, SPALDING, NE 68665, SPALDING, NE 68665","bldgnbr":"159","predir":"W","streetname":"SAINT JOSEPH","streettype":"ST","suffdir":null,"city":"SPALDING","state_code":"NE","zip5":"68665","latitude":"41.6887320000000000","longitude":"-98.363820000000000","publicwifi":"U","url":null,"broadband_type_id":6}
{"id":null,"anchorname":"SPALDING RUR FIRE AUX","address":"231 E ST JOSEPH ST, SPALDING, NE 68665, SPALDING, NE 68665","bldgnbr":"231","predir":"E","streetname":"SAINT JOSEPH","streettype":"ST","suffdir":null,"city":"SPALDING","state_code":"NE","zip5":"68665","latitude":"41.6887080000000000","longitude":"-98.361320000000000","publicwifi":"U","url":null,"broadband_type_id":5}
{"id":null,"anchorname":"WOLBACH PUBLIC LIBRARY","address":"406 CENTER AVE, WOLBACH, NE 68882, WOLBACH, NE 68882","bldgnbr":"406","predir":null,"streetname":"CENTER","streettype":"AVE","suffdir":null,"city":"WOLBACH","state_code":"NE","zip5":"68882","latitude":"41.3970516970000000","longitude":"-98.393587897000000","publicwifi":"U","url":null,"broadband_type_id":6}
{"id":null,"anchorname":"CY 246 CITY HALL","address":"406 CENTER AVE, WOLBACH, NE 68882, WOLBACH, NE 68882","bldgnbr":"406","predir":null,"streetname":"CENTER","streettype":"AVE","suffdir":null,"city":"WOLBACH","state_code":"NE","zip5":"68882","latitude":"41.3970360000000000","longitude":"-98.393060000000000","publicwifi":"U","url":null,"broadband_type_id":1}
{"id":null,"anchorname":"WOLBACH PUBLIC SCHOOLS","address":"610 KINGSTON AVE, WOLBACH, NE 68882, WOLBACH, NE 68882","bldgnbr":"610","predir":null,"streetname":"KINGSTON","streettype":"AVE","suffdir":null,"city":"WOLBACH","state_code":"NE","zip5":"68882","latitude":"41.3959630000000000","longitude":"-98.391480000000000","publicwifi":"U","url":null,"broadband_type_id":6}
{"id":null,"anchorname":"GREELEY-WOLBACH SR HIGH SCHOOL","address":"203 N KILDARE, GREELEY, NE 68842, GREELEY, NE 68842","bldgnbr":"203","predir":"N","streetname":"KILDARE","streettype":null,"suffdir":null,"city":"GREELEY","state_code":"NE","zip5":"68842","latitude":"41.5498690420000000","longitude":"-98.531023750000000","publicwifi":"U","url":null,"broadband_type_id":6}
{"id":null,"anchorname":"FIRE DEPARTMENT MEETING HALL","address":"304 S MAIN ST, SCOTIA, NE 68875, SCOTIA, NE 68875","bldgnbr":"304","predir":"S","streetname":"MAIN","streettype":"ST","suffdir":null,"city":"SCOTIA","state_code":"NE","zip5":"68875","latitude":"41.4683470000000000","longitude":"-98.703060000000000","publicwifi":"U","url":null,"broadband_type_id":5}
{"id":null,"anchorname":"SCOTIA PUBLIC LIBRARY","address":"110 S MAIN ST, SCOTIA, NE 68875, SCOTIA, NE 68875","bldgnbr":"110","predir":"S","streetname":"MAIN","streettype":"ST","suffdir":null,"city":"SCOTIA","state_code":"NE","zip5":"68875","latitude":"41.4665410000000000","longitude":"-98.703058000000000","publicwifi":"U","url":null,"broadband_type_id":6}
{"id":null,"anchorname":"NORTH LOUP SCOTIA SCHOOL","address":"303 N INDIAN ST, NORTH LOUP, NE 68859, NORTH LOUP, NE 68859","bldgnbr":"303","predir":"N","streetname":"INDIAN","streettype":"ST","suffdir":null,"city":"NORTH LOUP","state_code":"NE","zip5":"68859","latitude":"41.4683110000000000","longitude":"-98.700629000000000","publicwifi":"U","url":null,"broadband_type_id":6}
{"id":null,"anchorname":"SPRINGDALE CHRISTIAN SCHOOL","address":"49313 HIGHWAY 22, SCOTIA, NE 68875, SCOTIA, NE 68875","bldgnbr":"49313","predir":null,"streetname":"22","streettype":null,"suffdir":null,"city":"SCOTIA","state_code":"NE","zip5":"68875","latitude":"41.4664010000000000","longitude":"-98.703134000000000","publicwifi":"U","url":null,"broadband_type_id":6}
{"id":null,"anchorname":"NEW HOPE CHRISTIAN ELEM SCHOOL","address":"610 S HIGH ST, CAIRO, NE 68824, CAIRO, NE 68824","bldgnbr":"610","predir":"S","streetname":"HIGH","streettype":"ST","suffdir":null,"city":"CAIRO","state_code":"NE","zip5":"68824","latitude":"40.9978627940000000","longitude":"-98.607476217000000","publicwifi":"U","url":null,"broadband_type_id":6}
{"id":null,"anchorname":"KNICKREHM ELEMENTARY SCHOOL","address":"2013 N OAK ST, GRAND ISLAND, NE 68801, GRAND ISLAND, NE 68801","bldgnbr":"2013","predir":"N","streetname":"OAK","streettype":"ST","suffdir":null,"city":"GRAND ISLAND","state_code":"NE","zip5":"68801","latitude":"40.9436867550000000","longitude":"-98.348440220000000","publicwifi":"U","url":null,"broadband_type_id":6}
{"id":null,"anchorname":"BRYAN HIGH SCHOOL","address":"4700 GILES RD, OMAHA, NE 68157, OMAHA, NE 68157","bldgnbr":"4700","predir":null,"streetname":"GILES","streettype":"RD","suffdir":null,"city":"OMAHA","state_code":"NE","zip5":"68157","latitude":"41.1762350590000000","longitude":"-95.984313900000000","publicwifi":"U","url":null,"broadband_type_id":6}
{"id":null,"anchorname":"CHESAPEAKE NEUROSURGERY, LLC","address":"2700 QUARRY LAKE DR BALTIMORE MD 21209","bldgnbr":"2700","predir":null,"streetname":"QUARRY LAKE","streettype":"DR","suffdir":null,"city":"BALTIMORE","state_code":"MD","zip5":"21209","latitude":"39.3845333940000000","longitude":"-76.691524955000000","publicwifi":"Y","url":null,"broadband_type_id":6}
{"id":null,"anchorname":"MAXIMUM DAY SERVICES","address":"11299 OWINGS MILLS BLVD OWINGS MILLS MD 21117","bldgnbr":"11299","predir":null,"streetname":"OWINGS MILLS","streettype":"BLVD","suffdir":null,"city":"OWINGS MILLS","state_code":"MD","zip5":"21117","latitude":"39.4348169260000000","longitude":"-76.779515074000000","publicwifi":"U","url":null,"broadband_type_id":6}
{"id":null,"anchorname":"GRACIOUS LIVING OF REISTERSTOWN, LLC","address":"64 MAIN ST REISTERSTOWN MD 21136","bldgnbr":"64","predir":null,"streetname":"MAIN","streettype":"ST","suffdir":null,"city":"REISTERSTOWN","state_code":"MD","zip5":"21136","latitude":"39.4674114820000000","longitude":"-76.830517651000000","publicwifi":"U","url":null,"broadband_type_id":6}
{"id":null,"anchorname":"REISTERSTOWN SENIOR CENTER","address":"12035 REISTERSTOWN RD REISTERSTOWN MD 21136","bldgnbr":"12035","predir":null,"streetname":"REISTERSTOWN","streettype":"RD","suffdir":null,"city":"REISTERSTOWN","state_code":"MD","zip5":"21136","latitude":"39.4511110000000000","longitude":"-76.818055000000000","publicwifi":"N","url":null,"broadband_type_id":6}
{"id":null,"anchorname":"LAW ENFORCEMENT STATE PATROL","address":"3431   OLD POTASH HWY    W, GRAND ISLAND, NE 68803, GRAND ISLAND, NE 68803","bldgnbr":"3431","predir":null,"streetname":"OLD POTASH","streettype":"HWY","suffdir":"W","city":"GRAND ISLAND","state_code":"NE","zip5":"68803","latitude":"40.9202930000000000","longitude":"-98.364510000000000","publicwifi":"U","url":null,"broadband_type_id":4}
{"id":null,"anchorname":"CHRISTIAN SCIENCE READING","address":"1504   LOCUST  ST  S, GRAND ISLAND, NE 68802, GRAND ISLAND, NE 68802","bldgnbr":"1504","predir":null,"streetname":"LOCUST","streettype":"ST","suffdir":"S","city":"GRAND ISLAND","state_code":"NE","zip5":"68802","latitude":"40.9202930000000000","longitude":"-98.364510000000000","publicwifi":"U","url":null,"broadband_type_id":6}
{"id":null,"anchorname":"CITY OF GRAND ISLAND","address":"1116  NORTH FRONT  ST  W, GRAND ISLAND, NE 68802, GRAND ISLAND, NE 68802","bldgnbr":"1116","predir":"N","streetname":"FRONT","streettype":"ST","suffdir":"W","city":"GRAND ISLAND","state_code":"NE","zip5":"68802","latitude":"40.9202930000000000","longitude":"-98.364510000000000","publicwifi":"U","url":null,"broadband_type_id":6}
{"id":null,"anchorname":"GRAND ISLAND HEARING AID","address":"721  7TH  ST  W, GRAND ISLAND, NE 68801, GRAND ISLAND, NE 68801","bldgnbr":"721","predir":null,"streetname":"7TH","streettype":"ST","suffdir":"W","city":"GRAND ISLAND","state_code":"NE","zip5":"68801","latitude":"40.9202930000000000","longitude":"-98.364510000000000","publicwifi":"U","url":null,"broadband_type_id":6}
{"id":null,"anchorname":"WHOLENESS HEALING CENTER","address":"2608  OLD FAIR  RD, GRAND ISLAND, NE 68803, GRAND ISLAND, NE 68803","bldgnbr":"2608","predir":null,"streetname":"OLD FAIR","streettype":"RD","suffdir":null,"city":"GRAND ISLAND","state_code":"NE","zip5":"68803","latitude":"40.9165738100000000","longitude":"-98.370375019000000","publicwifi":"U","url":null,"broadband_type_id":6}
{"id":null,"anchorname":"CENTRAL PLATTE NATURAL","address":"215  KAUFMAN  AVE, GRAND ISLAND, NE 68803, GRAND ISLAND, NE 68803","bldgnbr":"215","predir":null,"streetname":"KAUFMAN","streettype":"AVE","suffdir":null,"city":"GRAND ISLAND","state_code":"NE","zip5":"68803","latitude":"40.9188228560000000","longitude":"-98.386907031000000","publicwifi":"U","url":null,"broadband_type_id":null}
{"id":null,"anchorname":"ALLEN","address":"807  21  RD  W, GRAND ISLAND, NE 68803, GRAND ISLAND, NE 68803","bldgnbr":"807","predir":null,"streetname":"21ST","streettype":"RD","suffdir":"W","city":"GRAND ISLAND","state_code":"NE","zip5":"68803","latitude":"40.9202930000000000","longitude":"-98.364510000000000","publicwifi":"U","url":null,"broadband_type_id":null}
{"id":null,"anchorname":"ALLEN","address":"807  21  RD  W, GRAND ISLAND, NE 68803, GRAND ISLAND, NE 68803","bldgnbr":"807","predir":null,"streetname":"21ST","streettype":"RD","suffdir":"W","city":"GRAND ISLAND","state_code":"NE","zip5":"68803","latitude":"40.9202930000000000","longitude":"-98.364510000000000","publicwifi":"U","url":null,"broadband_type_id":null}
{"id":null,"anchorname":"DEPT OF ROADS MAINTENANCE OFC","address":"3305   OLD POTASH HWY    W, GRAND ISLAND, NE 68803, GRAND ISLAND, NE 68803","bldgnbr":"3305","predir":null,"streetname":"OLD POTASH","streettype":"HWY","suffdir":"W","city":"GRAND ISLAND","state_code":"NE","zip5":"68803","latitude":"40.9202930000000000","longitude":"-98.364510000000000","publicwifi":"U","url":null,"broadband_type_id":null}
{"id":null,"anchorname":"CENTRAL NE SUPPORT SERVICE PROGRAM","address":"123 S WEBB, GRAND ISLAND, NE 68803, GRAND ISLAND, NE 68803","bldgnbr":"123","predir":"S","streetname":"WEBB","streettype":null,"suffdir":null,"city":"GRAND ISLAND","state_code":"NE","zip5":"68803","latitude":"40.9168885730000000","longitude":"-98.378435047000000","publicwifi":"U","url":null,"broadband_type_id":null}
{"id":null,"anchorname":"TRINITY LUTHERAN ELEM SCHOOL","address":"208 W 13TH ST, GRAND ISLAND, NE 68505, GRAND ISLAND, NE 68505","bldgnbr":"208","predir":"W","streetname":"13TH","streettype":"ST","suffdir":null,"city":"GRAND ISLAND","state_code":"NE","zip5":"68505","latitude":"40.9358708330000000","longitude":"-98.348632099000000","publicwifi":"U","url":null,"broadband_type_id":6}
{"id":null,"anchorname":"HOWARD ELEMENTARY SCHOOL","address":"502 W 9TH ST, GRAND ISLAND, NE 68801, GRAND ISLAND, NE 68801","bldgnbr":"502","predir":"W","streetname":"9TH","streettype":"ST","suffdir":null,"city":"GRAND ISLAND","state_code":"NE","zip5":"68801","latitude":"40.9310075610000000","longitude":"-98.349372630000000","publicwifi":"U","url":null,"broadband_type_id":6}
{"id":null,"anchorname":"JEFFERSON ELEMENTARY SCHOOL","address":"1314 W 7TH ST, GRAND ISLAND, NE 68801, GRAND ISLAND, NE 68801","bldgnbr":"1314","predir":"W","streetname":"7TH","streettype":"ST","suffdir":null,"city":"GRAND ISLAND","state_code":"NE","zip5":"68801","latitude":"40.9256374070000000","longitude":"-98.357030608000000","publicwifi":"U","url":null,"broadband_type_id":6}
{"id":null,"anchorname":"GRAND ISLAND CHRISTIAN SCHOOL","address":"1804 W STATE ST, GRAND ISLAND, NE 68803, GRAND ISLAND, NE 68803","bldgnbr":"1804","predir":"W","streetname":"STATE","streettype":"ST","suffdir":null,"city":"GRAND ISLAND","state_code":"NE","zip5":"68803","latitude":"40.9384910470000000","longitude":"-98.358956461000000","publicwifi":"U","url":null,"broadband_type_id":6}
{"id":null,"anchorname":"WEST LAWN ELEMENTARY SCHOOL","address":"3022 W COLLEGE ST, GRAND ISLAND, NE 68803, GRAND ISLAND, NE 68803","bldgnbr":"3022","predir":"W","streetname":"COLLEGE","streettype":"ST","suffdir":null,"city":"GRAND ISLAND","state_code":"NE","zip5":"68803","latitude":"40.9409364440000000","longitude":"-98.373280313000000","publicwifi":"U","url":null,"broadband_type_id":6}
{"id":null,"anchorname":"WALNUT MIDDLE SCHOOL","address":"1600 N CUSTER AVE, GRAND ISLAND, NE 68803, GRAND ISLAND, NE 68803","bldgnbr":"1600","predir":"N","streetname":"CUSTER","streettype":"AVE","suffdir":null,"city":"GRAND ISLAND","state_code":"NE","zip5":"68803","latitude":"40.9350458840000000","longitude":"-98.368479552000000","publicwifi":"U","url":null,"broadband_type_id":6}
{"id":null,"anchorname":"CHRIST LUTHERAN ELEM SCHOOL","address":"1316 N GRAND ISLAND AVE, GRAND ISLAND, NE 68803, GRAND ISLAND, NE 68803","bldgnbr":"1316","predir":"N","streetname":"GRAND ISLAND","streettype":"AVE","suffdir":null,"city":"GRAND ISLAND","state_code":"NE","zip5":"68803","latitude":"40.9315403640000000","longitude":"-98.361689671000000","publicwifi":"U","url":null,"broadband_type_id":6}
{"id":null,"anchorname":"NORTHWEST HIGH SCHOOL","address":"2710 N NORTH RD, GRAND ISLAND, NE 68803, GRAND ISLAND, NE 68803","bldgnbr":"2710","predir":"N","streetname":"NORTH","streettype":"RD","suffdir":null,"city":"GRAND ISLAND","state_code":"NE","zip5":"68803","latitude":"40.9496245510000000","longitude":"-98.397831914000000","publicwifi":"U","url":null,"broadband_type_id":6}
{"id":null,"anchorname":"ENGLEMAN ELEMENTARY SCHOOL","address":"1812 MANSFIELD RD, GRAND ISLAND, NE 68803, GRAND ISLAND, NE 68803","bldgnbr":"1812","predir":null,"streetname":"MANSFIELD","streettype":"RD","suffdir":null,"city":"GRAND ISLAND","state_code":"NE","zip5":"68803","latitude":"40.9365301480000000","longitude":"-98.404748187000000","publicwifi":"U","url":null,"broadband_type_id":6}
{"id":null,"anchorname":"WESTRIDGE MIDDLE SCHOOL","address":"4111 W 13TH ST, GRAND ISLAND, NE 68803, GRAND ISLAND, NE 68803","bldgnbr":"4111","predir":"W","streetname":"13TH","streettype":"ST","suffdir":null,"city":"GRAND ISLAND","state_code":"NE","zip5":"68803","latitude":"40.9316014810000000","longitude":"-98.404053135000000","publicwifi":"U","url":null,"broadband_type_id":6}
{"id":null,"anchorname":"SHOEMAKER ELEMENTARY SCHOOL","address":"4160 W OLD POTASH HWY, GRAND ISLAND, NE 68803, GRAND ISLAND, NE 68803","bldgnbr":"4160","predir":"W","streetname":"OLD POTASH","streettype":"HWY","suffdir":null,"city":"GRAND ISLAND","state_code":"NE","zip5":"68803","latitude":"40.9171134030000000","longitude":"-98.405252830000000","publicwifi":"U","url":null,"broadband_type_id":6}
{"id":null,"anchorname":"CENTRAL CATHOLIC HIGH SCHOOL","address":"1200 RUBY AVE, GRAND ISLAND, NE 68803, GRAND ISLAND, NE 68803","bldgnbr":"1200","predir":null,"streetname":"RUBY","streettype":"AVE","suffdir":null,"city":"GRAND ISLAND","state_code":"NE","zip5":"68803","latitude":"40.9301550230000000","longitude":"-98.363797566000000","publicwifi":"U","url":null,"broadband_type_id":6}
{"id":null,"anchorname":"SEEDLING MILE ELEM SCHOOL","address":"3208 E SEEDING MILE RD, GRAND ISLAND, NE 68803, GRAND ISLAND, NE 68803","bldgnbr":"3208","predir":"E","streetname":"SEEDING MILE","streettype":"RD","suffdir":null,"city":"GRAND ISLAND","state_code":"NE","zip5":"68803","latitude":"40.9202930000000000","longitude":"-98.364510000000000","publicwifi":"U","url":null,"broadband_type_id":6}
{"id":null,"anchorname":"CENTRAL HEALTH CENTER","address":"2337  WEBB  RD  N, GRAND ISLAND, NE 68802, GRAND ISLAND, NE 68802","bldgnbr":"2337","predir":null,"streetname":"WEBB","streettype":"RD","suffdir":"N","city":"GRAND ISLAND","state_code":"NE","zip5":"68802","latitude":"40.9202930000000000","longitude":"-98.364510000000000","publicwifi":"U","url":null,"broadband_type_id":3}
{"id":null,"anchorname":"GATES ELEMENTARY SCHOOL","address":"2700 W LOUISE ST, GRAND ISLAND, NE 68803, GRAND ISLAND, NE 68803","bldgnbr":"2700","predir":"W","streetname":"LOUISE","streettype":"ST","suffdir":null,"city":"GRAND ISLAND","state_code":"NE","zip5":"68803","latitude":"40.9095501050000000","longitude":"-98.364927230000000","publicwifi":"U","url":null,"broadband_type_id":6}
{"id":null,"anchorname":"WASMER ELEMENTARY SCHOOL","address":"318 S CLARK ST, GRAND ISLAND, NE 68801, GRAND ISLAND, NE 68801","bldgnbr":"318","predir":"S","streetname":"CLARK","streettype":"ST","suffdir":null,"city":"GRAND ISLAND","state_code":"NE","zip5":"68801","latitude":"40.9185677350000000","longitude":"-98.346148102000000","publicwifi":"U","url":null,"broadband_type_id":6}
{"id":null,"anchorname":"BARR MIDDLE SCHOOL","address":"602 W STOLLEY PARK RD, GRAND ISLAND, NE 68801, GRAND ISLAND, NE 68801","bldgnbr":"602","predir":"W","streetname":"STOLLEY PARK","streettype":"RD","suffdir":null,"city":"GRAND ISLAND","state_code":"NE","zip5":"68801","latitude":"40.9021398730000000","longitude":"-98.344706747000000","publicwifi":"U","url":null,"broadband_type_id":6}
{"id":null,"anchorname":"DODGE ELEMENTARY SCHOOL","address":"641 S OAK ST, GRAND ISLAND, NE 68801, GRAND ISLAND, NE 68801","bldgnbr":"641","predir":"S","streetname":"OAK","streettype":"ST","suffdir":null,"city":"GRAND ISLAND","state_code":"NE","zip5":"68801","latitude":"40.9174526560000000","longitude":"-98.334288810000000","publicwifi":"U","url":null,"broadband_type_id":6}
{"id":null,"anchorname":"BALTIMORE COUNTY - ROSEWOOD CENTER","address":"10225 JENSEN LN OWINGS MILLS MD 21117","bldgnbr":"10225","predir":null,"streetname":"JENSEN","streettype":"LN","suffdir":null,"city":"OWINGS MILLS","state_code":"MD","zip5":"21117","latitude":"39.4208650000000000","longitude":"-76.768195000000000","publicwifi":"U","url":null,"broadband_type_id":1}
{"id":null,"anchorname":"MAINSTREET MOBILE TREATMENT ASSOCIATES","address":"37 MAIN ST REISTERSTOWN MD 21136","bldgnbr":"37","predir":null,"streetname":"MAIN","streettype":"ST","suffdir":null,"city":"REISTERSTOWN","state_code":"MD","zip5":"21136","latitude":"39.4688870000000000","longitude":"-76.829528000000000","publicwifi":"U","url":null,"broadband_type_id":6}
{"id":null,"anchorname":"DONIPHAN-TRUMBULL ELEMENTARY","address":"302 W PLUM, DONIPHAN, NE 68832, DONIPHAN, NE 68832","bldgnbr":"302","predir":"W","streetname":"PLUM","streettype":null,"suffdir":null,"city":"DONIPHAN","state_code":"NE","zip5":"68832","latitude":"40.7720079770000000","longitude":"-98.372374902000000","publicwifi":"U","url":null,"broadband_type_id":6}
{"id":null,"anchorname":"VILLAGE OF HAMPTON","address":"611  B ST, HAMPTON, NE 68843, HAMPTON, NE 68843","bldgnbr":"611","predir":null,"streetname":"B","streettype":"ST","suffdir":null,"city":"HAMPTON","state_code":"NE","zip5":"68843","latitude":"40.8796378200000000","longitude":"-97.890098838000000","publicwifi":"U","url":null,"broadband_type_id":1}
{"id":null,"anchorname":"FARGO ES","address":"513 S Main Street","bldgnbr":"513","predir":"South","streetname":"Main","streettype":"St","suffdir":null,"city":"Fargo","state_code":"OK","zip5":"73840","latitude":"36.3715649900000000","longitude":"-99.623515500000000","publicwifi":"U","url":null,"broadband_type_id":6}
{"id":null,"anchorname":"STATE OF NEBRASKA","address":"314  INTERSTATE 80, AURORA, NE 68814, AURORA, NE 68814","bldgnbr":"314","predir":null,"streetname":"80","streettype":null,"suffdir":null,"city":"AURORA","state_code":"NE","zip5":"68814","latitude":"40.7771010000000000","longitude":"-98.378543000000000","publicwifi":"U","url":null,"broadband_type_id":1}
{"id":null,"anchorname":"AMERICAN RED CROSS","address":"2011 W CLARICE ST, DONIPHAN, NE 68832, DONIPHAN, NE 68832","bldgnbr":"2011","predir":"W","streetname":"CLARICE","streettype":"ST","suffdir":null,"city":"DONIPHAN","state_code":"NE","zip5":"68832","latitude":"40.7771010000000000","longitude":"-98.378543000000000","publicwifi":"U","url":null,"broadband_type_id":null}
{"id":null,"anchorname":"LUTHERAN CHURCH-ST PAUL","address":"302 N FOURTH ST, DONIPHAN, NE 68832, DONIPHAN, NE 68832","bldgnbr":"302","predir":"N","streetname":"4TH","streettype":"ST","suffdir":null,"city":"DONIPHAN","state_code":"NE","zip5":"68832","latitude":"40.7741459470000000","longitude":"-98.373718426000000","publicwifi":"U","url":null,"broadband_type_id":null}
{"id":null,"anchorname":"PRAIRIE WINDS","address":"603 W 6TH ST, DONIPHAN, NE 68832, DONIPHAN, NE 68832","bldgnbr":"603","predir":"W","streetname":"6TH","streettype":"ST","suffdir":null,"city":"DONIPHAN","state_code":"NE","zip5":"68832","latitude":"40.7710005530000000","longitude":"-98.375910522000000","publicwifi":"U","url":null,"broadband_type_id":null}
{"id":null,"anchorname":"ST ANN'S CATHOLIC CHURCH","address":"202 N FIFTH ST, DONIPHAN, NE 68832, DONIPHAN, NE 68832","bldgnbr":"202","predir":"N","streetname":"5TH","streettype":"ST","suffdir":null,"city":"DONIPHAN","state_code":"NE","zip5":"68832","latitude":"40.7730990890000000","longitude":"-98.374980823000000","publicwifi":"U","url":null,"broadband_type_id":null}
{"id":null,"anchorname":"POST OFFICE","address":"108 S FIRST ST, HAMPTON, NE 68818, HAMPTON, NE 68818","bldgnbr":"108","predir":"S","streetname":"1ST","streettype":"ST","suffdir":null,"city":"HAMPTON","state_code":"NE","zip5":"68818","latitude":"40.7719488770000000","longitude":"-98.369609835000000","publicwifi":"U","url":null,"broadband_type_id":null}
{"id":null,"anchorname":"DONIPHAN-TRUMBULL SECONDARY","address":"302 W PLUM, DONIPHAN, NE 68832, DONIPHAN, NE 68832","bldgnbr":"302","predir":"W","streetname":"PLUM","streettype":null,"suffdir":null,"city":"DONIPHAN","state_code":"NE","zip5":"68832","latitude":"40.7720079770000000","longitude":"-98.372374902000000","publicwifi":"U","url":null,"broadband_type_id":null}
{"id":null,"anchorname":"SOUTH CENTRAL NEBR RC\u0026D","address":"125 W PLUM ST, DONIPHAN, NE 68832, DONIPHAN, NE 68832","bldgnbr":"125","predir":"W","streetname":"PLUM","streettype":"ST","suffdir":null,"city":"DONIPHAN","state_code":"NE","zip5":"68832","latitude":"40.7720334890000000","longitude":"-98.369506064000000","publicwifi":"U","url":null,"broadband_type_id":null}
{"id":null,"anchorname":"DONIPHAN AREA SENIOR CITI","address":"105 W PLUM ST, DONIPHAN, NE 68832, DONIPHAN, NE 68832","bldgnbr":"105","predir":"W","streetname":"PLUM","streettype":"ST","suffdir":null,"city":"DONIPHAN","state_code":"NE","zip5":"68832","latitude":"40.7720270650000000","longitude":"-98.368972895000000","publicwifi":"U","url":null,"broadband_type_id":null}
{"id":null,"anchorname":"ST PETER LUTHERAN CHURCH","address":"381  H ST, HAMPTON, NE 68843, HAMPTON, NE 68843","bldgnbr":"381","predir":null,"streetname":"H","streettype":"ST","suffdir":null,"city":"HAMPTON","state_code":"NE","zip5":"68843","latitude":"40.8846838510000000","longitude":"-97.887044022000000","publicwifi":"U","url":null,"broadband_type_id":null}
{"id":null,"anchorname":"STARR ELEMENTARY SCHOOL","address":"315 WYANDOTTE ST, GRAND ISLAND, NE 68801, GRAND ISLAND, NE 68801","bldgnbr":"315","predir":null,"streetname":"WYANDOTTE","streettype":"ST","suffdir":null,"city":"GRAND ISLAND","state_code":"NE","zip5":"68801","latitude":"40.8991873790000000","longitude":"-98.341042851000000","publicwifi":"U","url":null,"broadband_type_id":6}
{"id":null,"anchorname":"UNIVERSITY OF NEBRASKA - CSN -COLLEGE PARK","address":"3180 W. HIGHWAY 34, GRAND ISLAND, NE 68801, GRAND ISLAND, NE 68801","bldgnbr":"3180","predir":"W","streetname":"34","streettype":null,"suffdir":null,"city":"GRAND ISLAND","state_code":"NE","zip5":"68801","latitude":"40.8879552110000000","longitude":"-98.375729103000000","publicwifi":"U","url":null,"broadband_type_id":6}
{"id":null,"anchorname":"UNIVERSITY OF NEBRASKA - CSN -COLLEGE PARK","address":"3180 W. HIGHWAY 34, GRAND ISLAND, NE 68801, GRAND ISLAND, NE 68801","bldgnbr":"3180","predir":"W","streetname":"34","streettype":null,"suffdir":null,"city":"GRAND ISLAND","state_code":"NE","zip5":"68801","latitude":"40.8879552110000000","longitude":"-98.375729103000000","publicwifi":"U","url":null,"broadband_type_id":6}
{"id":null,"anchorname":"CENTRAL COMMUNITY COLLEGE-GRAND ISLAND","address":"3134 W HIGHWAY 34, GRAND ISLAND, NE 68801, GRAND ISLAND, NE 68801","bldgnbr":"3134","predir":"W","streetname":"34","streettype":null,"suffdir":null,"city":"GRAND ISLAND","state_code":"NE","zip5":"68801","latitude":"40.8879393970000000","longitude":"-98.375008630000000","publicwifi":"U","url":null,"broadband_type_id":6}
{"id":null,"anchorname":"DOANE COLLEGE-GRAND ISLAND CAMPUS","address":"3180 WEST US HWY 34, GRAND ISLAND, NE 68801, GRAND ISLAND, NE 68801","bldgnbr":"3180","predir":"W","streetname":"34","streettype":null,"suffdir":null,"city":"GRAND ISLAND","state_code":"NE","zip5":"68801","latitude":"40.8879552110000000","longitude":"-98.375729103000000","publicwifi":"U","url":null,"broadband_type_id":6}
{"id":null,"anchorname":"CEDAR HOLLOW SCHOOL","address":"4900 S ENGLEMAN RD, GRAND ISLAND, NE 68803, GRAND ISLAND, NE 68803","bldgnbr":"4900","predir":"S","streetname":"ENGLEMAN","streettype":"RD","suffdir":null,"city":"GRAND ISLAND","state_code":"NE","zip5":"68803","latitude":"40.8600010090000000","longitude":"-98.417126775000000","publicwifi":"U","url":null,"broadband_type_id":6}
{"id":null,"anchorname":"ALDA SCHOOL","address":"206 W 3RD ST, ALDA, NE 68810, ALDA, NE 68810","bldgnbr":"206","predir":"W","streetname":"3RD","streettype":"ST","suffdir":null,"city":"ALDA","state_code":"NE","zip5":"68810","latitude":"40.8713981110000000","longitude":"-98.469950975000000","publicwifi":"U","url":null,"broadband_type_id":6}
{"id":null,"anchorname":"PRIMARY CARE-DONIPHAN","address":"2011 W CLARICE ST, DONIPHAN, NE 68832, DONIPHAN, NE 68832","bldgnbr":"2011","predir":"W","streetname":"CLARICE","streettype":"ST","suffdir":null,"city":"DONIPHAN","state_code":"NE","zip5":"68832","latitude":"40.7771010000000000","longitude":"-98.378543000000000","publicwifi":"U","url":null,"broadband_type_id":3}
{"id":null,"anchorname":"DONIPHAN SCHOOLS","address":"605 W WALNUT ST, DONIPHAN, NE 68832, DONIPHAN, NE 68832","bldgnbr":"605","predir":"W","streetname":"WALNUT","streettype":"ST","suffdir":null,"city":"DONIPHAN","state_code":"NE","zip5":"68832","latitude":"40.7771010000000000","longitude":"-98.378543000000000","publicwifi":"U","url":null,"broadband_type_id":6}
{"id":null,"anchorname":"HALL CO HIGHWAY","address":"401 N FIRST ST, DONIPHAN, NE 68832, DONIPHAN, NE 68832","bldgnbr":"401","predir":"N","streetname":"1ST","streettype":"ST","suffdir":null,"city":"DONIPHAN","state_code":"NE","zip5":"68832","latitude":"40.7773227870000000","longitude":"-98.368893241000000","publicwifi":"U","url":null,"broadband_type_id":1}
{"id":null,"anchorname":"FIRE HALL","address":"102 W CEDAR ST, DONIPHAN, NE 68832, DONIPHAN, NE 68832","bldgnbr":"102","predir":"W","streetname":"CEDAR","streettype":"ST","suffdir":null,"city":"DONIPHAN","state_code":"NE","zip5":"68832","latitude":"40.7730688100000000","longitude":"-98.369649405000000","publicwifi":"U","url":null,"broadband_type_id":5}
{"id":null,"anchorname":"LUTHERAN CHURCH PRESCHOOL","address":"207 N FOURTH ST, DONIPHAN, NE 68832, DONIPHAN, NE 68832","bldgnbr":"207","predir":"N","streetname":"4TH","streettype":"ST","suffdir":null,"city":"DONIPHAN","state_code":"NE","zip5":"68832","latitude":"40.7731328670000000","longitude":"-98.373722600000000","publicwifi":"U","url":null,"broadband_type_id":6}
{"id":null,"anchorname":"DONIPHAN SCHOOL/SIGN","address":"604 W PINE ST, DONIPHAN, NE 68832, DONIPHAN, NE 68832","bldgnbr":"604","predir":"W","streetname":"PINE","streettype":"ST","suffdir":null,"city":"DONIPHAN","state_code":"NE","zip5":"68832","latitude":"40.7710005530000000","longitude":"-98.375922085000000","publicwifi":"U","url":null,"broadband_type_id":6}
{"id":null,"anchorname":"DONIPHAN SCHOOL","address":"302 W PLUM ST, DONIPHAN, NE 68832, DONIPHAN, NE 68832","bldgnbr":"302","predir":"W","streetname":"PLUM","streettype":"ST","suffdir":null,"city":"DONIPHAN","state_code":"NE","zip5":"68832","latitude":"40.7720079770000000","longitude":"-98.372374902000000","publicwifi":"U","url":null,"broadband_type_id":6}
{"id":null,"anchorname":"WOOD RIVER RURAL HIGH SCHOOL","address":"13800 W WOODRIVER, WOOD RIVER, NE 68883, WOOD RIVER, NE 68883","bldgnbr":"13800","predir":"W","streetname":"WOODRIVER","streettype":null,"suffdir":null,"city":"WOOD RIVER","state_code":"NE","zip5":"68883","latitude":"40.8296705820000000","longitude":"-98.603310884000000","publicwifi":"U","url":null,"broadband_type_id":6}
{"id":null,"anchorname":"WOOD RIVER RURAL MIDDLE SCHOOL","address":"13800 W WOODRIVER, WOOD RIVER, NE 68883, WOOD RIVER, NE 68883","bldgnbr":"13800","predir":"W","streetname":"WOODRIVER","streettype":null,"suffdir":null,"city":"WOOD RIVER","state_code":"NE","zip5":"68883","latitude":"40.8296705820000000","longitude":"-98.603310884000000","publicwifi":"U","url":null,"broadband_type_id":6}
{"id":null,"anchorname":"WOOD RIVER ELEMENTARY SCHOOL","address":"1003 LILLY ST, WOOD RIVER, NE 68883, WOOD RIVER, NE 68883","bldgnbr":"1003","predir":null,"streetname":"LILLY","streettype":"ST","suffdir":null,"city":"WOOD RIVER","state_code":"NE","zip5":"68883","latitude":"40.8214108560000000","longitude":"-98.598867686000000","publicwifi":"U","url":null,"broadband_type_id":6}
{"id":null,"anchorname":"HAMPTON ELEMENTARY SCHOOL","address":"458 5TH ST, HAMPTON, NE 68843, HAMPTON, NE 68843","bldgnbr":"458","predir":null,"streetname":"5TH","streettype":"ST","suffdir":null,"city":"HAMPTON","state_code":"NE","zip5":"68843","latitude":"40.8817863820000000","longitude":"-97.888500373000000","publicwifi":"U","url":null,"broadband_type_id":6}
{"id":null,"anchorname":"HAMPTON HIGH SCHOOL","address":"458 5TH ST, HAMPTON, NE 68843, HAMPTON, NE 68843","bldgnbr":"458","predir":null,"streetname":"5TH","streettype":"ST","suffdir":null,"city":"HAMPTON","state_code":"NE","zip5":"68843","latitude":"40.8817863820000000","longitude":"-97.888500373000000","publicwifi":"U","url":null,"broadband_type_id":6}
{"id":null,"anchorname":"HAMPTON PUBLIC SCHOOL","address":"458  5TH ST, HAMPTON, NE 68843, HAMPTON, NE 68843","bldgnbr":"458","predir":null,"streetname":"5TH","streettype":"ST","suffdir":null,"city":"HAMPTON","state_code":"NE","zip5":"68843","latitude":"40.8817863820000000","longitude":"-97.888500373000000","publicwifi":"U","url":null,"broadband_type_id":6}
{"id":null,"anchorname":"AMERICAN RADIOLOGY ASSOCIATES PA","address":"10373 REISTERSTOWN RD OWINGS MILLS MD 21117","bldgnbr":"10373","predir":null,"streetname":"REISTERSTOWN","streettype":"RD","suffdir":null,"city":"OWINGS MILLS","state_code":"MD","zip5":"21117","latitude":"39.4192424710000000","longitude":"-76.777721532000000","publicwifi":"Y","url":null,"broadband_type_id":6}
{"id":null,"anchorname":"UNITED LUTHERAN CHURCH EL","address":"812  1ST ST, HAMPTON, NE 68843, HAMPTON, NE 68843","bldgnbr":"812","predir":null,"streetname":"1ST","streettype":"ST","suffdir":null,"city":"HAMPTON","state_code":"NE","zip5":"68843","latitude":"40.8847679100000000","longitude":"-97.883495371000000","publicwifi":"U","url":null,"broadband_type_id":null}
{"id":null,"anchorname":"STOCKHAM COMMUNITY CHURCH","address":"401  SCOTT ST, STOCKHAM, NE 68818, STOCKHAM, NE 68818","bldgnbr":"401","predir":null,"streetname":"SCOTT","streettype":"ST","suffdir":null,"city":"STOCKHAM","state_code":"NE","zip5":"68818","latitude":"40.7161280000000000","longitude":"-97.942969000000000","publicwifi":"U","url":null,"broadband_type_id":1}
{"id":null,"anchorname":"REISTERSTOWN ELEMENTARY","address":"223 WALGROVE RD REISTERSTOWN MD 21136","bldgnbr":"223","predir":null,"streetname":"WALGROVE","streettype":"RD","suffdir":null,"city":"REISTERSTOWN","state_code":"MD","zip5":"21136","latitude":"39.4564130000000000","longitude":"-76.816192000000000","publicwifi":"U","url":"HTTP://REISTERSTOWNES.BCPS.ORG/","broadband_type_id":6}
{"id":null,"anchorname":"LABORERS FOR CHRIST","address":"1511  W Y RD, HAMPTON, NE 68843, HAMPTON, NE 68843","bldgnbr":"1511","predir":null,"streetname":"W Y","streettype":"RD","suffdir":null,"city":"HAMPTON","state_code":"NE","zip5":"68843","latitude":"40.8786520000000000","longitude":"-97.883292000000000","publicwifi":"U","url":null,"broadband_type_id":6}
{"id":null,"anchorname":"POST OFFICE","address":"107 N 3RD ST, GILTNER, NE 68818, GILTNER, NE 68818","bldgnbr":"107","predir":"N","streetname":"3RD","streettype":"ST","suffdir":null,"city":"GILTNER","state_code":"NE","zip5":"68818","latitude":"40.8784150260000000","longitude":"-97.885913996000000","publicwifi":"U","url":null,"broadband_type_id":null}
{"id":null,"anchorname":"FAITH BAPTIST CHURCH","address":"410  NEBRASKA ST, MARQUETTE, NE 68854, MARQUETTE, NE 68854","bldgnbr":"410","predir":null,"streetname":"NEBRASKA","streettype":"ST","suffdir":null,"city":"MARQUETTE","state_code":"NE","zip5":"68854","latitude":"41.0070050150000000","longitude":"-98.012851649000000","publicwifi":"U","url":null,"broadband_type_id":6}
{"id":null,"anchorname":"STATE OF NEBRASKA/TRAFFIC","address":"1005 S K RD, GILTNER, NE 68818, GILTNER, NE 68818","bldgnbr":"1005","predir":"S","streetname":"K","streettype":"RD","suffdir":null,"city":"GILTNER","state_code":"NE","zip5":"68818","latitude":"40.8295161340000000","longitude":"-98.111756700000000","publicwifi":"U","url":null,"broadband_type_id":1}
{"id":null,"anchorname":"UNITED METHODIST CHURCH","address":"414  3RD ST, GILTNER, NE 68980, GILTNER, NE 68980","bldgnbr":"414","predir":null,"streetname":"3RD","streettype":"ST","suffdir":null,"city":"GILTNER","state_code":"NE","zip5":"68980","latitude":"40.8996549930000000","longitude":"-98.212873716000000","publicwifi":"U","url":null,"broadband_type_id":6}
{"id":null,"anchorname":"STATE OF NEBRASKA","address":"316  INTERSTATE 80, AURORA, NE 68814, AURORA, NE 68814","bldgnbr":"316","predir":null,"streetname":"80","streettype":null,"suffdir":null,"city":"AURORA","state_code":"NE","zip5":"68814","latitude":"40.8983780000000000","longitude":"-98.214462000000000","publicwifi":"U","url":null,"broadband_type_id":1}
{"id":null,"anchorname":"COUNTRYSIDE BIBLE CHURCH","address":"904 S W RD, HAMPTON, NE 68843, HAMPTON, NE 68843","bldgnbr":"904","predir":"S","streetname":"W","streettype":"RD","suffdir":null,"city":"HAMPTON","state_code":"NE","zip5":"68843","latitude":"40.8149249400000000","longitude":"-97.883250352000000","publicwifi":"U","url":null,"broadband_type_id":null}
{"id":null,"anchorname":"COVENANT CEDAR BIBLE CAMP","address":"2909 N W RD, HORDVILLE, NE 68846, HORDVILLE, NE 68846","bldgnbr":"2909","predir":"N","streetname":"W","streettype":"RD","suffdir":null,"city":"HORDVILLE","state_code":"NE","zip5":"68846","latitude":"41.1053687940000000","longitude":"-97.885788610000000","publicwifi":"U","url":null,"broadband_type_id":null}
{"id":null,"anchorname":"FRIDHEM LUTHERAN PARSONAGE","address":"210  3RD ST, HORDVILLE, NE 68846, HORDVILLE, NE 68846","bldgnbr":"210","predir":null,"streetname":"3RD","streettype":"ST","suffdir":null,"city":"HORDVILLE","state_code":"NE","zip5":"68846","latitude":"41.0803880710000000","longitude":"-97.889931397000000","publicwifi":"U","url":null,"broadband_type_id":null}
{"id":null,"anchorname":"ST JOHN'S LUTHERAN CHURCH","address":"2174 N T RD, MARQUETTE, NE 68854, MARQUETTE, NE 68854","bldgnbr":"2174","predir":"N","streetname":"T","streettype":"RD","suffdir":null,"city":"MARQUETTE","state_code":"NE","zip5":"68854","latitude":"40.9995961430000000","longitude":"-97.940761995000000","publicwifi":"U","url":null,"broadband_type_id":null}
{"id":null,"anchorname":"ST JOHN LUTHERAN CHURCH","address":"2172  N T RD, PALMER, NE 68864, PALMER, NE 68864","bldgnbr":"2172","predir":"N","streetname":"T","streettype":"RD","suffdir":null,"city":"PALMER","state_code":"NE","zip5":"68864","latitude":"40.9992962900000000","longitude":"-97.940761995000000","publicwifi":"U","url":null,"broadband_type_id":null}
{"id":null,"anchorname":"INTERSTATE REST STOP","address":"316 W INTERSTATE 80, PHILLIPS, NE 68865, PHILLIPS, NE 68865","bldgnbr":"316","predir":"W","streetname":"80","streettype":null,"suffdir":null,"city":"PHILLIPS","state_code":"NE","zip5":"68865","latitude":"40.8983780000000000","longitude":"-98.214462000000000","publicwifi":"U","url":null,"broadband_type_id":6}
{"id":null,"anchorname":"HORDVILLE POST OFFICE","address":"MAIN ST, HORDVILLE, NE 68846, HORDVILLE, NE 68846","bldgnbr":"0","predir":null,"streetname":"MAIN","streettype":"ST","suffdir":null,"city":"HORDVILLE","state_code":"NE","zip5":"68846","latitude":"41.0755150000000000","longitude":"-97.888434000000000","publicwifi":"U","url":null,"broadband_type_id":null}
{"id":null,"anchorname":"FRIDHEM LUTHERAN CHURCH","address":"315  PARK LN, HORDVILLE, NE 68846, HORDVILLE, NE 68846","bldgnbr":"315","predir":null,"streetname":"PARK","streettype":"LN","suffdir":null,"city":"HORDVILLE","state_code":"NE","zip5":"68846","latitude":"41.0755150000000000","longitude":"-97.888434000000000","publicwifi":"U","url":null,"broadband_type_id":null}
{"id":null,"anchorname":"CHRISTIAN RESOURCE CENTER","address":"603 S K RD, GILTNER, NE 68841, GILTNER, NE 68841","bldgnbr":"603","predir":"S","streetname":"K","streettype":"RD","suffdir":null,"city":"GILTNER","state_code":"NE","zip5":"68841","latitude":"40.7712903800000000","longitude":"-98.111563688000000","publicwifi":"U","url":null,"broadband_type_id":6}
{"id":null,"anchorname":"STATE OF NEBRASKA","address":"1302 N B RD, PHILLIPS, NE 68814, PHILLIPS, NE 68814","bldgnbr":"1302","predir":"N","streetname":"B","streettype":"RD","suffdir":null,"city":"PHILLIPS","state_code":"NE","zip5":"68814","latitude":"40.8983780000000000","longitude":"-98.214462000000000","publicwifi":"U","url":null,"broadband_type_id":1}
{"id":null,"anchorname":"UNITED METHODIST CHURCH","address":"418 N DERBY AVE, AURORA, NE 68980, AURORA, NE 68980","bldgnbr":"418","predir":"N","streetname":"DERBY","streettype":"AVE","suffdir":null,"city":"AURORA","state_code":"NE","zip5":"68980","latitude":"40.7758690000000000","longitude":"-98.153494000000000","publicwifi":"U","url":null,"broadband_type_id":6}
{"id":null,"anchorname":"POST OFFICE","address":"411  MARQUIS AVE, PHILLIPS, NE 68818, PHILLIPS, NE 68818","bldgnbr":"411","predir":null,"streetname":"MARQUIS","streettype":"AVE","suffdir":null,"city":"PHILLIPS","state_code":"NE","zip5":"68818","latitude":"41.0068539960000000","longitude":"-98.010361445000000","publicwifi":"U","url":null,"broadband_type_id":null}
{"id":null,"anchorname":"MARQUETTE CENTER","address":"406  HIGHWAY ST, MARQUETTE, NE 68854, MARQUETTE, NE 68854","bldgnbr":"406","predir":null,"streetname":"HIGHWAY","streettype":"ST","suffdir":null,"city":"MARQUETTE","state_code":"NE","zip5":"68854","latitude":"41.0030403190000000","longitude":"-98.009993090000000","publicwifi":"U","url":null,"broadband_type_id":null}
{"id":null,"anchorname":"MONROE EVANGELICAL FREE CHURCH","address":"1001  W 18 RD, MARQUETTE, NE 68865, MARQUETTE, NE 68865","bldgnbr":"1001","predir":"W","streetname":"18TH","streettype":"RD","suffdir":null,"city":"MARQUETTE","state_code":"NE","zip5":"68865","latitude":"40.9447225890000000","longitude":"-98.112532503000000","publicwifi":"U","url":null,"broadband_type_id":null}
{"id":null,"anchorname":"PHILLIPS CLERK'S OFFICE","address":"543  WEST ST, PHILLIPS, NE 68865, PHILLIPS, NE 68865","bldgnbr":"543","predir":null,"streetname":"WEST","streettype":"ST","suffdir":null,"city":"PHILLIPS","state_code":"NE","zip5":"68865","latitude":"40.8971034880000000","longitude":"-98.214450099000000","publicwifi":"U","url":null,"broadband_type_id":null}
{"id":null,"anchorname":"POST OFFICE","address":"515  WEST ST, MARQUETTE, NE 68818, MARQUETTE, NE 68818","bldgnbr":"515","predir":null,"streetname":"WEST","streettype":"ST","suffdir":null,"city":"MARQUETTE","state_code":"NE","zip5":"68818","latitude":"40.8973912710000000","longitude":"-98.214475794000000","publicwifi":"U","url":null,"broadband_type_id":null}
{"id":null,"anchorname":"PHILLIPS MAINTENANCE SHOP","address":"234  5TH ST, PHILLIPS, NE 68865, PHILLIPS, NE 68865","bldgnbr":"234","predir":null,"streetname":"5TH","streettype":"ST","suffdir":null,"city":"PHILLIPS","state_code":"NE","zip5":"68865","latitude":"40.8983780000000000","longitude":"-98.214462000000000","publicwifi":"U","url":null,"broadband_type_id":null}
{"id":null,"anchorname":"GILTNER MAINTENANCE SHOP","address":"4020 N COMMERCIAL AVE, GILTNER, NE 68841, GILTNER, NE 68841","bldgnbr":"4020","predir":"N","streetname":"COMMERCIAL","streettype":"AVE","suffdir":null,"city":"GILTNER","state_code":"NE","zip5":"68841","latitude":"40.7740747660000000","longitude":"-98.153595180000000","publicwifi":"U","url":null,"broadband_type_id":null}
{"id":null,"anchorname":"POST OFFICE","address":"3013 N COMMERCIAL AVE, TRUMBULL, NE 68818, TRUMBULL, NE 68818","bldgnbr":"3013","predir":"N","streetname":"COMMERCIAL","streettype":"AVE","suffdir":null,"city":"TRUMBULL","state_code":"NE","zip5":"68818","latitude":"40.7758690000000000","longitude":"-98.153494000000000","publicwifi":"U","url":null,"broadband_type_id":null}
{"id":null,"anchorname":"GILTNER CLERK'S OFFICE","address":"4021 N COMMERCIAL AVE, GILTNER, NE 68841, GILTNER, NE 68841","bldgnbr":"4021","predir":"N","streetname":"COMMERCIAL","streettype":"AVE","suffdir":null,"city":"GILTNER","state_code":"NE","zip5":"68841","latitude":"40.7758690000000000","longitude":"-98.153494000000000","publicwifi":"U","url":null,"broadband_type_id":null}
{"id":null,"anchorname":"HAMPTON LUTHERAN ELEM SCHOOL","address":"732 N 3RD ST, HAMPTON, NE 68843, HAMPTON, NE 68843","bldgnbr":"732","predir":"N","streetname":"3RD","streettype":"ST","suffdir":null,"city":"HAMPTON","state_code":"NE","zip5":"68843","latitude":"40.8841024120000000","longitude":"-97.886026136000000","publicwifi":"U","url":null,"broadband_type_id":6}
{"id":null,"anchorname":"HAMPTON LUTHERAN SCHOOL","address":"732 N 3RD ST, HAMPTON, NE 68843, HAMPTON, NE 68843","bldgnbr":"732","predir":"N","streetname":"3RD","streettype":"ST","suffdir":null,"city":"HAMPTON","state_code":"NE","zip5":"68843","latitude":"40.8841024120000000","longitude":"-97.886026136000000","publicwifi":"U","url":null,"broadband_type_id":6}
{"id":null,"anchorname":"HAMPTON RURAL FIRE DISTRI","address":"110 N 3RD ST, HAMPTON, NE 68843, HAMPTON, NE 68843","bldgnbr":"110","predir":"N","streetname":"3RD","streettype":"ST","suffdir":null,"city":"HAMPTON","state_code":"NE","zip5":"68843","latitude":"40.8784686180000000","longitude":"-97.885915098000000","publicwifi":"U","url":null,"broadband_type_id":5}
{"id":null,"anchorname":"HAMPTON CITY HALL","address":"232 N 3RD ST, HAMPTON, NE 68843, HAMPTON, NE 68843","bldgnbr":"232","predir":"N","streetname":"3RD","streettype":"ST","suffdir":null,"city":"HAMPTON","state_code":"NE","zip5":"68843","latitude":"40.8799119380000000","longitude":"-97.885936388000000","publicwifi":"U","url":null,"broadband_type_id":1}
{"id":null,"anchorname":"MARQUETTE COMMUNITY HALL","address":"405  MARQUIS AVE, MARQUETTE, NE 68854, MARQUETTE, NE 68854","bldgnbr":"405","predir":null,"streetname":"MARQUIS","streettype":"AVE","suffdir":null,"city":"MARQUETTE","state_code":"NE","zip5":"68854","latitude":"41.0068556470000000","longitude":"-98.010279955000000","publicwifi":"U","url":null,"broadband_type_id":1}
{"id":null,"anchorname":"PHILLIPS MEMORIAL HALL","address":"500  3RD ST, PHILLIPS, NE 68865, PHILLIPS, NE 68865","bldgnbr":"500","predir":null,"streetname":"3RD","streettype":"ST","suffdir":null,"city":"PHILLIPS","state_code":"NE","zip5":"68865","latitude":"40.8996395760000000","longitude":"-98.211655777000000","publicwifi":"U","url":null,"broadband_type_id":1}
{"id":null,"anchorname":"MESSIAH LUTHERAN CHURCH","address":"415 S 18TH ST, AURORA, NE 68818, AURORA, NE 68818","bldgnbr":"415","predir":"S","streetname":"18TH","streettype":"ST","suffdir":null,"city":"AURORA","state_code":"NE","zip5":"68818","latitude":"40.8543816650000000","longitude":"-97.993494212000000","publicwifi":"U","url":null,"broadband_type_id":6}
{"id":null,"anchorname":"SEVENTH DAY ADVENTIST","address":"1504  12TH ST, AURORA, NE 68818, AURORA, NE 68818","bldgnbr":"1504","predir":null,"streetname":"12TH","streettype":"ST","suffdir":null,"city":"AURORA","state_code":"NE","zip5":"68818","latitude":"40.8715724700000000","longitude":"-98.003330031000000","publicwifi":"U","url":null,"broadband_type_id":6}
{"id":null,"anchorname":"AURORA CITY STREET DEPT","address":"1103  G ST, AURORA, NE 68818, AURORA, NE 68818","bldgnbr":"1103","predir":null,"streetname":"G","streettype":"ST","suffdir":null,"city":"AURORA","state_code":"NE","zip5":"68818","latitude":"40.8634068090000000","longitude":"-98.003896054000000","publicwifi":"U","url":null,"broadband_type_id":1}
{"id":null,"anchorname":"LEADERSHIP CENTER THE","address":"1609 E HIGHWAY 34, AURORA, NE 68818, AURORA, NE 68818","bldgnbr":"1609","predir":"E","streetname":"34","streettype":null,"suffdir":null,"city":"AURORA","state_code":"NE","zip5":"68818","latitude":"40.8724620640000000","longitude":"-97.987823517000000","publicwifi":"U","url":null,"broadband_type_id":null}
{"id":null,"anchorname":"STATE PATROL","address":"715   12TH  ST, AURORA, NE 68818, AURORA, NE 68818","bldgnbr":"715","predir":null,"streetname":"12TH","streettype":"ST","suffdir":null,"city":"AURORA","state_code":"NE","zip5":"68818","latitude":"40.8635793320000000","longitude":"-98.002688025000000","publicwifi":"U","url":null,"broadband_type_id":4}
{"id":null,"anchorname":"WATER WASTE TREATMENT","address":"1205 S R RD, AURORA, NE 68818, AURORA, NE 68818","bldgnbr":"1205","predir":"S","streetname":"R","streettype":"RD","suffdir":null,"city":"AURORA","state_code":"NE","zip5":"68818","latitude":"40.8585378610000000","longitude":"-97.978491252000000","publicwifi":"U","url":null,"broadband_type_id":null}
{"id":null,"anchorname":"AIRPORT AURORA","address":"1406 N HIGHWAY 14, AURORA, NE 68818, AURORA, NE 68818","bldgnbr":"1406","predir":"N","streetname":"14","streettype":null,"suffdir":null,"city":"AURORA","state_code":"NE","zip5":"68818","latitude":"40.8879443930000000","longitude":"-97.998072791000000","publicwifi":"U","url":null,"broadband_type_id":1}
{"id":null,"anchorname":"PRENTICE COUNSELING SERVICE","address":"302 S 16TH ST, AURORA, NE 68818, AURORA, NE 68818","bldgnbr":"302","predir":"S","streetname":"16TH","streettype":"ST","suffdir":null,"city":"AURORA","state_code":"NE","zip5":"68818","latitude":"40.8554037610000000","longitude":"-97.996582730000000","publicwifi":"U","url":null,"broadband_type_id":null}
{"id":null,"anchorname":"AURORA HOUSING AUTHORITY","address":"1505  P ST, AURORA, NE 68818, AURORA, NE 68818","bldgnbr":"1505","predir":null,"streetname":"P","streettype":"ST","suffdir":null,"city":"AURORA","state_code":"NE","zip5":"68818","latitude":"40.8715196120000000","longitude":"-97.999107072000000","publicwifi":"U","url":null,"broadband_type_id":1}
{"id":null,"anchorname":"AURORA TECHNOLOGY CENTER","address":"616  13TH ST, AURORA, NE 68818, AURORA, NE 68818","bldgnbr":"616","predir":null,"streetname":"13TH","streettype":"ST","suffdir":null,"city":"AURORA","state_code":"NE","zip5":"68818","latitude":"40.8626668600000000","longitude":"-98.000784335000000","publicwifi":"U","url":null,"broadband_type_id":1}
{"id":null,"anchorname":"HEAD START/CNCS","address":"208  16TH ST, AURORA, NE 68818, AURORA, NE 68818","bldgnbr":"208","predir":null,"streetname":"16TH","streettype":"ST","suffdir":null,"city":"AURORA","state_code":"NE","zip5":"68818","latitude":"40.8587855790000000","longitude":"-97.996696889000000","publicwifi":"U","url":null,"broadband_type_id":null}
{"id":null,"anchorname":"PLAINS ANTHROPOLOGICAL RESEARCH","address":"616  13TH ST, AURORA, NE 68818, AURORA, NE 68818","bldgnbr":"616","predir":null,"streetname":"13TH","streettype":"ST","suffdir":null,"city":"AURORA","state_code":"NE","zip5":"68818","latitude":"40.8626668600000000","longitude":"-98.000784335000000","publicwifi":"U","url":null,"broadband_type_id":6}
{"id":null,"anchorname":"EDGERTON EXPLORIT CENTER","address":"208  16TH ST, AURORA, NE 68818, AURORA, NE 68818","bldgnbr":"208","predir":null,"streetname":"16TH","streettype":"ST","suffdir":null,"city":"AURORA","state_code":"NE","zip5":"68818","latitude":"40.8587855790000000","longitude":"-97.996696889000000","publicwifi":"U","url":null,"broadband_type_id":null}
{"id":null,"anchorname":"CENTRAL NE COMMUNITY SERV","address":"616  13TH ST, AURORA, NE 68818, AURORA, NE 68818","bldgnbr":"616","predir":null,"streetname":"13TH","streettype":"ST","suffdir":null,"city":"AURORA","state_code":"NE","zip5":"68818","latitude":"40.8626668600000000","longitude":"-98.000784335000000","publicwifi":"U","url":null,"broadband_type_id":1}
{"id":null,"anchorname":"TECHNOLOGY TRAINING CTR","address":"616  13TH ST, AURORA, NE 68818, AURORA, NE 68818","bldgnbr":"616","predir":null,"streetname":"13TH","streettype":"ST","suffdir":null,"city":"AURORA","state_code":"NE","zip5":"68818","latitude":"40.8626668600000000","longitude":"-98.000784335000000","publicwifi":"U","url":null,"broadband_type_id":1}
{"id":null,"anchorname":"PENNER PATIENT CR/LINE 3","address":"102  GRANT ST, AURORA, NE 68818, AURORA, NE 68818","bldgnbr":"102","predir":null,"streetname":"GRANT","streettype":"ST","suffdir":null,"city":"AURORA","state_code":"NE","zip5":"68818","latitude":"40.8724563750000000","longitude":"-98.021296283000000","publicwifi":"U","url":null,"broadband_type_id":null}
{"id":null,"anchorname":"PLEASANT VIEW CHURCH","address":"307  MANOR DR, AURORA, NE 68818, AURORA, NE 68818","bldgnbr":"307","predir":null,"streetname":"MANOR","streettype":"DR","suffdir":null,"city":"AURORA","state_code":"NE","zip5":"68818","latitude":"40.8708910040000000","longitude":"-98.014728479000000","publicwifi":"U","url":null,"broadband_type_id":null}
{"id":null,"anchorname":"USDA SERVICE CENTER","address":"1527  3RD ST, AURORA, NE 68818, AURORA, NE 68818","bldgnbr":"1527","predir":null,"streetname":"3RD","streettype":"ST","suffdir":null,"city":"AURORA","state_code":"NE","zip5":"68818","latitude":"40.8715688840000000","longitude":"-98.014834106000000","publicwifi":"U","url":null,"broadband_type_id":null}
{"id":null,"anchorname":"HAMILTON COUNTY SUPT OF ROADS","address":"1507  A ST, AURORA, NE 68818, AURORA, NE 68818","bldgnbr":"1507","predir":null,"streetname":"A","streettype":"ST","suffdir":null,"city":"AURORA","state_code":"NE","zip5":"68818","latitude":"40.8578079300000000","longitude":"-97.997870488000000","publicwifi":"U","url":null,"broadband_type_id":1}
{"id":null,"anchorname":"ST MARY'S CATHOLIC CHURCH","address":"1419  10TH ST, AURORA, NE 68818, AURORA, NE 68818","bldgnbr":"1419","predir":null,"streetname":"10TH","streettype":"ST","suffdir":null,"city":"AURORA","state_code":"NE","zip5":"68818","latitude":"40.8704057300000000","longitude":"-98.005693738000000","publicwifi":"U","url":null,"broadband_type_id":null}
{"id":null,"anchorname":"ST MARYS ALTAR SOCIETY","address":"1420  9TH ST, AURORA, NE 68818, AURORA, NE 68818","bldgnbr":"1420","predir":null,"streetname":"9TH","streettype":"ST","suffdir":null,"city":"AURORA","state_code":"NE","zip5":"68818","latitude":"40.8703666440000000","longitude":"-98.006982674000000","publicwifi":"U","url":null,"broadband_type_id":null}
{"id":null,"anchorname":"HAMILTON MANOR","address":"1515  5TH ST, AURORA, NE 68818, AURORA, NE 68818","bldgnbr":"1515","predir":null,"streetname":"5TH","streettype":"ST","suffdir":null,"city":"AURORA","state_code":"NE","zip5":"68818","latitude":"40.8713103870000000","longitude":"-98.012257007000000","publicwifi":"U","url":null,"broadband_type_id":null}
{"id":null,"anchorname":"UNITED METHODIST CHURCH","address":"1104  A ST, DONIPHAN, NE 68980, DONIPHAN, NE 68980","bldgnbr":"1104","predir":null,"streetname":"A","streettype":"ST","suffdir":null,"city":"DONIPHAN","state_code":"NE","zip5":"68980","latitude":"40.8577889440000000","longitude":"-98.003500789000000","publicwifi":"U","url":null,"broadband_type_id":6}
{"id":null,"anchorname":"NEBRASKA DEPT OF ROADS","address":"1409  B ST, AURORA, NE 68818, AURORA, NE 68818","bldgnbr":"1409","predir":null,"streetname":"B","streettype":"ST","suffdir":null,"city":"AURORA","state_code":"NE","zip5":"68818","latitude":"40.8586941780000000","longitude":"-98.000620503000000","publicwifi":"U","url":null,"broadband_type_id":null}
{"id":null,"anchorname":"AMERICAN LEGION","address":"1198  C ST, AURORA, NE 68818, AURORA, NE 68818","bldgnbr":"1198","predir":null,"streetname":"C","streettype":"ST","suffdir":null,"city":"AURORA","state_code":"NE","zip5":"68818","latitude":"40.8596017590000000","longitude":"-98.002428507000000","publicwifi":"U","url":null,"broadband_type_id":null}
{"id":null,"anchorname":"EVANGELICAL FREE CHURCH","address":"1202  A ST, AURORA, NE 68818, AURORA, NE 68818","bldgnbr":"1202","predir":null,"streetname":"A","streettype":"ST","suffdir":null,"city":"AURORA","state_code":"NE","zip5":"68818","latitude":"40.8577766860000000","longitude":"-98.002322424000000","publicwifi":"U","url":null,"broadband_type_id":null}
{"id":null,"anchorname":"GILTNER HIGH SCHOOL","address":"#2 WEST 6TH RD, GILTNER, NE 68841, GILTNER, NE 68841","bldgnbr":"2","predir":"W","streetname":"6TH","streettype":"RD","suffdir":null,"city":"GILTNER","state_code":"NE","zip5":"68841","latitude":"40.7758690000000000","longitude":"-98.153494000000000","publicwifi":"U","url":null,"broadband_type_id":6}
{"id":null,"anchorname":"GILTNER SCHOOLS","address":"2 W 6 RD, GILTNER, NE 68841, GILTNER, NE 68841","bldgnbr":"2","predir":"W","streetname":"6TH","streettype":"RD","suffdir":null,"city":"GILTNER","state_code":"NE","zip5":"68841","latitude":"40.7758690000000000","longitude":"-98.153494000000000","publicwifi":"U","url":null,"broadband_type_id":6}
{"id":null,"anchorname":"AURORA CHILD CARE","address":"1717  O ST, AURORA, NE 68818, AURORA, NE 68818","bldgnbr":"1717","predir":null,"streetname":"O","streettype":"ST","suffdir":null,"city":"AURORA","state_code":"NE","zip5":"68818","latitude":"40.8706208210000000","longitude":"-97.996377016000000","publicwifi":"U","url":null,"broadband_type_id":3}
{"id":null,"anchorname":"CHAIRSIDE DENTAL LABORATORY","address":"225 S 18TH ST, AURORA, NE 68818, AURORA, NE 68818","bldgnbr":"225","predir":"S","streetname":"18TH","streettype":"ST","suffdir":null,"city":"AURORA","state_code":"NE","zip5":"68818","latitude":"40.8563985380000000","longitude":"-97.993436104000000","publicwifi":"U","url":null,"broadband_type_id":3}
{"id":null,"anchorname":"PLAINSMAN MUSEUM","address":"210  16TH ST, AURORA, NE 68818, AURORA, NE 68818","bldgnbr":"210","predir":null,"streetname":"16TH","streettype":"ST","suffdir":null,"city":"AURORA","state_code":"NE","zip5":"68818","latitude":"40.8588041160000000","longitude":"-97.996696155000000","publicwifi":"U","url":null,"broadband_type_id":1}
{"id":null,"anchorname":"PENNER PATIENT CARE","address":"101  GRANT ST, AURORA, NE 68818, AURORA, NE 68818","bldgnbr":"101","predir":null,"streetname":"GRANT","streettype":"ST","suffdir":null,"city":"AURORA","state_code":"NE","zip5":"68818","latitude":"40.8723811250000000","longitude":"-98.021296283000000","publicwifi":"U","url":null,"broadband_type_id":3}
{"id":null,"anchorname":"STREETERS PARK","address":"1305  Q ST, AURORA, NE 68818, AURORA, NE 68818","bldgnbr":"1305","predir":null,"streetname":"Q","streettype":"ST","suffdir":null,"city":"AURORA","state_code":"NE","zip5":"68818","latitude":"40.8724538050000000","longitude":"-98.001558734000000","publicwifi":"U","url":null,"broadband_type_id":2}
{"id":null,"anchorname":"TABITHA HOME HEALTH CARE","address":"1404  5TH ST, AURORA, NE 68818, AURORA, NE 68818","bldgnbr":"1404","predir":null,"streetname":"5TH","streettype":"ST","suffdir":null,"city":"AURORA","state_code":"NE","zip5":"68818","latitude":"40.8698964530000000","longitude":"-98.012067150000000","publicwifi":"U","url":null,"broadband_type_id":3}
{"id":null,"anchorname":"MEMORIAL HEALTH CLINIC","address":"609  O ST, AURORA, NE 68818, AURORA, NE 68818","bldgnbr":"609","predir":null,"streetname":"O","streettype":"ST","suffdir":null,"city":"AURORA","state_code":"NE","zip5":"68818","latitude":"40.8699133000000000","longitude":"-98.010788182000000","publicwifi":"U","url":null,"broadband_type_id":3}
{"id":null,"anchorname":"MEMORIAL HOSPITAL","address":"1423  7TH ST, AURORA, NE 68818, AURORA, NE 68818","bldgnbr":"1423","predir":null,"streetname":"7TH","streettype":"ST","suffdir":null,"city":"AURORA","state_code":"NE","zip5":"68818","latitude":"40.8702477340000000","longitude":"-98.009383264000000","publicwifi":"U","url":null,"broadband_type_id":3}
{"id":null,"anchorname":"SHERIFF'S OFC","address":"715  12TH ST, AURORA, NE 68818, AURORA, NE 68818","bldgnbr":"715","predir":null,"streetname":"12TH","streettype":"ST","suffdir":null,"city":"AURORA","state_code":"NE","zip5":"68818","latitude":"40.8635793320000000","longitude":"-98.002688025000000","publicwifi":"U","url":null,"broadband_type_id":4}
{"id":null,"anchorname":"AURORA MASSAGE THERAPY","address":"1122  13TH ST, AURORA, NE 68818, AURORA, NE 68818","bldgnbr":"1122","predir":null,"streetname":"13TH","streettype":"ST","suffdir":null,"city":"AURORA","state_code":"NE","zip5":"68818","latitude":"40.8675693850000000","longitude":"-98.001126692000000","publicwifi":"U","url":null,"broadband_type_id":3}
{"id":null,"anchorname":"STATE OF NEBRASKA","address":"1111  13TH ST, DONIPHAN, NE 68814, DONIPHAN, NE 68814","bldgnbr":"1111","predir":null,"streetname":"13TH","streettype":"ST","suffdir":null,"city":"DONIPHAN","state_code":"NE","zip5":"68814","latitude":"40.8674273290000000","longitude":"-98.001115680000000","publicwifi":"U","url":null,"broadband_type_id":1}
{"id":null,"anchorname":"STATE OF NEBRASKA","address":"1111  13TH ST, PHILLIPS, NE 68814, PHILLIPS, NE 68814","bldgnbr":"1111","predir":null,"streetname":"13TH","streettype":"ST","suffdir":null,"city":"PHILLIPS","state_code":"NE","zip5":"68814","latitude":"40.8674273290000000","longitude":"-98.001115680000000","publicwifi":"U","url":null,"broadband_type_id":1}
{"id":null,"anchorname":"EVANGELICAL COVENANT","address":"304  MARK ST, AURORA, NE 68818, AURORA, NE 68818","bldgnbr":"304","predir":null,"streetname":"MARK","streettype":"ST","suffdir":null,"city":"AURORA","state_code":"NE","zip5":"68818","latitude":"40.8650323300000000","longitude":"-98.020147447000000","publicwifi":"U","url":null,"broadband_type_id":null}
{"id":null,"anchorname":"1ST EVANGELICAL LUTHERAN","address":"1304 N HIGHWAY 14, AURORA, NE 68818, AURORA, NE 68818","bldgnbr":"1304","predir":"N","streetname":"14","streettype":null,"suffdir":null,"city":"AURORA","state_code":"NE","zip5":"68818","latitude":"40.8697356500000000","longitude":"-97.997835541000000","publicwifi":"U","url":null,"broadband_type_id":null}
{"id":null,"anchorname":"REISTERSTOWN AMBULATORY SURGICA","address":"113 WESTMINISTER RD REISTERSTOWN MD 21136","bldgnbr":"113","predir":null,"streetname":"WESTMINISTER","streettype":"RD","suffdir":null,"city":"REISTERSTOWN","state_code":"MD","zip5":"21136","latitude":"39.4714701940000000","longitude":"-76.833142529000000","publicwifi":"U","url":null,"broadband_type_id":6}
{"id":null,"anchorname":"HAMILTON COUNTY FAIRGROUNDS/AG AUDITORIUM","address":"312  A ST, AURORA, NE 68818, AURORA, NE 68818","bldgnbr":"312","predir":null,"streetname":"A","streettype":"ST","suffdir":null,"city":"AURORA","state_code":"NE","zip5":"68818","latitude":"40.8577978460000000","longitude":"-98.013965544000000","publicwifi":"U","url":null,"broadband_type_id":1}
{"id":null,"anchorname":"YOUTH CENTER","address":"1217  12TH ST, AURORA, NE 68818, AURORA, NE 68818","bldgnbr":"1217","predir":null,"streetname":"12TH","streettype":"ST","suffdir":null,"city":"AURORA","state_code":"NE","zip5":"68818","latitude":"40.8685555200000000","longitude":"-98.003005358000000","publicwifi":"U","url":null,"broadband_type_id":null}
{"id":null,"anchorname":"AURORA CITY WATER DEPT","address":"1302 N HIGHWAY 14, AURORA, NE 68818, AURORA, NE 68818","bldgnbr":"1302","predir":"N","streetname":"14","streettype":null,"suffdir":null,"city":"AURORA","state_code":"NE","zip5":"68818","latitude":"40.8697183980000000","longitude":"-97.997834256000000","publicwifi":"U","url":null,"broadband_type_id":1}
{"id":null,"anchorname":"AURORA AREA CHAMBER \u0026 DEVELOPMEN","address":"1604  L ST, AURORA, NE 68818, AURORA, NE 68818","bldgnbr":"1604","predir":null,"streetname":"L","streettype":"ST","suffdir":null,"city":"AURORA","state_code":"NE","zip5":"68818","latitude":"40.8674910160000000","longitude":"-97.997640627000000","publicwifi":"U","url":null,"broadband_type_id":null}
{"id":null,"anchorname":"PROBATION OFFICE-CRT HSE","address":"1111  13TH ST, AURORA, NE 68818, AURORA, NE 68818","bldgnbr":"1111","predir":null,"streetname":"13TH","streettype":"ST","suffdir":null,"city":"AURORA","state_code":"NE","zip5":"68818","latitude":"40.8674273290000000","longitude":"-98.001115680000000","publicwifi":"U","url":null,"broadband_type_id":6}
{"id":null,"anchorname":"DISTRICT JUDGE/INTERNET","address":"1111  13TH ST, AURORA, NE 68818, AURORA, NE 68818","bldgnbr":"1111","predir":null,"streetname":"13TH","streettype":"ST","suffdir":null,"city":"AURORA","state_code":"NE","zip5":"68818","latitude":"40.8674273290000000","longitude":"-98.001115680000000","publicwifi":"U","url":null,"broadband_type_id":6}
{"id":null,"anchorname":"HAMILTON COUNTY ASSESSOR","address":"1111  13TH ST, AURORA, NE 68818, AURORA, NE 68818","bldgnbr":"1111","predir":null,"streetname":"13TH","streettype":"ST","suffdir":null,"city":"AURORA","state_code":"NE","zip5":"68818","latitude":"40.8674273290000000","longitude":"-98.001115680000000","publicwifi":"U","url":null,"broadband_type_id":6}
{"id":null,"anchorname":"NATURE CONSERVANCY","address":"1228  L ST, AURORA, NE 68818, AURORA, NE 68818","bldgnbr":"1228","predir":null,"streetname":"L","streettype":"ST","suffdir":null,"city":"AURORA","state_code":"NE","zip5":"68818","latitude":"40.8672447120000000","longitude":"-98.002404097000000","publicwifi":"U","url":null,"broadband_type_id":null}
