{"id":null,"anchorname":"HARBORSIDE HEALTH CARE CENTER","address":"512 CRESCENT DR TROY, OH 45373","bldgnbr":"512","predir":null,"streetname":"CRESCENT DR","streettype":null,"suffdir":null,"city":"TROY","state_code":"OH","zip5":"45373","latitude":"40.0360600000000000","longitude":"-84.222850000000000","publicwifi":"U","url":null,"broadband_type_id":3}
{"id":null,"anchorname":"TROY CHRISTIAN ELEMENTARY SCHOOL","address":"1586  MCKAIG RD TROY, OH 45373-2670","bldgnbr":"1586","predir":null,"streetname":"MCKAIG RD","streettype":null,"suffdir":null,"city":"TROY","state_code":"OH","zip5":"45373","latitude":"40.0394900000000000","longitude":"-84.230300000000000","publicwifi":"U","url":null,"broadband_type_id":6}
{"id":null,"anchorname":"KYLE ELEMENTARY SCHOOL","address":"501 S PLUM ST TROY, OH 45373","bldgnbr":"501","predir":null,"streetname":"S PLUM ST","streettype":null,"suffdir":null,"city":"TROY","state_code":"OH","zip5":"45373","latitude":"40.0349000000000000","longitude":"-84.208700000000000","publicwifi":"U","url":null,"broadband_type_id":6}
{"id":null,"anchorname":"MIAMI COUNTY JAIL-SHERIFF DEPARTMENT","address":"201 W MAIN ST TROY, OH 45373","bldgnbr":"201","predir":null,"streetname":"W MAIN ST","streettype":null,"suffdir":null,"city":"TROY","state_code":"OH","zip5":"45373","latitude":"40.0409100000000000","longitude":"-84.204700000000000","publicwifi":"U","url":null,"broadband_type_id":4}
{"id":null,"anchorname":"NORTHERN ROCKIES SURGERY CENTER, L.P.","address":"940 NORTH 30TH STREET","bldgnbr":"940","predir":"North","streetname":"30Th","streettype":"St","suffdir":null,"city":"Billings","state_code":"MT","zip5":"59101","latitude":"45.7883741740000000","longitude":"-108.51572651300000","publicwifi":"U","url":null,"broadband_type_id":6}
{"id":null,"anchorname":"ELLA LEES ASSISTED LIVING AFH","address":"6541 HESPER RD","bldgnbr":"6541","predir":null,"streetname":"Hesper","streettype":"Road","suffdir":null,"city":"Billings","state_code":"MT","zip5":"59106","latitude":"45.7410878210000000","longitude":"-108.68310833000000","publicwifi":"U","url":null,"broadband_type_id":6}
{"id":null,"anchorname":"AMERICAN RED CROSS NORTHERN MIAMI VALLEY CHAPTER","address":"1314 BARNHART ROAD TROY, OH 45373","bldgnbr":"1314","predir":null,"streetname":"BARNHART ROAD","streettype":null,"suffdir":null,"city":"TROY","state_code":"OH","zip5":"45373","latitude":"40.0184700000000000","longitude":"-84.240170000000000","publicwifi":"U","url":null,"broadband_type_id":null}
{"id":null,"anchorname":"Junction City Sr Center","address":"322 6Th St","bldgnbr":"322","predir":null,"streetname":"6Th","streettype":"St","suffdir":null,"city":"Custer","state_code":"MT","zip5":"59024","latitude":"46.1267600150000000","longitude":"-107.55223021100000","publicwifi":"U","url":"http://www.dphhs.mt.gov/sltc/services/aging/areaagenciesonaging.shtml","broadband_type_id":1}
{"id":null,"anchorname":"MIAMI","address":"6340 PISGAH RD TIPP CITY, OH 45371-9759","bldgnbr":"6340","predir":null,"streetname":"PISGAH RD","streettype":null,"suffdir":null,"city":"TIPP CITY","state_code":"OH","zip5":"45371","latitude":"39.9378700000000000","longitude":"-84.103980000000000","publicwifi":"U","url":null,"broadband_type_id":null}
{"id":null,"anchorname":"MIAMI","address":"6940 SCARFF RD NEW CARLISLE, OH 45344-8677","bldgnbr":"6940","predir":null,"streetname":"SCARFF RD","streettype":null,"suffdir":null,"city":"NEW CARLISLE","state_code":"OH","zip5":"45344","latitude":"39.9245600000000000","longitude":"-84.054800000000000","publicwifi":"U","url":null,"broadband_type_id":null}
{"id":null,"anchorname":"MIAMI","address":"4520 E STATE ROUTE 41 TROY, OH 45373-9697","bldgnbr":"4520","predir":null,"streetname":"E STATE ROUTE 41","streettype":null,"suffdir":null,"city":"TROY","state_code":"OH","zip5":"45373","latitude":"40.0181100000000000","longitude":"-84.122460000000000","publicwifi":"U","url":null,"broadband_type_id":null}
{"id":null,"anchorname":"ORMET PRIMARY ALUMINUM CORPORATION","address":"43840 STATE ROAD 7 HANNIBAL, OH 43931","bldgnbr":"43840","predir":null,"streetname":"STATE ROAD 7","streettype":null,"suffdir":null,"city":"HANNIBAL","state_code":"OH","zip5":"43931","latitude":"39.6672000000000000","longitude":"-80.872200000000000","publicwifi":"U","url":null,"broadband_type_id":null}
{"id":null,"anchorname":"MIAMI COUNTY PARK DISTRICT PARK RANGERS","address":"2535 ROSS RD TIPP CITY, OH 45371-9275","bldgnbr":"2535","predir":null,"streetname":"ROSS RD","streettype":null,"suffdir":null,"city":"TIPP CITY","state_code":"OH","zip5":"45371","latitude":"39.9182100000000000","longitude":"-84.147650000000000","publicwifi":"U","url":null,"broadband_type_id":2}
{"id":null,"anchorname":"BETHEL ELEMENTARY SCHOOL","address":"7490 STATE ROUTE 201 TIPP CITY, OH 45371","bldgnbr":"7490","predir":null,"streetname":"STATE ROUTE 201","streettype":null,"suffdir":null,"city":"TIPP CITY","state_code":"OH","zip5":"45371","latitude":"39.9187200000000000","longitude":"-84.088150000000000","publicwifi":"U","url":null,"broadband_type_id":6}
{"id":null,"anchorname":"BETHEL HIGH SCHOOL","address":"7490 STATE ROUTE 201 TIPP CITY, OH 45371","bldgnbr":"7490","predir":null,"streetname":"STATE ROUTE 201","streettype":null,"suffdir":null,"city":"TIPP CITY","state_code":"OH","zip5":"45371","latitude":"39.9187200000000000","longitude":"-84.088150000000000","publicwifi":"U","url":null,"broadband_type_id":6}
{"id":null,"anchorname":"BETHEL JUNIOR HIGH SCHOOL","address":"7490 STATE ROUTE 201 TIPP CITY, OH 45371","bldgnbr":"7490","predir":null,"streetname":"STATE ROUTE 201","streettype":null,"suffdir":null,"city":"TIPP CITY","state_code":"OH","zip5":"45371","latitude":"39.9187200000000000","longitude":"-84.088150000000000","publicwifi":"U","url":null,"broadband_type_id":6}
{"id":null,"anchorname":"BETHEL TOWNSHIP FIRE DEPARTMENT","address":"8735 SOUTH SECOND STREET TIPP CITY, OH 45371","bldgnbr":"8735","predir":null,"streetname":"SOUTH SECOND STREET","streettype":null,"suffdir":null,"city":"TIPP CITY","state_code":"OH","zip5":"45371","latitude":"39.9014000000000000","longitude":"-84.089370000000000","publicwifi":"U","url":null,"broadband_type_id":5}
{"id":null,"anchorname":"FLETCHER BROWN TOWNSHIP EMERGENCY MEDICAL SERVICES INCORPORATED","address":"6605 STATE ROUTE 589 FLETCHER, OH 45326","bldgnbr":"6605","predir":null,"streetname":"STATE ROUTE 589","streettype":null,"suffdir":null,"city":"FLETCHER","state_code":"OH","zip5":"45326","latitude":"40.1240100000000000","longitude":"-84.110960000000000","publicwifi":"U","url":null,"broadband_type_id":3}
{"id":null,"anchorname":"FLETCHER VOLUNTEER FIRE DEPARTMENT","address":"6605 STATE ROUTE 589 FLETCHER, OH 45326","bldgnbr":"6605","predir":null,"streetname":"STATE ROUTE 589","streettype":null,"suffdir":null,"city":"FLETCHER","state_code":"OH","zip5":"45326","latitude":"40.1240100000000000","longitude":"-84.110960000000000","publicwifi":"U","url":null,"broadband_type_id":5}
{"id":null,"anchorname":"FLETCHER POLICE DEPARTMENT","address":"10 HIGH STREET FLETCHER, OH 45326","bldgnbr":"10","predir":null,"streetname":"HIGH STREET","streettype":null,"suffdir":null,"city":"FLETCHER","state_code":"OH","zip5":"45326","latitude":"40.1440000000000000","longitude":"-84.102100000000000","publicwifi":"U","url":null,"broadband_type_id":4}
{"id":null,"anchorname":"MIAMI EAST JUNIOR HIGH SCHOOL","address":"4025 N STATE ROUTE 589 CASSTOWN, OH 45312","bldgnbr":"4025","predir":null,"streetname":"N STATE ROUTE 589","streettype":null,"suffdir":null,"city":"CASSTOWN","state_code":"OH","zip5":"45312","latitude":"40.0874540000000000","longitude":"-84.114266000000000","publicwifi":"U","url":null,"broadband_type_id":6}
{"id":null,"anchorname":"MIAMI EAST HIGH SCHOOL","address":"3925 N STATE ROUTE 589 CASSTOWN, OH 45312","bldgnbr":"3925","predir":null,"streetname":"N STATE ROUTE 589","streettype":null,"suffdir":null,"city":"CASSTOWN","state_code":"OH","zip5":"45312","latitude":"40.0853000000000000","longitude":"-84.114680000000000","publicwifi":"U","url":null,"broadband_type_id":6}
{"id":null,"anchorname":"ELIZABETH TOWNSHIP VOLUNTEER FIRE DEPARTMENT STATION 2","address":"2287 S. CHILDRENS HOME ROAD TROY, OH 45373","bldgnbr":"2287","predir":null,"streetname":"S. CHILDRENS HOME ROAD","streettype":null,"suffdir":null,"city":"TROY","state_code":"OH","zip5":"45373","latitude":"39.9958580000000000","longitude":"-84.142631000000000","publicwifi":"U","url":null,"broadband_type_id":5}
{"id":null,"anchorname":"CLARINGTON VOLUNTEER FIRE DEPARTMENT","address":"221 MARKET STREET CLARINGTON, OH 43915","bldgnbr":"221","predir":null,"streetname":"MARKET STREET","streettype":null,"suffdir":null,"city":"CLARINGTON","state_code":"OH","zip5":"43915","latitude":"39.7672600000000000","longitude":"-80.871260000000000","publicwifi":"U","url":null,"broadband_type_id":5}
{"id":null,"anchorname":"SWISS HILLS CAREER CENTER","address":"46601 STATE ROUTE 78 WOODSFIELD, OH 43793","bldgnbr":"46601","predir":null,"streetname":"STATE ROUTE 78","streettype":null,"suffdir":null,"city":"WOODSFIELD","state_code":"OH","zip5":"43793","latitude":"39.7542490000000000","longitude":"-80.975889000000000","publicwifi":"U","url":null,"broadband_type_id":3}
{"id":null,"anchorname":"MONROE COUNTY EMERGENCY MEDICAL SERVICES SQUAD 3 - CLARINGTON","address":"221 MARKET STREET CLARINGTON, OH 43915","bldgnbr":"221","predir":null,"streetname":"MARKET STREET","streettype":null,"suffdir":null,"city":"CLARINGTON","state_code":"OH","zip5":"43915","latitude":"39.7672600000000000","longitude":"-80.871260000000000","publicwifi":"U","url":null,"broadband_type_id":3}
{"id":null,"anchorname":"RIVER HIGH SCHOOL","address":"52560 RIVER HIGH SCHOOL HANNIBAL, OH 43931","bldgnbr":"52560","predir":null,"streetname":"RIVER HIGH SCHOOL","streettype":null,"suffdir":null,"city":"HANNIBAL","state_code":"OH","zip5":"43931","latitude":"39.6726880000000000","longitude":"-80.868331000000000","publicwifi":"U","url":null,"broadband_type_id":6}
{"id":null,"anchorname":"HANNIBAL ELEMENTARY SCHOOL","address":"52634 MAIN STREET HANNIBAL, OH 43931","bldgnbr":"52634","predir":null,"streetname":"MAIN STREET","streettype":null,"suffdir":null,"city":"HANNIBAL","state_code":"OH","zip5":"43931","latitude":"39.6701290000000000","longitude":"-80.873942000000000","publicwifi":"U","url":null,"broadband_type_id":6}
{"id":null,"anchorname":"MONROE COUNTY EMERGENCY MEDICAL SERVICES SQUAD 5 - SARDIS","address":"37286 MUSKINGUM STREET SARDIS, OH 43946","bldgnbr":"37286","predir":null,"streetname":"MUSKINGUM STREET","streettype":null,"suffdir":null,"city":"SARDIS","state_code":"OH","zip5":"43946","latitude":"39.6244100000000000","longitude":"-80.912300000000000","publicwifi":"U","url":null,"broadband_type_id":3}
{"id":null,"anchorname":"SARDIS VOLUNTEER FIRE DEPARTMENT","address":"37286 MUSKINGUM STREET SARDIS, OH 43946","bldgnbr":"37286","predir":null,"streetname":"MUSKINGUM STREET","streettype":null,"suffdir":null,"city":"SARDIS","state_code":"OH","zip5":"43946","latitude":"39.6244100000000000","longitude":"-80.912300000000000","publicwifi":"U","url":null,"broadband_type_id":5}
{"id":null,"anchorname":"SARDIS ELEMENTARY SCHOOL","address":"37184 MOUND STREET SARDIS, OH 43946","bldgnbr":"37184","predir":null,"streetname":"MOUND STREET","streettype":null,"suffdir":null,"city":"SARDIS","state_code":"OH","zip5":"43946","latitude":"39.6216500000000000","longitude":"-80.910400000000000","publicwifi":"U","url":null,"broadband_type_id":6}
{"id":null,"anchorname":"MONROE COUNTY CARE CENTER","address":"47045 MOORE RIDGE RD WOODSFIELD, OH 43793","bldgnbr":"47045","predir":null,"streetname":"MOORE RIDGE RD","streettype":null,"suffdir":null,"city":"WOODSFIELD","state_code":"OH","zip5":"43793","latitude":"39.8028600000000000","longitude":"-81.096750000000000","publicwifi":"U","url":null,"broadband_type_id":3}
{"id":null,"anchorname":"MONROE COUNTY EMERGENCY MEDICAL SERVICES SQUAD 2 - BEALLSVILLE","address":"52761 NORTH WASHINGTON STREET BEALLSVILLE, OH 43716","bldgnbr":"52761","predir":null,"streetname":"NORTH WASHINGTON STREET","streettype":null,"suffdir":null,"city":"BEALLSVILLE","state_code":"OH","zip5":"43716","latitude":"39.8507200000000000","longitude":"-81.037320000000000","publicwifi":"U","url":null,"broadband_type_id":3}
{"id":null,"anchorname":"BEALLSVILLE ELEMENTARY SCHOOL","address":"52682 OHIO AVENUE BEALLSVILLE, OH 43716","bldgnbr":"52682","predir":null,"streetname":"OHIO AVENUE","streettype":null,"suffdir":null,"city":"BEALLSVILLE","state_code":"OH","zip5":"43716","latitude":"39.8484500000000000","longitude":"-81.036830000000000","publicwifi":"U","url":null,"broadband_type_id":6}
{"id":null,"anchorname":"BEALLSVILLE HIGH SCHOOL","address":"52682 OHIO AVENUE BEALLSVILLE, OH 43716","bldgnbr":"52682","predir":null,"streetname":"OHIO AVENUE","streettype":null,"suffdir":null,"city":"BEALLSVILLE","state_code":"OH","zip5":"43716","latitude":"39.8484500000000000","longitude":"-81.036830000000000","publicwifi":"U","url":null,"broadband_type_id":6}
{"id":null,"anchorname":"SWISS HILLS CAREER CENTER","address":"46601 STATE ROUTE 78 WOODSFIELD, OH 43793-9438","bldgnbr":"46601","predir":null,"streetname":"STATE ROUTE 78","streettype":null,"suffdir":null,"city":"WOODSFIELD","state_code":"OH","zip5":"43793","latitude":"39.7543700000000000","longitude":"-80.976110000000000","publicwifi":"U","url":null,"broadband_type_id":3}
{"id":null,"anchorname":"MONROE CENTRAL HIGH SCHOOL","address":"469 LEWISVILLE RD WOODSFIELD, OH 43793","bldgnbr":"469","predir":null,"streetname":"LEWISVILLE RD","streettype":null,"suffdir":null,"city":"WOODSFIELD","state_code":"OH","zip5":"43793","latitude":"39.7543700000000000","longitude":"-80.976110000000000","publicwifi":"U","url":null,"broadband_type_id":6}
{"id":null,"anchorname":"LEWISVILLE AND COMMUNITY VOLUNTEER FIRE DEPARTMENT","address":"33392 FIREHOUSE LANE LEWISVILLE, OH 43754","bldgnbr":"33392","predir":null,"streetname":"FIREHOUSE LANE","streettype":null,"suffdir":null,"city":"LEWISVILLE","state_code":"OH","zip5":"43754","latitude":"39.7640200000000000","longitude":"-81.219610000000000","publicwifi":"U","url":null,"broadband_type_id":5}
{"id":null,"anchorname":"COMMUNITY CRISIS CENTER","address":"704 NORTH 30TH","bldgnbr":"704","predir":"North","streetname":"30Th","streettype":null,"suffdir":null,"city":"Billings","state_code":"MT","zip5":"59101","latitude":"45.7860719090000000","longitude":"-108.51361310600000","publicwifi":"U","url":null,"broadband_type_id":6}
{"id":null,"anchorname":"LINCOLN LANE ASSISTED LIVING","address":"659 LINCOLN LN","bldgnbr":"659","predir":null,"streetname":"Lincoln","streettype":"Lane","suffdir":null,"city":"Billings","state_code":"MT","zip5":"59105","latitude":"45.8109111840000000","longitude":"-108.46960028600000","publicwifi":"U","url":null,"broadband_type_id":6}
{"id":null,"anchorname":"MONROE CO COMMISSIONERS","address":"101 N MAIN ST WOODSFIELD, OH 43793-1070","bldgnbr":"101","predir":null,"streetname":"N MAIN ST","streettype":null,"suffdir":null,"city":"WOODSFIELD","state_code":"OH","zip5":"43793","latitude":"39.7628200000000000","longitude":"-81.116050000000000","publicwifi":"U","url":null,"broadband_type_id":6}
{"id":null,"anchorname":"MONROE COUNTY COURT","address":"107 W COURT ST WOODSFIELD, OH 43793-1018","bldgnbr":"107","predir":null,"streetname":"W COURT ST","streettype":null,"suffdir":null,"city":"WOODSFIELD","state_code":"OH","zip5":"43793","latitude":"39.7625900000000000","longitude":"-81.116240000000000","publicwifi":"U","url":null,"broadband_type_id":1}
{"id":null,"anchorname":"ST. SYLVESTER","address":"119  WAYNE ST WOODSFIELD, OH 43793-1053","bldgnbr":"119","predir":null,"streetname":"WAYNE ST","streettype":null,"suffdir":null,"city":"WOODSFIELD","state_code":"OH","zip5":"43793","latitude":"39.7562100000000000","longitude":"-81.115220000000000","publicwifi":"U","url":null,"broadband_type_id":6}
{"id":null,"anchorname":"PRESCOTT HEAD START CENTER","address":"2280 N GETTYSBURG AVE DAYTON, OH 45406-3236","bldgnbr":"2280","predir":null,"streetname":"N GETTYSBURG AVE","streettype":null,"suffdir":null,"city":"DAYTON","state_code":"OH","zip5":"45406","latitude":"39.7859300000000000","longitude":"-84.253580000000000","publicwifi":"U","url":null,"broadband_type_id":6}
{"id":null,"anchorname":"TEACHERS PET LEARNING CENTER","address":"2301 PHILADELPHIA DR DAYTON, OH 45406-1816","bldgnbr":"2301","predir":null,"streetname":"PHILADELPHIA DR","streettype":null,"suffdir":null,"city":"DAYTON","state_code":"OH","zip5":"45406","latitude":"39.7898500000000000","longitude":"-84.235390000000000","publicwifi":"U","url":null,"broadband_type_id":6}
{"id":null,"anchorname":"BUILDING BRIDGES INC","address":"2157 SALEM AVE DAYTON, OH 45406-5610","bldgnbr":"2157","predir":null,"streetname":"SALEM AVE","streettype":null,"suffdir":null,"city":"DAYTON","state_code":"OH","zip5":"45406","latitude":"39.7841500000000000","longitude":"-84.227790000000000","publicwifi":"U","url":null,"broadband_type_id":6}
{"id":null,"anchorname":"WOODSFIELD HEAD START","address":"38050 AIRPORT RD WOODSFIELD, OH 43793-9185","bldgnbr":"38050","predir":null,"streetname":"AIRPORT RD","streettype":null,"suffdir":null,"city":"WOODSFIELD","state_code":"OH","zip5":"43793","latitude":"39.7658600000000000","longitude":"-81.132330000000000","publicwifi":"U","url":null,"broadband_type_id":null}
{"id":null,"anchorname":"CHILDREN'S CREATIVE CENTER","address":"4130 FREE PIKE DAYTON, OH 45416-1215","bldgnbr":"4130","predir":null,"streetname":"FREE PIKE","streettype":null,"suffdir":null,"city":"DAYTON","state_code":"OH","zip5":"45416","latitude":"39.7975300000000000","longitude":"-84.257110000000000","publicwifi":"U","url":null,"broadband_type_id":null}
{"id":null,"anchorname":"DAYTON CHILD DEV CORP","address":"2301 PHILADELPHIA DR DAYTON, OH 45406-1816","bldgnbr":"2301","predir":null,"streetname":"PHILADELPHIA DR","streettype":null,"suffdir":null,"city":"DAYTON","state_code":"OH","zip5":"45406","latitude":"39.7898500000000000","longitude":"-84.235390000000000","publicwifi":"U","url":null,"broadband_type_id":null}
{"id":null,"anchorname":"GOOD SAMERITAN COMM. HTH. CTR.","address":"2222 PHILADELPHIA DR DAYTON, OH 45406-1813","bldgnbr":"2222","predir":null,"streetname":"PHILADELPHIA DR","streettype":null,"suffdir":null,"city":"DAYTON","state_code":"OH","zip5":"45406","latitude":"39.7879100000000000","longitude":"-84.234770000000000","publicwifi":"U","url":null,"broadband_type_id":null}
{"id":null,"anchorname":"MONROE COUNTY SHERIFFS OFFICE","address":"108 W COURT ST WOODSFIELD, OH 43793-1019","bldgnbr":"108","predir":null,"streetname":"W COURT ST","streettype":null,"suffdir":null,"city":"WOODSFIELD","state_code":"OH","zip5":"43793","latitude":"39.7628400000000000","longitude":"-81.116100000000000","publicwifi":"U","url":null,"broadband_type_id":4}
{"id":null,"anchorname":"MONROE COUNTY SHERIFF DEPARTMENT","address":"108 WEST COURT STREET WOODSFIELD, OH 43793","bldgnbr":"108","predir":null,"streetname":"WEST COURT STREET","streettype":null,"suffdir":null,"city":"WOODSFIELD","state_code":"OH","zip5":"43793","latitude":"39.7628400000000000","longitude":"-81.116100000000000","publicwifi":"U","url":null,"broadband_type_id":4}
{"id":null,"anchorname":"WOODSFIELD ELEMENTARY SCHOOL","address":"473 LEWISVILLE RD WOODSFIELD, OH 43793","bldgnbr":"473","predir":null,"streetname":"LEWISVILLE RD","streettype":null,"suffdir":null,"city":"WOODSFIELD","state_code":"OH","zip5":"43793","latitude":"39.7633700000000000","longitude":"-81.113810000000000","publicwifi":"U","url":null,"broadband_type_id":6}
{"id":null,"anchorname":"WOODSFIELD POLICE DEPARTMENT","address":"221 S MAIN ST WOODSFIELD, OH 43793-1024","bldgnbr":"221","predir":null,"streetname":"S MAIN ST","streettype":null,"suffdir":null,"city":"WOODSFIELD","state_code":"OH","zip5":"43793","latitude":"39.7606000000000000","longitude":"-81.116740000000000","publicwifi":"U","url":null,"broadband_type_id":4}
{"id":null,"anchorname":"WOODSFIELD NURSING REHAB CENTER","address":"37930 AIRPORT RD WOODSFIELD, OH 43793","bldgnbr":"37930","predir":null,"streetname":"AIRPORT RD","streettype":null,"suffdir":null,"city":"WOODSFIELD","state_code":"OH","zip5":"43793","latitude":"39.7657500000000000","longitude":"-81.131690000000000","publicwifi":"U","url":null,"broadband_type_id":3}
{"id":null,"anchorname":"WOODSFIELD VOLUNTEER FIRE DEPARTMENT","address":"38000 OLD AIRPORT ROAD WOODSFIELD, OH 43793","bldgnbr":"38000","predir":null,"streetname":"OLD AIRPORT ROAD","streettype":null,"suffdir":null,"city":"WOODSFIELD","state_code":"OH","zip5":"43793","latitude":"39.7658500000000000","longitude":"-81.132040000000000","publicwifi":"U","url":null,"broadband_type_id":5}
{"id":null,"anchorname":"WEE TOT SKOOL DAY CARE INC","address":"38050 AIRPORT RD WOODSFIELD, OH 43793-9185","bldgnbr":"38050","predir":null,"streetname":"AIRPORT RD","streettype":null,"suffdir":null,"city":"WOODSFIELD","state_code":"OH","zip5":"43793","latitude":"39.7658600000000000","longitude":"-81.132330000000000","publicwifi":"U","url":null,"broadband_type_id":3}
{"id":null,"anchorname":"SKYVUE ELEMENTARY SCHOOL","address":"33329 HARTSHORN RIDGE RD GRAYSVILLE, OH 45734","bldgnbr":"33329","predir":null,"streetname":"HARTSHORN RIDGE RD","streettype":null,"suffdir":null,"city":"GRAYSVILLE","state_code":"OH","zip5":"45734","latitude":"39.7088500000000000","longitude":"-81.221540000000000","publicwifi":"U","url":null,"broadband_type_id":6}
{"id":null,"anchorname":"GRAYSVILLE VOLUNTEER FIRE DEPARTMENT","address":"38851 STATE ROUTE 26 GRAYSVILLE, OH 45734","bldgnbr":"38851","predir":null,"streetname":"STATE ROUTE 26","streettype":null,"suffdir":null,"city":"GRAYSVILLE","state_code":"OH","zip5":"45734","latitude":"39.6765800000000000","longitude":"-81.176510000000000","publicwifi":"U","url":null,"broadband_type_id":5}
{"id":null,"anchorname":"ANTIOCH COMMUNITY VOLUNTEER FIRE DEPARTMENT","address":"39116 STATE HIGHWAY 800 WOODSFIELD, OH 43793","bldgnbr":"39116","predir":null,"streetname":"STATE HIGHWAY 800","streettype":null,"suffdir":null,"city":"WOODSFIELD","state_code":"OH","zip5":"43793","latitude":"39.6626100000000000","longitude":"-81.068420000000000","publicwifi":"U","url":null,"broadband_type_id":5}
{"id":null,"anchorname":"MONROE COUNTY EMERGENCY MEDICAL SERVICES SQUAD 1 - ANTIOCH","address":"39116 STATE HIGHWAY 800 WOODSFIELD, OH 43793","bldgnbr":"39116","predir":null,"streetname":"STATE HIGHWAY 800","streettype":null,"suffdir":null,"city":"WOODSFIELD","state_code":"OH","zip5":"43793","latitude":"39.6626100000000000","longitude":"-81.068420000000000","publicwifi":"U","url":null,"broadband_type_id":3}
{"id":null,"anchorname":"BELLE HAVEN PREK-8 SCHOOL","address":"4401 FREE PIKE DAYTON, OH 45416","bldgnbr":"4401","predir":null,"streetname":"FREE PIKE","streettype":null,"suffdir":null,"city":"DAYTON","state_code":"OH","zip5":"45416","latitude":"39.7980100000000000","longitude":"-84.262730000000000","publicwifi":"U","url":null,"broadband_type_id":6}
{"id":null,"anchorname":"PA'SHA SCHOOL INC","address":"2411 N GETTYSBURG AVE DAYTON, OH 45406-2518","bldgnbr":"2411","predir":null,"streetname":"N GETTYSBURG AVE","streettype":null,"suffdir":null,"city":"DAYTON","state_code":"OH","zip5":"45406","latitude":"39.7886500000000000","longitude":"-84.254180000000000","publicwifi":"U","url":null,"broadband_type_id":6}
{"id":null,"anchorname":"YOURS \u0026 MINE DAYCARE \u0026 LRNG CT","address":"2411 N GETTYSBURG AVE DAYTON, OH 45406-2518","bldgnbr":"2411","predir":null,"streetname":"N GETTYSBURG AVE","streettype":null,"suffdir":null,"city":"DAYTON","state_code":"OH","zip5":"45406","latitude":"39.7886500000000000","longitude":"-84.254180000000000","publicwifi":"U","url":null,"broadband_type_id":3}
{"id":null,"anchorname":"GETTYSBURG ELEMENTARY SCHOOL","address":"2201 N GETTYSBURG AVE DAYTON, OH 45406-3237","bldgnbr":"2201","predir":null,"streetname":"N GETTYSBURG AVE","streettype":null,"suffdir":null,"city":"DAYTON","state_code":"OH","zip5":"45406","latitude":"39.7835000000000000","longitude":"-84.253930000000000","publicwifi":"U","url":null,"broadband_type_id":6}
{"id":null,"anchorname":"DAYTON FIRE DEPARTMENT STATION 16","address":"4111 KINGS HIGHWAY DAYTON, OH 45406","bldgnbr":"4111","predir":null,"streetname":"KINGS HIGHWAY","streettype":null,"suffdir":null,"city":"DAYTON","state_code":"OH","zip5":"45406","latitude":"39.7839900000000000","longitude":"-84.251420000000000","publicwifi":"U","url":null,"broadband_type_id":5}
{"id":null,"anchorname":"ROSA PARKS PREK-8 SCHOOL","address":"3705 LORI SUE AVE DAYTON, OH 45406","bldgnbr":"3705","predir":null,"streetname":"LORI SUE AVE","streettype":null,"suffdir":null,"city":"DAYTON","state_code":"OH","zip5":"45406","latitude":"39.7808350000000000","longitude":"-84.248360000000000","publicwifi":"U","url":null,"broadband_type_id":6}
{"id":null,"anchorname":"CLICKETY CLOCK DAY CARE CTR","address":"3560 STANFORD PL DAYTON, OH 45406-3634","bldgnbr":"3560","predir":null,"streetname":"STANFORD PL","streettype":null,"suffdir":null,"city":"DAYTON","state_code":"OH","zip5":"45406","latitude":"39.7770900000000000","longitude":"-84.245490000000000","publicwifi":"U","url":null,"broadband_type_id":3}
{"id":null,"anchorname":"MARY SCOTT NURSING CENTER","address":"3109 CAMPUS DR DAYTON, OH 45406","bldgnbr":"3109","predir":null,"streetname":"CAMPUS DR","streettype":null,"suffdir":null,"city":"DAYTON","state_code":"OH","zip5":"45406","latitude":"39.7780200000000000","longitude":"-84.239280000000000","publicwifi":"U","url":null,"broadband_type_id":3}
{"id":null,"anchorname":"FAIRVIEW PREK-8 SCHOOL","address":"2314 ELSMERE AVE DAYTON, OH 45406","bldgnbr":"2314","predir":null,"streetname":"ELSMERE AVE","streettype":null,"suffdir":null,"city":"DAYTON","state_code":"OH","zip5":"45406","latitude":"39.7896220000000000","longitude":"-84.230097000000000","publicwifi":"U","url":null,"broadband_type_id":6}
{"id":null,"anchorname":"GOOD SAMARITAN HOSPITAL","address":"2222 PHILADELPHIA DRIVE DAYTON, OH 45406","bldgnbr":"2222","predir":null,"streetname":"PHILADELPHIA DRIVE","streettype":null,"suffdir":null,"city":"DAYTON","state_code":"OH","zip5":"45406","latitude":"39.7879100000000000","longitude":"-84.234770000000000","publicwifi":"U","url":null,"broadband_type_id":3}
{"id":null,"anchorname":"DRISCOLL ELEMENTARY SCHOOL","address":"5767 MARSHALL RD DAYTON, OH 45429","bldgnbr":"5767","predir":null,"streetname":"MARSHALL RD","streettype":null,"suffdir":null,"city":"DAYTON","state_code":"OH","zip5":"45429","latitude":"39.6620200000000000","longitude":"-84.149820000000000","publicwifi":"U","url":null,"broadband_type_id":6}
{"id":null,"anchorname":"UNITED THEOLOGICAL SEMINARY","address":"1810 HARVARD BLVD DAYTON, OH 45406-4539","bldgnbr":"1810","predir":null,"streetname":"HARVARD BLVD","streettype":null,"suffdir":null,"city":"DAYTON","state_code":"OH","zip5":"45406","latitude":"39.7779500000000000","longitude":"-84.227970000000000","publicwifi":"U","url":null,"broadband_type_id":null}
{"id":null,"anchorname":"INTERFAITH CCC","address":"1516 SALEM AVE DAYTON, OH 45406-4943","bldgnbr":"1516","predir":null,"streetname":"SALEM AVE","streettype":null,"suffdir":null,"city":"DAYTON","state_code":"OH","zip5":"45406","latitude":"39.7779000000000000","longitude":"-84.220610000000000","publicwifi":"U","url":null,"broadband_type_id":null}
{"id":null,"anchorname":"BILLS ASSISTED LIVING DBA CASMUR ASSISTED LIVING","address":"930 AVE E","bldgnbr":"930","predir":null,"streetname":"Ave","streettype":null,"suffdir":"East","city":"Billings","state_code":"MT","zip5":"59102","latitude":"45.7877176690000000","longitude":"-108.53997223500000","publicwifi":"U","url":null,"broadband_type_id":6}
{"id":null,"anchorname":"ZION HEAD START CENTER","address":"1684 EARLHAM DR DAYTON, OH 45406-4611","bldgnbr":"1684","predir":null,"streetname":"EARLHAM DR","streettype":null,"suffdir":null,"city":"DAYTON","state_code":"OH","zip5":"45406","latitude":"39.7751000000000000","longitude":"-84.234020000000000","publicwifi":"U","url":null,"broadband_type_id":null}
{"id":null,"anchorname":"PRINCETON CENTER HEAD START","address":"1600 PRINCETON DR DAYTON, OH 45406-4757","bldgnbr":"1600","predir":null,"streetname":"PRINCETON DR","streettype":null,"suffdir":null,"city":"DAYTON","state_code":"OH","zip5":"45406","latitude":"39.7729800000000000","longitude":"-84.228860000000000","publicwifi":"U","url":null,"broadband_type_id":null}
{"id":null,"anchorname":"AUTUMN SPRINGS ASSISTED LIVING","address":"3758 AVENUE B","bldgnbr":"3758","predir":null,"streetname":"B","streettype":null,"suffdir":null,"city":"Billings","state_code":"MT","zip5":"59102","latitude":"45.7855233230000000","longitude":"-108.60919305200000","publicwifi":"U","url":null,"broadband_type_id":6}
{"id":null,"anchorname":"SPIRIT OF PEACE COMMUNITY DEVELOPMENT CORP","address":"1352 W RIVERVIEW AVE DAYTON, OH 45402-6215","bldgnbr":"1352","predir":null,"streetname":"W RIVERVIEW AVE","streettype":null,"suffdir":null,"city":"DAYTON","state_code":"OH","zip5":"45402","latitude":"39.7619900000000000","longitude":"-84.216770000000000","publicwifi":"U","url":null,"broadband_type_id":1}
{"id":null,"anchorname":"MIAMI VALLEY CHILD DEVELOP","address":"1034 SUPERIOR AVE DAYTON, OH 45402-5953","bldgnbr":"1034","predir":null,"streetname":"SUPERIOR AVE","streettype":null,"suffdir":null,"city":"DAYTON","state_code":"OH","zip5":"45402","latitude":"39.7653200000000000","longitude":"-84.219900000000000","publicwifi":"U","url":null,"broadband_type_id":null}
{"id":null,"anchorname":"STEAM ACADEMY OF DAYTON","address":"545 ODLIN AVE DAYTON, OH 45405","bldgnbr":"545","predir":null,"streetname":"ODLIN AVE","streettype":null,"suffdir":null,"city":"DAYTON","state_code":"OH","zip5":"45405","latitude":"39.7979880000000000","longitude":"-84.219680000000000","publicwifi":"U","url":null,"broadband_type_id":6}
{"id":null,"anchorname":"MARTIN LUTHER KING JR HEAD ST","address":"870 SAINT AGNES AVE DAYTON, OH 45402-5925","bldgnbr":"870","predir":null,"streetname":"SAINT AGNES AVE","streettype":null,"suffdir":null,"city":"DAYTON","state_code":"OH","zip5":"45402","latitude":"39.7651200000000000","longitude":"-84.220620000000000","publicwifi":"U","url":null,"broadband_type_id":null}
{"id":null,"anchorname":"RICHARD ALLEN ACADEMY","address":"184 SALEM AVE DAYTON, OH 45406","bldgnbr":"184","predir":null,"streetname":"SALEM AVE","streettype":null,"suffdir":null,"city":"DAYTON","state_code":"OH","zip5":"45406","latitude":"39.7641020000000000","longitude":"-84.207448000000000","publicwifi":"U","url":null,"broadband_type_id":6}
{"id":null,"anchorname":"DAYTON ACADEMY OF DOG GROOMING","address":"3202 N MAIN ST DAYTON, OH 45405-2704","bldgnbr":"3202","predir":null,"streetname":"N MAIN ST","streettype":null,"suffdir":null,"city":"DAYTON","state_code":"OH","zip5":"45405","latitude":"39.7943500000000000","longitude":"-84.215867000000000","publicwifi":"U","url":null,"broadband_type_id":6}
{"id":null,"anchorname":"EDUCATIONAL SERVICE UNIT 08","address":"106 W 3RD ST, NELIGH, NE 68756, NELIGH, NE 68756","bldgnbr":"106","predir":"W","streetname":"3RD","streettype":"ST","suffdir":null,"city":"NELIGH","state_code":"NE","zip5":"68756","latitude":"42.1275738750000000","longitude":"-98.029903177000000","publicwifi":"U","url":null,"broadband_type_id":6}
{"id":null,"anchorname":"NEW HOPE LUTHERAN CHURCH C C","address":"2000 CATALPA DR DAYTON, OH 45406-3036","bldgnbr":"2000","predir":null,"streetname":"CATALPA DR","streettype":null,"suffdir":null,"city":"DAYTON","state_code":"OH","zip5":"45406","latitude":"39.7845000000000000","longitude":"-84.225420000000000","publicwifi":"U","url":null,"broadband_type_id":null}
{"id":null,"anchorname":"DAYTON CHRISTIAN CENTER","address":"1352 W RIVERVIEW AVE DAYTON, OH 45402-6215","bldgnbr":"1352","predir":null,"streetname":"W RIVERVIEW AVE","streettype":null,"suffdir":null,"city":"DAYTON","state_code":"OH","zip5":"45402","latitude":"39.7619900000000000","longitude":"-84.216770000000000","publicwifi":"U","url":null,"broadband_type_id":6}
{"id":null,"anchorname":"NEW HOPE LUTHERAN CC \u0026 PRESCH","address":"2000 CATALPA DR DAYTON, OH 45406-3036","bldgnbr":"2000","predir":null,"streetname":"CATALPA DR","streettype":null,"suffdir":null,"city":"DAYTON","state_code":"OH","zip5":"45406","latitude":"39.7845000000000000","longitude":"-84.225420000000000","publicwifi":"U","url":null,"broadband_type_id":6}
{"id":null,"anchorname":"SANTA CLARA APOSTOLIC TEMPLE","address":"60 SANTA CLARA AVE DAYTON, OH 45405-3624","bldgnbr":"60","predir":null,"streetname":"SANTA CLARA AVE","streettype":null,"suffdir":null,"city":"DAYTON","state_code":"OH","zip5":"45405","latitude":"39.7806800000000000","longitude":"-84.210400000000000","publicwifi":"U","url":null,"broadband_type_id":null}
{"id":null,"anchorname":"CATHOLIC SOCIAL SERVICES","address":"922 RIVERVIEW TER DAYTON, OH 45402-6435","bldgnbr":"922","predir":null,"streetname":"RIVERVIEW TER","streettype":null,"suffdir":null,"city":"DAYTON","state_code":"OH","zip5":"45402","latitude":"39.7608700000000000","longitude":"-84.208460000000000","publicwifi":"U","url":null,"broadband_type_id":6}
{"id":null,"anchorname":"LIFE SKILLS CENTER OF DAYTON","address":"1721 N MAIN ST DAYTON, OH 45405","bldgnbr":"1721","predir":null,"streetname":"N MAIN ST","streettype":null,"suffdir":null,"city":"DAYTON","state_code":"OH","zip5":"45405","latitude":"39.7789210000000000","longitude":"-84.205710000000000","publicwifi":"U","url":null,"broadband_type_id":null}
{"id":null,"anchorname":"DECA PREP","address":"200 HOMEWOOD AVE DAYTON, OH 45405","bldgnbr":"200","predir":null,"streetname":"HOMEWOOD AVE","streettype":null,"suffdir":null,"city":"DAYTON","state_code":"OH","zip5":"45405","latitude":"39.7741830000000000","longitude":"-84.202189000000000","publicwifi":"U","url":null,"broadband_type_id":null}
{"id":null,"anchorname":"RICHARD ALLEN PREPARATORY","address":"627 SALEM AVE DAYTON, OH 45406","bldgnbr":"627","predir":null,"streetname":"SALEM AVE","streettype":null,"suffdir":null,"city":"DAYTON","state_code":"OH","zip5":"45406","latitude":"39.7694900000000000","longitude":"-84.211510000000000","publicwifi":"U","url":null,"broadband_type_id":null}
{"id":null,"anchorname":"CLARKS BOARDING HOME","address":"915 W GRAND AVE DAYTON, OH 45402","bldgnbr":"915","predir":null,"streetname":"W GRAND AVE","streettype":null,"suffdir":null,"city":"DAYTON","state_code":"OH","zip5":"45402","latitude":"39.7674000000000000","longitude":"-84.211570000000000","publicwifi":"U","url":null,"broadband_type_id":null}
{"id":null,"anchorname":"ECLC-GROWING SEASONS CCC","address":"3501 MERRIMAC AVE DAYTON, OH 45405-2646","bldgnbr":"3501","predir":null,"streetname":"MERRIMAC AVE","streettype":null,"suffdir":null,"city":"DAYTON","state_code":"OH","zip5":"45405","latitude":"39.7967100000000000","longitude":"-84.212130000000000","publicwifi":"U","url":null,"broadband_type_id":null}
{"id":null,"anchorname":"MONTGOMERY CO CHILD SERV BD","address":"3501 MERRIMAC AVE DAYTON, OH 45405-2646","bldgnbr":"3501","predir":null,"streetname":"MERRIMAC AVE","streettype":null,"suffdir":null,"city":"DAYTON","state_code":"OH","zip5":"45405","latitude":"39.7967100000000000","longitude":"-84.212130000000000","publicwifi":"U","url":null,"broadband_type_id":null}
{"id":null,"anchorname":"EARLY LRNG TREE CHILDS CTR","address":"2332 N MAIN ST DAYTON, OH 45405-3439","bldgnbr":"2332","predir":null,"streetname":"N MAIN ST","streettype":null,"suffdir":null,"city":"DAYTON","state_code":"OH","zip5":"45405","latitude":"39.7860700000000000","longitude":"-84.210730000000000","publicwifi":"U","url":null,"broadband_type_id":null}
{"id":null,"anchorname":"DARTMOUTH HOSPITAL SCIENCE CTR","address":"1038 SALEM AVE DAYTON, OH 45406-5130","bldgnbr":"1038","predir":null,"streetname":"SALEM AVE","streettype":null,"suffdir":null,"city":"DAYTON","state_code":"OH","zip5":"45406","latitude":"39.7737800000000000","longitude":"-84.216380000000000","publicwifi":"U","url":null,"broadband_type_id":3}
{"id":null,"anchorname":"EDWIN JOEL BROWN PREK-8 SCHOOL","address":"31 WILLOWWOOD DRIVE DAYTON, OH 45405","bldgnbr":"31","predir":null,"streetname":"WILLOWWOOD DRIVE","streettype":null,"suffdir":null,"city":"DAYTON","state_code":"OH","zip5":"45405","latitude":"39.7854040000000000","longitude":"-84.212210000000000","publicwifi":"U","url":null,"broadband_type_id":6}
{"id":null,"anchorname":"DAYTON VIEW BRANCH LIBRARY","address":"1515 SALEM AVENUE DAYTON, OH 45406","bldgnbr":"1515","predir":null,"streetname":"SALEM AVENUE","streettype":null,"suffdir":null,"city":"DAYTON","state_code":"OH","zip5":"45406","latitude":"39.7779400000000000","longitude":"-84.219330000000000","publicwifi":"Y","url":null,"broadband_type_id":6}
{"id":null,"anchorname":"DAYTON FIRE DEPARTMENT COMPANY 14","address":"2213 NORTH MAIN STREET DAYTON, OH 45405","bldgnbr":"2213","predir":null,"streetname":"NORTH MAIN STREET","streettype":null,"suffdir":null,"city":"DAYTON","state_code":"OH","zip5":"45405","latitude":"39.7844600000000000","longitude":"-84.210560000000000","publicwifi":"U","url":null,"broadband_type_id":5}
{"id":null,"anchorname":"MARTYS PERSONAL CARE","address":"711 SALEM AVE DAYTON, OH 45406","bldgnbr":"711","predir":null,"streetname":"SALEM AVE","streettype":null,"suffdir":null,"city":"DAYTON","state_code":"OH","zip5":"45406","latitude":"39.7707600000000000","longitude":"-84.212440000000000","publicwifi":"U","url":null,"broadband_type_id":3}
{"id":null,"anchorname":"GLORIA DEI MONTESSORI SCHOOL","address":"249 SQUIRREL RD DAYTON, OH 45405-4445","bldgnbr":"249","predir":null,"streetname":"SQUIRREL RD","streettype":null,"suffdir":null,"city":"DAYTON","state_code":"OH","zip5":"45405","latitude":"39.7733400000000000","longitude":"-84.203560000000000","publicwifi":"U","url":null,"broadband_type_id":6}
{"id":null,"anchorname":"GRAFTON OAKS NURSING CENTER","address":"405 GRAFTON AVE DAYTON, OH 45406","bldgnbr":"405","predir":null,"streetname":"GRAFTON AVE","streettype":null,"suffdir":null,"city":"DAYTON","state_code":"OH","zip5":"45406","latitude":"39.7693800000000000","longitude":"-84.207770000000000","publicwifi":"U","url":null,"broadband_type_id":3}
{"id":null,"anchorname":"GRANDVIEW HOSPITAL AND MEDICAL CENTER","address":"405 WEST GRAND AVENUE DAYTON, OH 45405","bldgnbr":"405","predir":null,"streetname":"WEST GRAND AVENUE","streettype":null,"suffdir":null,"city":"DAYTON","state_code":"OH","zip5":"45405","latitude":"39.7692900000000000","longitude":"-84.203320000000000","publicwifi":"U","url":null,"broadband_type_id":3}
{"id":null,"anchorname":"UNIFIED HEALTH SOLUTIONS","address":"184 SALEM AVE DAYTON, OH 45406-5804","bldgnbr":"184","predir":null,"streetname":"SALEM AVE","streettype":null,"suffdir":null,"city":"DAYTON","state_code":"OH","zip5":"45406","latitude":"39.7642400000000000","longitude":"-84.207480000000000","publicwifi":"U","url":null,"broadband_type_id":3}
{"id":null,"anchorname":"LONGFELLOW ALTERNATIVE SCHOOL","address":"245 SALEM AVE DAYTON, OH 45406","bldgnbr":"245","predir":null,"streetname":"SALEM AVE","streettype":null,"suffdir":null,"city":"DAYTON","state_code":"OH","zip5":"45406","latitude":"39.7623210000000000","longitude":"-84.205049000000000","publicwifi":"U","url":null,"broadband_type_id":6}
{"id":null,"anchorname":"FERNWOOD AFTERCARE CENTER","address":"41 FERNWOOD AVE DAYTON, OH 45405","bldgnbr":"41","predir":null,"streetname":"FERNWOOD AVE","streettype":null,"suffdir":null,"city":"DAYTON","state_code":"OH","zip5":"45405","latitude":"39.7941300000000000","longitude":"-84.214070000000000","publicwifi":"U","url":null,"broadband_type_id":3}
{"id":null,"anchorname":"MIAMI VALLEY LITERACY COUNCIL","address":"18 W 1ST ST DAYTON, OH 45402-1249","bldgnbr":"18","predir":null,"streetname":"W 1ST ST","streettype":null,"suffdir":null,"city":"DAYTON","state_code":"OH","zip5":"45402","latitude":"39.7621800000000000","longitude":"-84.192890000000000","publicwifi":"U","url":null,"broadband_type_id":1}
{"id":null,"anchorname":"BUTTERFLY HOMES","address":"77 LILY VALLEY CIRCLE","bldgnbr":"77","predir":null,"streetname":"Lily Valley","streettype":"Circle","suffdir":null,"city":"Billings","state_code":"MT","zip5":"59105","latitude":"45.8148861870000000","longitude":"-108.48608485900000","publicwifi":"U","url":null,"broadband_type_id":6}
{"id":null,"anchorname":"DAYTON BD OF EDUCATION-CCFP","address":"348 W 1ST ST DAYTON, OH 45402-3006","bldgnbr":"348","predir":null,"streetname":"W 1ST ST","streettype":null,"suffdir":null,"city":"DAYTON","state_code":"OH","zip5":"45402","latitude":"39.7610100000000000","longitude":"-84.198220000000000","publicwifi":"U","url":null,"broadband_type_id":6}
{"id":null,"anchorname":"MONTGOMERY COUNTY MINI UNIV","address":"40 VISTA VIEW DR DAYTON, OH 45402-1447","bldgnbr":"40","predir":null,"streetname":"VISTA VIEW DR","streettype":null,"suffdir":null,"city":"DAYTON","state_code":"OH","zip5":"45402","latitude":"39.7582400000000000","longitude":"-84.201250000000000","publicwifi":"U","url":null,"broadband_type_id":1}
{"id":null,"anchorname":"BILTMORE TOWERS","address":"210 N MAIN ST DAYTON, OH 45402","bldgnbr":"210","predir":null,"streetname":"N MAIN ST","streettype":null,"suffdir":null,"city":"DAYTON","state_code":"OH","zip5":"45402","latitude":"39.7628400000000000","longitude":"-84.192120000000000","publicwifi":"U","url":null,"broadband_type_id":null}
{"id":null,"anchorname":"DAYTON PUBLIC","address":"118 E 1ST ST DAYTON, OH 45402-1215","bldgnbr":"118","predir":null,"streetname":"E 1ST ST","streettype":null,"suffdir":null,"city":"DAYTON","state_code":"OH","zip5":"45402","latitude":"39.7623600000000000","longitude":"-84.189900000000000","publicwifi":"U","url":null,"broadband_type_id":null}
{"id":null,"anchorname":"DOWNTOWN CHILD DEV CTR","address":"111 W MONUMENT AVE DAYTON, OH 45402-3009","bldgnbr":"111","predir":null,"streetname":"W MONUMENT AVE","streettype":null,"suffdir":null,"city":"DAYTON","state_code":"OH","zip5":"45402","latitude":"39.7638600000000000","longitude":"-84.194490000000000","publicwifi":"U","url":null,"broadband_type_id":null}
{"id":null,"anchorname":"DAYTON YMCA","address":"117 W MONUMENT AVE DAYTON, OH 45402-3009","bldgnbr":"117","predir":null,"streetname":"W MONUMENT AVE","streettype":null,"suffdir":null,"city":"DAYTON","state_code":"OH","zip5":"45402","latitude":"39.7635000000000000","longitude":"-84.195180000000000","publicwifi":"U","url":null,"broadband_type_id":null}
{"id":null,"anchorname":"IMPROV SOLUTIONS FOR URBAN SYS","address":"100 N JEFFERSON ST DAYTON, OH 45402-1700","bldgnbr":"100","predir":null,"streetname":"N JEFFERSON ST","streettype":null,"suffdir":null,"city":"DAYTON","state_code":"OH","zip5":"45402","latitude":"39.7614300000000000","longitude":"-84.190280000000000","publicwifi":"U","url":null,"broadband_type_id":null}
{"id":null,"anchorname":"DAYTON DIV OF YTH \u0026 MANPOWER","address":"40 S MAIN ST DAYTON, OH 45402-2089","bldgnbr":"40","predir":null,"streetname":"S MAIN ST","streettype":null,"suffdir":null,"city":"DAYTON","state_code":"OH","zip5":"45402","latitude":"39.7586700000000000","longitude":"-84.191320000000000","publicwifi":"U","url":null,"broadband_type_id":null}
{"id":null,"anchorname":"YWCA OF DAYTON","address":"141 W 3RD ST DAYTON, OH 45402-1814","bldgnbr":"141","predir":null,"streetname":"W 3RD ST","streettype":null,"suffdir":null,"city":"DAYTON","state_code":"OH","zip5":"45402","latitude":"39.7592500000000000","longitude":"-84.194350000000000","publicwifi":"U","url":null,"broadband_type_id":null}
{"id":null,"anchorname":"YWCA SHELTER \u0026 HOUSING NETWORK","address":"141 W 3RD ST DAYTON, OH 45402-1814","bldgnbr":"141","predir":null,"streetname":"W 3RD ST","streettype":null,"suffdir":null,"city":"DAYTON","state_code":"OH","zip5":"45402","latitude":"39.7592500000000000","longitude":"-84.194350000000000","publicwifi":"U","url":null,"broadband_type_id":null}
{"id":null,"anchorname":"FIRST DAY CHILD DEV CTR","address":"138 W 1ST ST DAYTON, OH 45402-1101","bldgnbr":"138","predir":null,"streetname":"W 1ST ST","streettype":null,"suffdir":null,"city":"DAYTON","state_code":"OH","zip5":"45402","latitude":"39.7614400000000000","longitude":"-84.195630000000000","publicwifi":"U","url":null,"broadband_type_id":null}
{"id":null,"anchorname":"DAYTON YMCA CAMP KERN","address":"111 W 1ST ST DAYTON, OH 45402-1154","bldgnbr":"111","predir":null,"streetname":"W 1ST ST","streettype":null,"suffdir":null,"city":"DAYTON","state_code":"OH","zip5":"45402","latitude":"39.7621600000000000","longitude":"-84.194640000000000","publicwifi":"U","url":null,"broadband_type_id":null}
{"id":null,"anchorname":"MONTGOMERY CO COMMON PLEAS","address":"303 W 2ND ST DAYTON, OH 45402-1413","bldgnbr":"303","predir":null,"streetname":"W 2ND ST","streettype":null,"suffdir":null,"city":"DAYTON","state_code":"OH","zip5":"45402","latitude":"39.7609300000000000","longitude":"-84.197100000000000","publicwifi":"U","url":null,"broadband_type_id":null}
{"id":null,"anchorname":"MONTGOMERY CO DETENTION CTR","address":"303 W 2ND ST DAYTON, OH 45402-1413","bldgnbr":"303","predir":null,"streetname":"W 2ND ST","streettype":null,"suffdir":null,"city":"DAYTON","state_code":"OH","zip5":"45402","latitude":"39.7609300000000000","longitude":"-84.197100000000000","publicwifi":"U","url":null,"broadband_type_id":null}
{"id":null,"anchorname":"MONTGOMERY CO. CORRECTION UNIT","address":"303 W 2ND ST DAYTON, OH 45402-1413","bldgnbr":"303","predir":null,"streetname":"W 2ND ST","streettype":null,"suffdir":null,"city":"DAYTON","state_code":"OH","zip5":"45402","latitude":"39.7609300000000000","longitude":"-84.197100000000000","publicwifi":"U","url":null,"broadband_type_id":null}
{"id":null,"anchorname":"DAYTON-MONTGOMERY CO. SCHOLAR","address":"348 W 1ST ST DAYTON, OH 45402-3006","bldgnbr":"348","predir":null,"streetname":"W 1ST ST","streettype":null,"suffdir":null,"city":"DAYTON","state_code":"OH","zip5":"45402","latitude":"39.7610100000000000","longitude":"-84.198220000000000","publicwifi":"U","url":null,"broadband_type_id":null}
{"id":null,"anchorname":"AMERICAN RED CROSS DAYTON AREA CHAPTER","address":"370 WEST 1ST STREET DAYTON, OH 45402","bldgnbr":"370","predir":null,"streetname":"WEST 1ST STREET","streettype":null,"suffdir":null,"city":"DAYTON","state_code":"OH","zip5":"45402","latitude":"39.7608200000000000","longitude":"-84.199370000000000","publicwifi":"U","url":null,"broadband_type_id":null}
{"id":null,"anchorname":"FBI DAYTON","address":"200 W 2ND ST DAYTON, OH 45402-1443","bldgnbr":"200","predir":null,"streetname":"W 2ND ST","streettype":null,"suffdir":null,"city":"DAYTON","state_code":"OH","zip5":"45402","latitude":"39.7602400000000000","longitude":"-84.195820000000000","publicwifi":"U","url":null,"broadband_type_id":null}
{"id":null,"anchorname":"U S MARSHALS SERVICE","address":"200 W 2ND ST DAYTON, OH 45402-1443","bldgnbr":"200","predir":null,"streetname":"W 2ND ST","streettype":null,"suffdir":null,"city":"DAYTON","state_code":"OH","zip5":"45402","latitude":"39.7602400000000000","longitude":"-84.195820000000000","publicwifi":"U","url":null,"broadband_type_id":null}
{"id":null,"anchorname":"U S SECRET SERVICE","address":"200 W 2ND ST DAYTON, OH 45402-1443","bldgnbr":"200","predir":null,"streetname":"W 2ND ST","streettype":null,"suffdir":null,"city":"DAYTON","state_code":"OH","zip5":"45402","latitude":"39.7602400000000000","longitude":"-84.195820000000000","publicwifi":"U","url":null,"broadband_type_id":null}
{"id":null,"anchorname":"IRS DAYTON","address":"200 W 2ND ST RM 311 DAYTON, OH 45402-1443","bldgnbr":"200","predir":null,"streetname":"W 2ND ST RM 311","streettype":null,"suffdir":null,"city":"DAYTON","state_code":"OH","zip5":"45402","latitude":"39.7602400000000000","longitude":"-84.195820000000000","publicwifi":"U","url":null,"broadband_type_id":null}
{"id":null,"anchorname":"DAYTON POLICE DEPARTMENT","address":"15 E MONUMENT AVE DAYTON, OH 45402-1209","bldgnbr":"15","predir":null,"streetname":"E MONUMENT AVE","streettype":null,"suffdir":null,"city":"DAYTON","state_code":"OH","zip5":"45402","latitude":"39.7637490000000000","longitude":"-84.192628000000000","publicwifi":"U","url":null,"broadband_type_id":4}
{"id":null,"anchorname":"DAYTON FIRE DEPARTMENT COMPANY 4","address":"300 NORTH MAIN STREET DAYTON, OH 45402","bldgnbr":"300","predir":null,"streetname":"NORTH MAIN STREET","streettype":null,"suffdir":null,"city":"DAYTON","state_code":"OH","zip5":"45402","latitude":"39.7640700000000000","longitude":"-84.192050000000000","publicwifi":"U","url":null,"broadband_type_id":5}
{"id":null,"anchorname":"MIAMI-JACOBS CAREER COLLEGE","address":"110 N. PATTERSON DAYTON, OH 45402","bldgnbr":"110","predir":null,"streetname":"N. PATTERSON","streettype":null,"suffdir":null,"city":"DAYTON","state_code":"OH","zip5":"45402","latitude":"39.7621170000000000","longitude":"-84.186443000000000","publicwifi":"U","url":null,"broadband_type_id":3}
{"id":null,"anchorname":"CAROUSEL BEAUTY COLLEGE","address":"125 E SECOND ST DAYTON, OH 45402","bldgnbr":"125","predir":null,"streetname":"E SECOND ST","streettype":null,"suffdir":null,"city":"DAYTON","state_code":"OH","zip5":"45402","latitude":"39.7615440000000000","longitude":"-84.189500000000000","publicwifi":"U","url":null,"broadband_type_id":6}
{"id":null,"anchorname":"DAYTON METRO LIBRARY","address":"215 E 3RD ST DAYTON, OH 45402-2103","bldgnbr":"215","predir":null,"streetname":"E 3RD ST","streettype":null,"suffdir":null,"city":"DAYTON","state_code":"OH","zip5":"45402","latitude":"39.7606000000000000","longitude":"-84.187690000000000","publicwifi":"Y","url":null,"broadband_type_id":6}
{"id":null,"anchorname":"DAYTON METRO LIBRARY OUTREACH SERVICES","address":"215 EAST THIRD STREET DAYTON, OH 45402","bldgnbr":"215","predir":null,"streetname":"EAST THIRD STREET","streettype":null,"suffdir":null,"city":"DAYTON","state_code":"OH","zip5":"45402","latitude":"39.7606120000000000","longitude":"-84.187676000000000","publicwifi":"No","url":null,"broadband_type_id":6}
{"id":null,"anchorname":"MIAMI JACOBS JR COLLEGE","address":"400 E 2ND ST DAYTON, OH 45402-1724","bldgnbr":"400","predir":null,"streetname":"E 2ND ST","streettype":null,"suffdir":null,"city":"DAYTON","state_code":"OH","zip5":"45402","latitude":"39.7620100000000000","longitude":"-84.184930000000000","publicwifi":"U","url":null,"broadband_type_id":6}
{"id":null,"anchorname":"YWCA CHILD CARE PROGRAM","address":"141 W 3RD ST DAYTON, OH 45402-1814","bldgnbr":"141","predir":null,"streetname":"W 3RD ST","streettype":null,"suffdir":null,"city":"DAYTON","state_code":"OH","zip5":"45402","latitude":"39.7592500000000000","longitude":"-84.194350000000000","publicwifi":"U","url":null,"broadband_type_id":3}
{"id":null,"anchorname":"SOUTHWESTERN COLLEGE","address":"111 W FIRST STREET DAYTON, OH 45402","bldgnbr":"111","predir":null,"streetname":"W  FIRST  STREET","streettype":null,"suffdir":null,"city":"DAYTON","state_code":"OH","zip5":"45402","latitude":"39.7621060000000000","longitude":"-84.194570000000000","publicwifi":"U","url":null,"broadband_type_id":6}
{"id":null,"anchorname":"MONTGOMERY COUNTY SHERIFF OFFICE","address":"345 W 2ND ST DAYTON, OH 45402","bldgnbr":"345","predir":null,"streetname":"W 2ND ST","streettype":null,"suffdir":null,"city":"DAYTON","state_code":"OH","zip5":"45402","latitude":"39.7601900000000000","longitude":"-84.197980000000000","publicwifi":"U","url":null,"broadband_type_id":4}
{"id":null,"anchorname":"DAYTON PUBLIC SCHOOLS-HS","address":"348 W 1ST ST DAYTON, OH 45402-3006","bldgnbr":"348","predir":null,"streetname":"W 1ST ST","streettype":null,"suffdir":null,"city":"DAYTON","state_code":"OH","zip5":"45402","latitude":"39.7610100000000000","longitude":"-84.198220000000000","publicwifi":"U","url":null,"broadband_type_id":6}
{"id":null,"anchorname":"DAYTON POLICE DEPARTMENT","address":"371 WEST 2ND STREET-3RD FLOOR DAYTON, OH 45402","bldgnbr":"371","predir":null,"streetname":"WEST 2ND STREET-3RD FLOOR","streettype":null,"suffdir":null,"city":"DAYTON","state_code":"OH","zip5":"45402","latitude":"39.7601000000000000","longitude":"-84.198905000000000","publicwifi":"U","url":null,"broadband_type_id":4}
{"id":null,"anchorname":"MONTGOMERY COUNTY SHERIFF'S OFFICE","address":"345 WEST SECOND STREET DAYTON, OH 45422","bldgnbr":"345","predir":null,"streetname":"WEST SECOND STREET","streettype":null,"suffdir":null,"city":"DAYTON","state_code":"OH","zip5":"45422","latitude":"39.7600000000000000","longitude":"-84.195900000000000","publicwifi":"U","url":null,"broadband_type_id":4}
{"id":null,"anchorname":"DAYTON MUNICIPAL COURT","address":"301 W 3RD ST DAYTON, OH 45402-1446","bldgnbr":"301","predir":null,"streetname":"W 3RD ST","streettype":null,"suffdir":null,"city":"DAYTON","state_code":"OH","zip5":"45402","latitude":"39.7589300000000000","longitude":"-84.196700000000000","publicwifi":"U","url":null,"broadband_type_id":1}
{"id":null,"anchorname":"MIAMI VALLEY REGIONAL CRIME LAB","address":"361 W 3RD ST DAYTON, OH 45402-1418","bldgnbr":"361","predir":null,"streetname":"W 3RD ST","streettype":null,"suffdir":null,"city":"DAYTON","state_code":"OH","zip5":"45402","latitude":"39.7588000000000000","longitude":"-84.198380000000000","publicwifi":"U","url":null,"broadband_type_id":4}
{"id":null,"anchorname":"Eagle Cliffs Elementary","address":"1201 Kootenai","bldgnbr":"1201","predir":null,"streetname":"Kootenai","streettype":null,"suffdir":null,"city":"Billings","state_code":"MT","zip5":"59105","latitude":"45.8202350950000000","longitude":"-108.51707684300000","publicwifi":"U","url":"http://opi.mt.gov/Resources/Directory/Index.html","broadband_type_id":6}
{"id":null,"anchorname":"DAYTON BUREAU OF MOTOR VEHICLES","address":"451 W 3RD ST DAYTON, OH 45422","bldgnbr":"451","predir":null,"streetname":"W 3RD ST","streettype":null,"suffdir":null,"city":"DAYTON","state_code":"OH","zip5":"45422","latitude":"39.7586060000000000","longitude":"-84.200506000000000","publicwifi":"U","url":null,"broadband_type_id":6}
{"id":null,"anchorname":"MONTGOMERY COUNTY COURT OF COMMON PLEAS DOMESTIC RELATIONS DIVISION","address":"301 W 3RD ST DAYTON, OH 45402-1446","bldgnbr":"301","predir":null,"streetname":"W 3RD ST","streettype":null,"suffdir":null,"city":"DAYTON","state_code":"OH","zip5":"45402","latitude":"39.7589300000000000","longitude":"-84.196700000000000","publicwifi":"U","url":null,"broadband_type_id":6}
{"id":null,"anchorname":"CANE TASK FORCE","address":"330 W 2ND ST DAYTON, OH 45402-1414","bldgnbr":"330","predir":null,"streetname":"W 2ND ST","streettype":null,"suffdir":null,"city":"DAYTON","state_code":"OH","zip5":"45402","latitude":"39.7599700000000000","longitude":"-84.197520000000000","publicwifi":"U","url":null,"broadband_type_id":4}
{"id":null,"anchorname":"SINCLAIR COMM COL-BUSINESS OPR","address":"444 W 3RD ST DAYTON, OH 45402-1421","bldgnbr":"444","predir":null,"streetname":"W 3RD ST","streettype":null,"suffdir":null,"city":"DAYTON","state_code":"OH","zip5":"45402","latitude":"39.7582500000000000","longitude":"-84.198560000000000","publicwifi":"U","url":null,"broadband_type_id":6}
{"id":null,"anchorname":"ST JOHN'S LUTHERAN CHURCH","address":"141 S LUDLOW ST DAYTON, OH 45402-1812","bldgnbr":"141","predir":null,"streetname":"S LUDLOW ST","streettype":null,"suffdir":null,"city":"DAYTON","state_code":"OH","zip5":"45402","latitude":"39.7568700000000000","longitude":"-84.193130000000000","publicwifi":"U","url":null,"broadband_type_id":null}
{"id":null,"anchorname":"GREATER DAYTON PUBLIC TV INC","address":"110 S JEFFERSON ST DAYTON, OH 45402-2402","bldgnbr":"110","predir":null,"streetname":"S JEFFERSON ST","streettype":null,"suffdir":null,"city":"DAYTON","state_code":"OH","zip5":"45402","latitude":"39.7581900000000000","longitude":"-84.189400000000000","publicwifi":"U","url":null,"broadband_type_id":null}
{"id":null,"anchorname":"MONTGOMERY COUNTY EMA","address":"117 S MAIN ST DAYTON, OH 45402","bldgnbr":"117","predir":null,"streetname":"S MAIN ST","streettype":null,"suffdir":null,"city":"DAYTON","state_code":"OH","zip5":"45402","latitude":"39.7578000000000000","longitude":"-84.191840000000000","publicwifi":"U","url":null,"broadband_type_id":1}
{"id":null,"anchorname":"ANCHORAGE HOME FOR BOYS","address":"238 S MAIN ST DAYTON, OH 45402-2408","bldgnbr":"238","predir":null,"streetname":"S MAIN ST","streettype":null,"suffdir":null,"city":"DAYTON","state_code":"OH","zip5":"45402","latitude":"39.7560300000000000","longitude":"-84.190590000000000","publicwifi":"U","url":null,"broadband_type_id":null}
{"id":null,"anchorname":"JAYCEE TOWERS","address":"440 DAYTON TOWERS DR DAYTON, OH 45410","bldgnbr":"440","predir":null,"streetname":"DAYTON TOWERS DR","streettype":null,"suffdir":null,"city":"DAYTON","state_code":"OH","zip5":"45410","latitude":"39.7561300000000000","longitude":"-84.178040000000000","publicwifi":"U","url":null,"broadband_type_id":null}
{"id":null,"anchorname":"EASTWAY CORPORATION","address":"600 WAYNE AVE DAYTON, OH 45410-1122","bldgnbr":"600","predir":null,"streetname":"WAYNE AVE","streettype":null,"suffdir":null,"city":"DAYTON","state_code":"OH","zip5":"45410","latitude":"39.7547700000000000","longitude":"-84.178900000000000","publicwifi":"U","url":null,"broadband_type_id":null}
{"id":null,"anchorname":"MIAMISBURG MUNICIPAL COURT","address":"10 N 1ST ST MIAMISBURG, OH 45342-2305","bldgnbr":"10","predir":null,"streetname":"N 1ST ST","streettype":null,"suffdir":null,"city":"MIAMISBURG","state_code":"OH","zip5":"45342","latitude":"39.6422200000000000","longitude":"-84.287510000000000","publicwifi":"U","url":null,"broadband_type_id":6}
{"id":null,"anchorname":"DAYTON METROPOL HOUS AUTHORITY","address":"400 WAYNE AVE DAYTON, OH 45410-1118","bldgnbr":"400","predir":null,"streetname":"WAYNE AVE","streettype":null,"suffdir":null,"city":"DAYTON","state_code":"OH","zip5":"45410","latitude":"39.7564900000000000","longitude":"-84.180770000000000","publicwifi":"U","url":null,"broadband_type_id":null}
{"id":null,"anchorname":"SUPP CNCL PREVENT EFFORT-SCOPE","address":"2735 KEARNS AVE DAYTON, OH 45414-5546","bldgnbr":"2735","predir":null,"streetname":"KEARNS AVE","streettype":null,"suffdir":null,"city":"DAYTON","state_code":"OH","zip5":"45414","latitude":"39.7898600000000000","longitude":"-84.194970000000000","publicwifi":"U","url":null,"broadband_type_id":null}
{"id":null,"anchorname":"DAYTON BD OF EDUC","address":"125 HEID AVE DAYTON, OH 45404-1217","bldgnbr":"125","predir":null,"streetname":"HEID AVE","streettype":null,"suffdir":null,"city":"DAYTON","state_code":"OH","zip5":"45404","latitude":"39.7965800000000000","longitude":"-84.167210000000000","publicwifi":"U","url":null,"broadband_type_id":null}
{"id":null,"anchorname":"AMERICAN AMBULETTE AND AMBULANCE SERVICE INCORPORATED","address":"2107 JERGENS ROAD DAYTON, OH 45404","bldgnbr":"2107","predir":null,"streetname":"JERGENS ROAD","streettype":null,"suffdir":null,"city":"DAYTON","state_code":"OH","zip5":"45404","latitude":"39.7942900000000000","longitude":"-84.166310000000000","publicwifi":"U","url":null,"broadband_type_id":null}
{"id":null,"anchorname":"GOODWILL INDUST MIAMI VALLEY","address":"1511 KUNTZ RD DAYTON, OH 45404-1232","bldgnbr":"1511","predir":null,"streetname":"KUNTZ RD","streettype":null,"suffdir":null,"city":"DAYTON","state_code":"OH","zip5":"45404","latitude":"39.7897100000000000","longitude":"-84.175500000000000","publicwifi":"U","url":null,"broadband_type_id":null}
{"id":null,"anchorname":"UN CEREBRAL PALSY OF DAYTON","address":"722 VALLEY ST DAYTON, OH 45404-1958","bldgnbr":"722","predir":null,"streetname":"VALLEY ST","streettype":null,"suffdir":null,"city":"DAYTON","state_code":"OH","zip5":"45404","latitude":"39.7754800000000000","longitude":"-84.167930000000000","publicwifi":"U","url":null,"broadband_type_id":null}
{"id":null,"anchorname":"DAYTON POLICE DEPARTMENT","address":"335 W 3RD ST DAYTON, OH 45402-1424","bldgnbr":"335","predir":null,"streetname":"W 3RD ST","streettype":null,"suffdir":null,"city":"DAYTON","state_code":"OH","zip5":"45402","latitude":"39.7588300000000000","longitude":"-84.197380000000000","publicwifi":"U","url":null,"broadband_type_id":4}
{"id":null,"anchorname":"SINCLAIR COMMUNITY COLLEGE POLICE DEPARTMENT","address":"444 W 3RD ST DAYTON, OH 45402-1421","bldgnbr":"444","predir":null,"streetname":"W 3RD ST","streettype":null,"suffdir":null,"city":"DAYTON","state_code":"OH","zip5":"45402","latitude":"39.7582500000000000","longitude":"-84.198560000000000","publicwifi":"U","url":null,"broadband_type_id":4}
{"id":null,"anchorname":"DAYTON PUBLIC SCHOOLS","address":"115  S LUDLOW ST DAYTON, OH 45402-1812","bldgnbr":"115","predir":null,"streetname":"S LUDLOW ST","streettype":null,"suffdir":null,"city":"DAYTON","state_code":"OH","zip5":"45402","latitude":"39.7574300000000000","longitude":"-84.193280000000000","publicwifi":"U","url":null,"broadband_type_id":6}
{"id":null,"anchorname":"DAYTON BARBER COLLEGE","address":"28 W FIFTH ST DAYTON, OH 45402","bldgnbr":"28","predir":null,"streetname":"W FIFTH ST","streettype":null,"suffdir":null,"city":"DAYTON","state_code":"OH","zip5":"45402","latitude":"39.7562330000000000","longitude":"-84.192185000000000","publicwifi":"U","url":null,"broadband_type_id":6}
{"id":null,"anchorname":"WRIGHT STATE UNIVERSITY POLICE DEPARTMENT","address":"3640 COLONEL GLENN HWY DAYTON, OH 45435-0001","bldgnbr":"3640","predir":null,"streetname":"COLONEL GLENN HWY","streettype":null,"suffdir":null,"city":"DAYTON","state_code":"OH","zip5":"45435","latitude":"39.7578000000000000","longitude":"-84.177700000000000","publicwifi":"U","url":null,"broadband_type_id":4}
{"id":null,"anchorname":"FIVE RIVERS METRO-PARKS-ADVNTR","address":"1375 E SIEBENTHALER AVE DAYTON, OH 45414-5357","bldgnbr":"1375","predir":null,"streetname":"E SIEBENTHALER AVE","streettype":null,"suffdir":null,"city":"DAYTON","state_code":"OH","zip5":"45414","latitude":"39.7993700000000000","longitude":"-84.203730000000000","publicwifi":"U","url":null,"broadband_type_id":2}
{"id":null,"anchorname":"SUMMIT ACADEMY COMMUNITY SCHOOL - DAYTON","address":"4128 CEDAR RIDGE RD DAYTON, OH 45414","bldgnbr":"4128","predir":null,"streetname":"CEDAR RIDGE RD","streettype":null,"suffdir":null,"city":"DAYTON","state_code":"OH","zip5":"45414","latitude":"39.8048050000000000","longitude":"-84.198518000000000","publicwifi":"U","url":null,"broadband_type_id":6}
{"id":null,"anchorname":"QUEEN OF MARTYRS CHLD CARE CTR","address":"4225 N DIXIE DR DAYTON, OH 45414-5201","bldgnbr":"4225","predir":null,"streetname":"N DIXIE DR","streettype":null,"suffdir":null,"city":"DAYTON","state_code":"OH","zip5":"45414","latitude":"39.8050000000000000","longitude":"-84.196000000000000","publicwifi":"U","url":null,"broadband_type_id":3}
{"id":null,"anchorname":"FIVE RIVERS METRO PARKS","address":"2151 EMBURY PARK RD DAYTON, OH 45414-5543","bldgnbr":"2151","predir":null,"streetname":"EMBURY PARK RD","streettype":null,"suffdir":null,"city":"DAYTON","state_code":"OH","zip5":"45414","latitude":"39.7896000000000000","longitude":"-84.192970000000000","publicwifi":"U","url":null,"broadband_type_id":2}
{"id":null,"anchorname":"BOX 21 RESCUE SQUAD","address":"119 EAST HELENA STREET DAYTON, OH 45404","bldgnbr":"119","predir":null,"streetname":"EAST HELENA STREET","streettype":null,"suffdir":null,"city":"DAYTON","state_code":"OH","zip5":"45404","latitude":"39.7791300000000000","longitude":"-84.195320000000000","publicwifi":"U","url":null,"broadband_type_id":5}
{"id":null,"anchorname":"PARKSIDE HEAD START CENTER","address":"1201 BRENNAN DR DAYTON, OH 45404-1051","bldgnbr":"1201","predir":null,"streetname":"BRENNAN DR","streettype":null,"suffdir":null,"city":"DAYTON","state_code":"OH","zip5":"45404","latitude":"39.7788900000000000","longitude":"-84.188610000000000","publicwifi":"U","url":null,"broadband_type_id":2}
{"id":null,"anchorname":"PATHWAY SCHOOL OF DISCOVERY","address":"173 AVONDALE DR DAYTON, OH 45404","bldgnbr":"173","predir":null,"streetname":"AVONDALE DR","streettype":null,"suffdir":null,"city":"DAYTON","state_code":"OH","zip5":"45404","latitude":"39.7956700000000000","longitude":"-84.156810000000000","publicwifi":"U","url":null,"broadband_type_id":6}
{"id":null,"anchorname":"DAYTON FIRE DEPARTMENT COMPANY 8","address":"2636 STANLEY AVENUE DAYTON, OH 45404","bldgnbr":"2636","predir":null,"streetname":"STANLEY AVENUE","streettype":null,"suffdir":null,"city":"DAYTON","state_code":"OH","zip5":"45404","latitude":"39.7843300000000000","longitude":"-84.166440000000000","publicwifi":"U","url":null,"broadband_type_id":5}
{"id":null,"anchorname":"KISER PREK-8 SCHOOL","address":"1401 LEO ST DAYTON, OH 45404","bldgnbr":"1401","predir":null,"streetname":"LEO ST","streettype":null,"suffdir":null,"city":"DAYTON","state_code":"OH","zip5":"45404","latitude":"39.7823640000000000","longitude":"-84.175147000000000","publicwifi":"U","url":null,"broadband_type_id":6}
{"id":null,"anchorname":"DAYTON FIRE DEPARTMENT COMPANY 12","address":"9999 BRANDT PIKE DAYTON, OH 45404","bldgnbr":"9999","predir":null,"streetname":"BRANDT PIKE","streettype":null,"suffdir":null,"city":"DAYTON","state_code":"OH","zip5":"45404","latitude":"39.7834000000000000","longitude":"-84.168500000000000","publicwifi":"U","url":null,"broadband_type_id":5}
{"id":null,"anchorname":"ELECTRA C. DOREN BRANCH LIBRARY","address":"701 TROY ST. DAYTON, OH 45404-1850","bldgnbr":"701","predir":null,"streetname":"TROY ST.","streettype":null,"suffdir":null,"city":"DAYTON","state_code":"OH","zip5":"45404","latitude":"39.7787700000000000","longitude":"-84.174273000000000","publicwifi":"Y","url":null,"broadband_type_id":6}
{"id":null,"anchorname":"ROCKY MOUNTAIN HOSPICE","address":"2110 OVERLAND AVENUE STE 111","bldgnbr":"2110","predir":null,"streetname":"Overland","streettype":"Ave","suffdir":null,"city":"Billings","state_code":"MT","zip5":"59102","latitude":"45.7510972750000000","longitude":"-108.56878651300000","publicwifi":"U","url":null,"broadband_type_id":2}
{"id":null,"anchorname":"UNITED CHRISTIAN CENTER","address":"1420 E 4TH ST DAYTON, OH 45402-2237","bldgnbr":"1420","predir":null,"streetname":"E 4TH ST","streettype":null,"suffdir":null,"city":"DAYTON","state_code":"OH","zip5":"45402","latitude":"39.7603200000000000","longitude":"-84.173500000000000","publicwifi":"U","url":null,"broadband_type_id":6}
{"id":null,"anchorname":"FAMILY SVCS ASSOC-CC CLRNG","address":"414 VALLEY ST DAYTON, OH 45404-1843","bldgnbr":"414","predir":null,"streetname":"VALLEY ST","streettype":null,"suffdir":null,"city":"DAYTON","state_code":"OH","zip5":"45404","latitude":"39.7726700000000000","longitude":"-84.171420000000000","publicwifi":"U","url":null,"broadband_type_id":null}
{"id":null,"anchorname":"FSA CC CLEARING HOUSE-FDCH","address":"414 VALLEY ST DAYTON, OH 45404-1843","bldgnbr":"414","predir":null,"streetname":"VALLEY ST","streettype":null,"suffdir":null,"city":"DAYTON","state_code":"OH","zip5":"45404","latitude":"39.7726700000000000","longitude":"-84.171420000000000","publicwifi":"U","url":null,"broadband_type_id":null}
{"id":null,"anchorname":"OUR LADY OF ROSARY","address":"40  NOTRE DAME AVE DAYTON, OH 45404-1924","bldgnbr":"40","predir":null,"streetname":"NOTRE DAME AVE","streettype":null,"suffdir":null,"city":"DAYTON","state_code":"OH","zip5":"45404","latitude":"39.7762100000000000","longitude":"-84.171860000000000","publicwifi":"U","url":null,"broadband_type_id":null}
{"id":null,"anchorname":"MONTGOMERY COUNTY ESC","address":"200 S KEOWEE ST DAYTON, OH 45402","bldgnbr":"200","predir":null,"streetname":"S KEOWEE ST","streettype":null,"suffdir":null,"city":"DAYTON","state_code":"OH","zip5":"45402","latitude":"39.7588300000000000","longitude":"-84.176898000000000","publicwifi":"U","url":null,"broadband_type_id":6}
{"id":null,"anchorname":"THE SANCTUARY AT WHISPERING MEADOWS","address":"437 BLACKWOOD AVE DAYTON, OH 45403","bldgnbr":"437","predir":null,"streetname":"BLACKWOOD AVE","streettype":null,"suffdir":null,"city":"DAYTON","state_code":"OH","zip5":"45403","latitude":"39.7746600000000000","longitude":"-84.137790000000000","publicwifi":"U","url":null,"broadband_type_id":6}
{"id":null,"anchorname":"FIRST STREET HEAD START","address":"1801 E 1ST ST DAYTON, OH 45403-1129","bldgnbr":"1801","predir":null,"streetname":"E 1ST ST","streettype":null,"suffdir":null,"city":"DAYTON","state_code":"OH","zip5":"45403","latitude":"39.7684700000000000","longitude":"-84.164770000000000","publicwifi":"U","url":null,"broadband_type_id":null}
{"id":null,"anchorname":"MIAMI PRESBYTERY-KIRKMONT","address":"1541 S SMITHVILLE RD DAYTON, OH 45410-3242","bldgnbr":"1541","predir":null,"streetname":"S SMITHVILLE RD","streettype":null,"suffdir":null,"city":"DAYTON","state_code":"OH","zip5":"45410","latitude":"39.7464100000000000","longitude":"-84.140150000000000","publicwifi":"U","url":null,"broadband_type_id":6}
{"id":null,"anchorname":"City of Madison","address":"116 W Center St, Madison, SD 57042","bldgnbr":"116","predir":"W","streetname":"Center","streettype":"ST","suffdir":null,"city":"Madison","state_code":"SD","zip5":"57042","latitude":"44.0051154790000000","longitude":"-97.114243474000000","publicwifi":"U","url":null,"broadband_type_id":6}
{"id":null,"anchorname":"HORIZON SCIENCE ACADEMY DAYTON DOWNTOWN","address":"121 S MONMOUTH ST DAYTON, OH 45403","bldgnbr":"121","predir":null,"streetname":"S MONMOUTH ST","streettype":null,"suffdir":null,"city":"DAYTON","state_code":"OH","zip5":"45403","latitude":"39.7627400000000000","longitude":"-84.154196000000000","publicwifi":"U","url":null,"broadband_type_id":6}
{"id":null,"anchorname":"Spearfish Regional Surgery Center","address":"1316 N 10th St, Spearfish, SD 57783-1530","bldgnbr":"1316","predir":"N","streetname":"10th","streettype":"ST","suffdir":null,"city":"Spearfish","state_code":"SD","zip5":"57783","latitude":"44.4977402610000000","longitude":"-103.85471909600000","publicwifi":"Y","url":null,"broadband_type_id":6}
{"id":null,"anchorname":"MONTGOMERY","address":"200 S KEOWEE ST DAYTON, OH 45402-2242","bldgnbr":"200","predir":null,"streetname":"S KEOWEE ST","streettype":null,"suffdir":null,"city":"DAYTON","state_code":"OH","zip5":"45402","latitude":"39.7593700000000000","longitude":"-84.177290000000000","publicwifi":"U","url":null,"broadband_type_id":null}
{"id":null,"anchorname":"BOMBERGER HEAD START CENTER","address":"1304 E 5TH ST DAYTON, OH 45402-2223","bldgnbr":"1304","predir":null,"streetname":"E 5TH ST","streettype":null,"suffdir":null,"city":"DAYTON","state_code":"OH","zip5":"45402","latitude":"39.7580700000000000","longitude":"-84.175350000000000","publicwifi":"U","url":null,"broadband_type_id":null}
{"id":null,"anchorname":"DAYTON BOYS \u0026 GIRLS CLUB","address":"601 S KEOWEE ST DAYTON, OH 45410-1168","bldgnbr":"601","predir":null,"streetname":"S KEOWEE ST","streettype":null,"suffdir":null,"city":"DAYTON","state_code":"OH","zip5":"45410","latitude":"39.7526000000000000","longitude":"-84.175900000000000","publicwifi":"U","url":null,"broadband_type_id":null}
{"id":null,"anchorname":"TWIN TOWERS HEAD START CENTER","address":"517 NOEL CT DAYTON, OH 45410-1865","bldgnbr":"517","predir":null,"streetname":"NOEL CT","streettype":null,"suffdir":null,"city":"DAYTON","state_code":"OH","zip5":"45410","latitude":"39.7520200000000000","longitude":"-84.167350000000000","publicwifi":"U","url":null,"broadband_type_id":null}
{"id":null,"anchorname":"WIDOWS HOME OF DAYTON","address":"50 S FINDLAY ST DAYTON, OH 45403","bldgnbr":"50","predir":null,"streetname":"S FINDLAY ST","streettype":null,"suffdir":null,"city":"DAYTON","state_code":"OH","zip5":"45403","latitude":"39.7641800000000000","longitude":"-84.156780000000000","publicwifi":"U","url":null,"broadband_type_id":null}
{"id":null,"anchorname":"ORVILLE WRIGHT HEAD START CTR","address":"3900 E 5TH ST DAYTON, OH 45403-2800","bldgnbr":"3900","predir":null,"streetname":"E 5TH ST","streettype":null,"suffdir":null,"city":"DAYTON","state_code":"OH","zip5":"45403","latitude":"39.7626300000000000","longitude":"-84.141520000000000","publicwifi":"U","url":null,"broadband_type_id":null}
{"id":null,"anchorname":"SOUTHVIEW CENTER","address":"25 THORPE DR DAYTON, OH 45420-1823","bldgnbr":"25","predir":null,"streetname":"THORPE DR","streettype":null,"suffdir":null,"city":"DAYTON","state_code":"OH","zip5":"45420","latitude":"39.7329600000000000","longitude":"-84.157040000000000","publicwifi":"U","url":null,"broadband_type_id":null}
{"id":null,"anchorname":"SOUTHVIEW HEAD START CENTER","address":"25 THORPE DR DAYTON, OH 45420-1823","bldgnbr":"25","predir":null,"streetname":"THORPE DR","streettype":null,"suffdir":null,"city":"DAYTON","state_code":"OH","zip5":"45420","latitude":"39.7329600000000000","longitude":"-84.157040000000000","publicwifi":"U","url":null,"broadband_type_id":null}
{"id":null,"anchorname":"CHILD CARE CLEARING HOUSE-FDCH","address":"414 VALLEY ST DAYTON, OH 45404-1843","bldgnbr":"414","predir":null,"streetname":"VALLEY ST","streettype":null,"suffdir":null,"city":"DAYTON","state_code":"OH","zip5":"45404","latitude":"39.7726700000000000","longitude":"-84.171420000000000","publicwifi":"U","url":null,"broadband_type_id":3}
{"id":null,"anchorname":"CONCENTRA MEDICAL CENTER","address":"228 TROY ST DAYTON, OH 45404-1831","bldgnbr":"228","predir":null,"streetname":"TROY ST","streettype":null,"suffdir":null,"city":"DAYTON","state_code":"OH","zip5":"45404","latitude":"39.7730300000000000","longitude":"-84.174500000000000","publicwifi":"U","url":null,"broadband_type_id":3}
{"id":null,"anchorname":"SUMMIT ACADEMY TRANSITION HIGH SCHOOL DAYTON","address":"1407 E 3RD ST DAYTON, OH 45403","bldgnbr":"1407","predir":null,"streetname":"E 3RD ST","streettype":null,"suffdir":null,"city":"DAYTON","state_code":"OH","zip5":"45403","latitude":"39.7629400000000000","longitude":"-84.172453000000000","publicwifi":"U","url":null,"broadband_type_id":6}
{"id":null,"anchorname":"DAYTON FIRE DEPARTMENT COMPANY 2","address":"1009 EAST THIRD STREET DAYTON, OH 45402","bldgnbr":"1009","predir":null,"streetname":"EAST THIRD STREET","streettype":null,"suffdir":null,"city":"DAYTON","state_code":"OH","zip5":"45402","latitude":"39.7620700000000000","longitude":"-84.177710000000000","publicwifi":"U","url":null,"broadband_type_id":5}
{"id":null,"anchorname":"STIVERS SCHOOL FOR THE ARTS","address":"1313 E 5TH ST DAYTON, OH 45402","bldgnbr":"1313","predir":null,"streetname":"E 5TH ST","streettype":null,"suffdir":null,"city":"DAYTON","state_code":"OH","zip5":"45402","latitude":"39.7584000000000000","longitude":"-84.175480000000000","publicwifi":"U","url":null,"broadband_type_id":6}
{"id":null,"anchorname":"WEST REGIONAL SCHOOL IMPROVEMENT TEAM","address":"200 S KEOWEE ST DAYTON, OH 45402-2242","bldgnbr":"200","predir":null,"streetname":"S KEOWEE ST","streettype":null,"suffdir":null,"city":"DAYTON","state_code":"OH","zip5":"45402","latitude":"39.7593700000000000","longitude":"-84.177290000000000","publicwifi":"U","url":null,"broadband_type_id":6}
{"id":null,"anchorname":"DAYTON SMART ELEMENTARY SCHOOL","address":"601 S KEOWEE ST DAYTON, OH 45410","bldgnbr":"601","predir":null,"streetname":"S KEOWEE ST","streettype":null,"suffdir":null,"city":"DAYTON","state_code":"OH","zip5":"45410","latitude":"39.7533220000000000","longitude":"-84.176518000000000","publicwifi":"U","url":null,"broadband_type_id":6}
{"id":null,"anchorname":"RUSKIN PREK-8 SCHOOL","address":"407 AMBROSE CT DAYTON, OH 45410","bldgnbr":"407","predir":null,"streetname":"AMBROSE CT","streettype":null,"suffdir":null,"city":"DAYTON","state_code":"OH","zip5":"45410","latitude":"39.7530890000000000","longitude":"-84.169468000000000","publicwifi":"U","url":null,"broadband_type_id":6}
{"id":null,"anchorname":"LIVINGSTON CARE CENTER","address":"20 LIVINGSTON AVE DAYTON, OH 45403","bldgnbr":"20","predir":null,"streetname":"LIVINGSTON AVE","streettype":null,"suffdir":null,"city":"DAYTON","state_code":"OH","zip5":"45403","latitude":"39.7577300000000000","longitude":"-84.148230000000000","publicwifi":"U","url":null,"broadband_type_id":3}
{"id":null,"anchorname":"DAYTON FIRE DEPARTMENT COMPANY 18","address":"207 SOUTH SMITHVILLE ROAD DAYTON, OH 45431","bldgnbr":"207","predir":null,"streetname":"SOUTH SMITHVILLE ROAD","streettype":null,"suffdir":null,"city":"DAYTON","state_code":"OH","zip5":"45431","latitude":"39.7618200000000000","longitude":"-84.138310000000000","publicwifi":"U","url":null,"broadband_type_id":5}
{"id":null,"anchorname":"WRIGHT BROTHERS PREK-8 SCHOOL","address":"1361 HUFFMAN AVE DAYTON, OH 45403","bldgnbr":"1361","predir":null,"streetname":"HUFFMAN AVE","streettype":null,"suffdir":null,"city":"DAYTON","state_code":"OH","zip5":"45403","latitude":"39.7580070000000000","longitude":"-84.145546000000000","publicwifi":"U","url":null,"broadband_type_id":6}
{"id":null,"anchorname":"INTERNATIONAL COLLEGE OF BROADCASTING","address":"6 S SMITHVILLE RD DAYTON, OH 45431","bldgnbr":"6","predir":null,"streetname":"S SMITHVILLE RD","streettype":null,"suffdir":null,"city":"DAYTON","state_code":"OH","zip5":"45431","latitude":"39.7649000000000000","longitude":"-84.137498000000000","publicwifi":"U","url":null,"broadband_type_id":6}
{"id":null,"anchorname":"BURKHARDT BRANCH LIBRARY","address":"4680 BURKHARDT AVENUE DAYTON, OH 45431","bldgnbr":"4680","predir":null,"streetname":"BURKHARDT AVENUE","streettype":null,"suffdir":null,"city":"DAYTON","state_code":"OH","zip5":"45431","latitude":"39.7598600000000000","longitude":"-84.132540000000000","publicwifi":"Y","url":null,"broadband_type_id":6}
{"id":null,"anchorname":"KEMP PREK-6 SCHOOL","address":"1923 GONDERT AVE DAYTON, OH 45403","bldgnbr":"1923","predir":null,"streetname":"GONDERT AVE","streettype":null,"suffdir":null,"city":"DAYTON","state_code":"OH","zip5":"45403","latitude":"39.7547290000000000","longitude":"-84.130456000000000","publicwifi":"U","url":null,"broadband_type_id":6}
{"id":null,"anchorname":"ST. ANTHONY ELEMENTARY SCHOOL","address":"1824  SAINT CHARLES AVE DAYTON, OH 45410-2500","bldgnbr":"1824","predir":null,"streetname":"SAINT CHARLES AVE","streettype":null,"suffdir":null,"city":"DAYTON","state_code":"OH","zip5":"45410","latitude":"39.7488000000000000","longitude":"-84.154200000000000","publicwifi":"U","url":null,"broadband_type_id":6}
{"id":null,"anchorname":"CLEVELAND PREK-6 SCHOOL","address":"1102 PURSELL AVE DAYTON, OH 45420","bldgnbr":"1102","predir":null,"streetname":"PURSELL AVE","streettype":null,"suffdir":null,"city":"DAYTON","state_code":"OH","zip5":"45420","latitude":"39.7460400000000000","longitude":"-84.150120000000000","publicwifi":"U","url":null,"broadband_type_id":6}
{"id":null,"anchorname":"BELMONT BRANCH LIBRARY","address":"1041 WATERVLIET AVENUE DAYTON, OH 45420","bldgnbr":"1041","predir":null,"streetname":"WATERVLIET AVENUE","streettype":null,"suffdir":null,"city":"DAYTON","state_code":"OH","zip5":"45420","latitude":"39.7277400000000000","longitude":"-84.137730000000000","publicwifi":"Y","url":null,"broadband_type_id":6}
{"id":null,"anchorname":"DAYTON MENTAL HEALTH CENTER","address":"2611 WAYNE AVE DAYTON, OH 45420-1833","bldgnbr":"2611","predir":null,"streetname":"WAYNE AVE","streettype":null,"suffdir":null,"city":"DAYTON","state_code":"OH","zip5":"45420","latitude":"39.7361600000000000","longitude":"-84.154350000000000","publicwifi":"U","url":null,"broadband_type_id":3}
{"id":null,"anchorname":"BOMBECK FAMILY LEARNING CENTER","address":"941 ALBERTA ST DAYTON, OH 45409-2806","bldgnbr":"941","predir":null,"streetname":"ALBERTA ST","streettype":null,"suffdir":null,"city":"DAYTON","state_code":"OH","zip5":"45409","latitude":"39.7424500000000000","longitude":"-84.181630000000000","publicwifi":"U","url":null,"broadband_type_id":6}
{"id":null,"anchorname":"10 WILMINGTON PLACE","address":"10 WILMINGTON AVE DAYTON, OH 45420","bldgnbr":"10","predir":null,"streetname":"WILMINGTON AVE","streettype":null,"suffdir":null,"city":"DAYTON","state_code":"OH","zip5":"45420","latitude":"39.7381700000000000","longitude":"-84.161000000000000","publicwifi":"U","url":null,"broadband_type_id":null}
{"id":null,"anchorname":"BELMONT HEAD START CENTER","address":"2323 MAPLEVIEW AVE DAYTON, OH 45420-1815","bldgnbr":"2323","predir":null,"streetname":"MAPLEVIEW AVE","streettype":null,"suffdir":null,"city":"DAYTON","state_code":"OH","zip5":"45420","latitude":"39.7336000000000000","longitude":"-84.151640000000000","publicwifi":"U","url":null,"broadband_type_id":null}
{"id":null,"anchorname":"LUDLOW LEARNING CENTER","address":"330 S LUDLOW ST DAYTON, OH 45402-2603","bldgnbr":"330","predir":null,"streetname":"S LUDLOW ST","streettype":null,"suffdir":null,"city":"DAYTON","state_code":"OH","zip5":"45402","latitude":"39.7542200000000000","longitude":"-84.192040000000000","publicwifi":"U","url":null,"broadband_type_id":6}
{"id":null,"anchorname":"EMERSON ACADEMY","address":"501  HICKORY ST DAYTON, OH 45410-1232","bldgnbr":"501","predir":null,"streetname":"HICKORY ST","streettype":null,"suffdir":null,"city":"DAYTON","state_code":"OH","zip5":"45410","latitude":"39.7516700000000000","longitude":"-84.180270000000000","publicwifi":"U","url":null,"broadband_type_id":6}
{"id":null,"anchorname":"EMERSON ACADEMY","address":"501 HICKORY ST DAYTON, OH 45410","bldgnbr":"501","predir":null,"streetname":"HICKORY ST","streettype":null,"suffdir":null,"city":"DAYTON","state_code":"OH","zip5":"45410","latitude":"39.7515560000000000","longitude":"-84.181096000000000","publicwifi":"U","url":null,"broadband_type_id":6}
{"id":null,"anchorname":"CONSTRUCTION CRAFT ACADEMY","address":"835 EDWIN C MOSES BLVD DAYTON, OH 45417","bldgnbr":"835","predir":null,"streetname":"EDWIN C MOSES BLVD","streettype":null,"suffdir":null,"city":"DAYTON","state_code":"OH","zip5":"45417","latitude":"39.7456440000000000","longitude":"-84.196213000000000","publicwifi":"U","url":null,"broadband_type_id":6}
{"id":null,"anchorname":"UNIV OF DAYTON-NYSP","address":"300 COLLEGE PARK AVE DAYTON, OH 45469-0001","bldgnbr":"300","predir":null,"streetname":"COLLEGE PARK AVE","streettype":null,"suffdir":null,"city":"DAYTON","state_code":"OH","zip5":"45469","latitude":"39.7407800000000000","longitude":"-84.179930000000000","publicwifi":"U","url":null,"broadband_type_id":null}
{"id":null,"anchorname":"DAYTON CHILDRENS PSYCH HOSP","address":"141 FIRWOOD DR DAYTON, OH 45419-4112","bldgnbr":"141","predir":null,"streetname":"FIRWOOD DR","streettype":null,"suffdir":null,"city":"DAYTON","state_code":"OH","zip5":"45419","latitude":"39.7343000000000000","longitude":"-84.163870000000000","publicwifi":"U","url":null,"broadband_type_id":null}
{"id":null,"anchorname":"MAIN STREET HEAD START","address":"318 S MAIN ST DAYTON, OH 45402-2716","bldgnbr":"318","predir":null,"streetname":"S MAIN ST","streettype":null,"suffdir":null,"city":"DAYTON","state_code":"OH","zip5":"45402","latitude":"39.7549000000000000","longitude":"-84.189910000000000","publicwifi":"U","url":null,"broadband_type_id":null}
{"id":null,"anchorname":"THE PARTNERSHIP FOR YOUTH INC","address":"330 S LUDLOW ST DAYTON, OH 45402-2603","bldgnbr":"330","predir":null,"streetname":"S LUDLOW ST","streettype":null,"suffdir":null,"city":"DAYTON","state_code":"OH","zip5":"45402","latitude":"39.7542200000000000","longitude":"-84.192040000000000","publicwifi":"U","url":null,"broadband_type_id":null}
{"id":null,"anchorname":"JOB TRAINING CENTER","address":"401 S PERRY ST DAYTON, OH 45402-2516","bldgnbr":"401","predir":null,"streetname":"S PERRY ST","streettype":null,"suffdir":null,"city":"DAYTON","state_code":"OH","zip5":"45402","latitude":"39.7526100000000000","longitude":"-84.195030000000000","publicwifi":"U","url":null,"broadband_type_id":null}
{"id":null,"anchorname":"SW OH 4-H CAMPS INC","address":"1001 S MAIN ST DAYTON, OH 45409-2710","bldgnbr":"1001","predir":null,"streetname":"S MAIN ST","streettype":null,"suffdir":null,"city":"DAYTON","state_code":"OH","zip5":"45409","latitude":"39.7447700000000000","longitude":"-84.187980000000000","publicwifi":"U","url":null,"broadband_type_id":null}
{"id":null,"anchorname":"THE OTHER PLACE","address":"840 S PATTERSON BLVD DAYTON, OH 45402-2623","bldgnbr":"840","predir":null,"streetname":"S PATTERSON BLVD","streettype":null,"suffdir":null,"city":"DAYTON","state_code":"OH","zip5":"45402","latitude":"39.7470100000000000","longitude":"-84.189880000000000","publicwifi":"U","url":null,"broadband_type_id":null}
{"id":null,"anchorname":"DAYBREAK INC","address":"819 WAYNE AVE DAYTON, OH 45410-1273","bldgnbr":"819","predir":null,"streetname":"WAYNE AVE","streettype":null,"suffdir":null,"city":"DAYTON","state_code":"OH","zip5":"45410","latitude":"39.7524100000000000","longitude":"-84.177730000000000","publicwifi":"U","url":null,"broadband_type_id":null}
{"id":null,"anchorname":"HICKORY STREET HEAD START","address":"424 HICKORY ST DAYTON, OH 45410-1231","bldgnbr":"424","predir":null,"streetname":"HICKORY ST","streettype":null,"suffdir":null,"city":"DAYTON","state_code":"OH","zip5":"45410","latitude":"39.7510400000000000","longitude":"-84.180470000000000","publicwifi":"U","url":null,"broadband_type_id":null}
{"id":null,"anchorname":"OREGON PLACE","address":"322 PARK DR DAYTON, OH 45410","bldgnbr":"322","predir":null,"streetname":"PARK DR","streettype":null,"suffdir":null,"city":"DAYTON","state_code":"OH","zip5":"45410","latitude":"39.7477700000000000","longitude":"-84.175000000000000","publicwifi":"U","url":null,"broadband_type_id":null}
{"id":null,"anchorname":"DUNBAR HEAD START CENTER","address":"1110 STALEY AVE DAYTON, OH 45408-1930","bldgnbr":"1110","predir":null,"streetname":"STALEY AVE","streettype":null,"suffdir":null,"city":"DAYTON","state_code":"OH","zip5":"45408","latitude":"39.7408400000000000","longitude":"-84.210960000000000","publicwifi":"U","url":null,"broadband_type_id":null}
{"id":null,"anchorname":"MIAMI VALLEY CTC ALTERNATIVE","address":"1133 S EDWIN C MOSES BLVD DAYTON, OH 45408-2094","bldgnbr":"1133","predir":null,"streetname":"S EDWIN C MOSES BLVD","streettype":null,"suffdir":null,"city":"DAYTON","state_code":"OH","zip5":"45408","latitude":"39.7421200000000000","longitude":"-84.195060000000000","publicwifi":"U","url":null,"broadband_type_id":null}
{"id":null,"anchorname":"LATCH-ON","address":"5501 OLIVE RD TROTWOOD, OH 45426-1431","bldgnbr":"5501","predir":null,"streetname":"OLIVE RD","streettype":null,"suffdir":null,"city":"TROTWOOD","state_code":"OH","zip5":"45426","latitude":"39.8261000000000000","longitude":"-84.292820000000000","publicwifi":"U","url":null,"broadband_type_id":null}
{"id":null,"anchorname":"BELMONT HIGH SCHOOL","address":"2615 WAYNE AVE DAYTON, OH 45420","bldgnbr":"2615","predir":null,"streetname":"WAYNE AVE","streettype":null,"suffdir":null,"city":"DAYTON","state_code":"OH","zip5":"45420","latitude":"39.7336000000000000","longitude":"-84.151640000000000","publicwifi":"U","url":null,"broadband_type_id":6}
{"id":null,"anchorname":"RAINBOW YEARS CHILD CARE","address":"2727 S SMITHVILLE RD DAYTON, OH 45420-2643","bldgnbr":"2727","predir":null,"streetname":"S SMITHVILLE RD","streettype":null,"suffdir":null,"city":"DAYTON","state_code":"OH","zip5":"45420","latitude":"39.7281100000000000","longitude":"-84.141630000000000","publicwifi":"U","url":null,"broadband_type_id":3}
{"id":null,"anchorname":"YOUTH HOSPITAL","address":"2727 S SMITHVILLE RD DAYTON, OH 45420-2643","bldgnbr":"2727","predir":null,"streetname":"S SMITHVILLE RD","streettype":null,"suffdir":null,"city":"DAYTON","state_code":"OH","zip5":"45420","latitude":"39.7281100000000000","longitude":"-84.141630000000000","publicwifi":"U","url":null,"broadband_type_id":3}
{"id":null,"anchorname":"HORACE MANN PREK-8 SCHOOL","address":"715 KREBS AVE DAYTON, OH 45419","bldgnbr":"715","predir":null,"streetname":"KREBS AVE","streettype":null,"suffdir":null,"city":"DAYTON","state_code":"OH","zip5":"45419","latitude":"39.7276300000000000","longitude":"-84.157285000000000","publicwifi":"U","url":null,"broadband_type_id":6}
{"id":null,"anchorname":"W O CLINE ELEMENTARY SCHOOL","address":"99 VIRGINIA AVE CENTERVILLE, OH 45458","bldgnbr":"99","predir":null,"streetname":"VIRGINIA AVE","streettype":null,"suffdir":null,"city":"CENTERVILLE","state_code":"OH","zip5":"45458","latitude":"39.7453200000000000","longitude":"-84.160510000000000","publicwifi":"U","url":null,"broadband_type_id":6}
{"id":null,"anchorname":"HOLY ANGELS ELEMENTARY SCHOOL","address":"223  L ST DAYTON, OH 45409-2637","bldgnbr":"223","predir":null,"streetname":"L ST","streettype":null,"suffdir":null,"city":"DAYTON","state_code":"OH","zip5":"45409","latitude":"39.7390900000000000","longitude":"-84.181410000000000","publicwifi":"U","url":null,"broadband_type_id":6}
{"id":null,"anchorname":"UNIVERSITY OF DAYTON","address":"300 COLLEGE PARK AVE DAYTON, OH 45469-0001","bldgnbr":"300","predir":null,"streetname":"COLLEGE PARK AVE","streettype":null,"suffdir":null,"city":"DAYTON","state_code":"OH","zip5":"45469","latitude":"39.7407800000000000","longitude":"-84.179930000000000","publicwifi":"U","url":null,"broadband_type_id":6}
{"id":null,"anchorname":"UNIVERSITY OF DAYTON POLICE DEPARTMENT","address":"300 COLLEGE PARK AVE DAYTON, OH 45469-0001","bldgnbr":"300","predir":null,"streetname":"COLLEGE PARK AVE","streettype":null,"suffdir":null,"city":"DAYTON","state_code":"OH","zip5":"45469","latitude":"39.7407800000000000","longitude":"-84.179930000000000","publicwifi":"U","url":null,"broadband_type_id":4}
{"id":null,"anchorname":"UNIVERSITY OF DAYTON DEPARTMENT OF PUBLIC SAFETY","address":"300 COLLEGE PARK AVENUE DAYTON, OH 45409","bldgnbr":"300","predir":null,"streetname":"COLLEGE PARK AVENUE","streettype":null,"suffdir":null,"city":"DAYTON","state_code":"OH","zip5":"45409","latitude":"39.7407800000000000","longitude":"-84.179930000000000","publicwifi":"U","url":null,"broadband_type_id":6}
{"id":null,"anchorname":"DAYTON EARLY COLLEGE ACADEMY, INC","address":"300 COLLEGE PARK DAYTON, OH 45469","bldgnbr":"300","predir":null,"streetname":"COLLEGE PARK","streettype":null,"suffdir":null,"city":"DAYTON","state_code":"OH","zip5":"45469","latitude":"39.7402670000000000","longitude":"-84.180145000000000","publicwifi":"U","url":null,"broadband_type_id":6}
{"id":null,"anchorname":"CITY DAY COMMUNITY SCHOOL","address":"318 S MAIN ST DAYTON, OH 45402","bldgnbr":"318","predir":null,"streetname":"S MAIN ST","streettype":null,"suffdir":null,"city":"DAYTON","state_code":"OH","zip5":"45402","latitude":"39.7549000000000000","longitude":"-84.189910000000000","publicwifi":"U","url":null,"broadband_type_id":6}
{"id":null,"anchorname":"CHAMINADE JULIENNE HIGH SCHOOL","address":"505  S LUDLOW ST DAYTON, OH 45402-2606","bldgnbr":"505","predir":null,"streetname":"S LUDLOW ST","streettype":null,"suffdir":null,"city":"DAYTON","state_code":"OH","zip5":"45402","latitude":"39.7528400000000000","longitude":"-84.192920000000000","publicwifi":"U","url":null,"broadband_type_id":6}
{"id":null,"anchorname":"DAYTON FIRE DEPARTMENT COMPANY 11","address":"145 WARREN STREET DAYTON, OH 45402","bldgnbr":"145","predir":null,"streetname":"WARREN STREET","streettype":null,"suffdir":null,"city":"DAYTON","state_code":"OH","zip5":"45402","latitude":"39.7511600000000000","longitude":"-84.188120000000000","publicwifi":"U","url":null,"broadband_type_id":5}
{"id":null,"anchorname":"MIAMI VALLEY HOSPITAL","address":"1 WYOMING STREET DAYTON, OH 45409","bldgnbr":"1","predir":null,"streetname":"WYOMING STREET","streettype":null,"suffdir":null,"city":"DAYTON","state_code":"OH","zip5":"45409","latitude":"39.7450200000000000","longitude":"-84.186090000000000","publicwifi":"U","url":null,"broadband_type_id":3}
{"id":null,"anchorname":"SOFT \u0026 CUDDLY DAYCARE CTR INC","address":"345 WYOMING ST DAYTON, OH 45410-1326","bldgnbr":"345","predir":null,"streetname":"WYOMING ST","streettype":null,"suffdir":null,"city":"DAYTON","state_code":"OH","zip5":"45410","latitude":"39.7460300000000000","longitude":"-84.178800000000000","publicwifi":"U","url":null,"broadband_type_id":3}
{"id":null,"anchorname":"DAYTON FIRE DEPARTMENT COMPANY 10","address":"1234 SOUTH BROADWAY STREET DAYTON, OH 45408","bldgnbr":"1234","predir":null,"streetname":"SOUTH BROADWAY STREET","streettype":null,"suffdir":null,"city":"DAYTON","state_code":"OH","zip5":"45408","latitude":"39.7390700000000000","longitude":"-84.215400000000000","publicwifi":"U","url":null,"broadband_type_id":5}
{"id":null,"anchorname":"DAYTON HEART HOSPITAL","address":"707 SOUTH EDWIN C MOSES BOULEVARD DAYTON, OH 45408","bldgnbr":"707","predir":null,"streetname":"SOUTH EDWIN C MOSES BOULEVARD","streettype":null,"suffdir":null,"city":"DAYTON","state_code":"OH","zip5":"45408","latitude":"39.7469300000000000","longitude":"-84.197280000000000","publicwifi":"U","url":null,"broadband_type_id":3}
{"id":null,"anchorname":"ARBORS AT DAYTON NURSING CTR","address":"320 ALBANY ST DAYTON, OH 45408","bldgnbr":"320","predir":null,"streetname":"ALBANY ST","streettype":null,"suffdir":null,"city":"DAYTON","state_code":"OH","zip5":"45408","latitude":"39.7459000000000000","longitude":"-84.201440000000000","publicwifi":"U","url":null,"broadband_type_id":3}
{"id":null,"anchorname":"OAKWOOD MUNICIPAL COURT","address":"30 PARK AVE DAYTON, OH 45419-3426","bldgnbr":"30","predir":null,"streetname":"PARK AVE","streettype":null,"suffdir":null,"city":"DAYTON","state_code":"OH","zip5":"45419","latitude":"39.7229300000000000","longitude":"-84.174040000000000","publicwifi":"U","url":null,"broadband_type_id":1}
{"id":null,"anchorname":"WILLOW BROOK ASSISTED LIVING","address":"3932 PALISADES PARK DRIVE","bldgnbr":"3932","predir":null,"streetname":"Palisades Park","streettype":"Drive","suffdir":null,"city":"Billings","state_code":"MT","zip5":"59102","latitude":"45.8015132690000000","longitude":"-108.61529045500000","publicwifi":"U","url":null,"broadband_type_id":6}
{"id":null,"anchorname":"WESTWOOD LUTHERAN CH-CCC","address":"3011 OAKRIDGE DR DAYTON, OH 45417-1568","bldgnbr":"3011","predir":null,"streetname":"OAKRIDGE DR","streettype":null,"suffdir":null,"city":"DAYTON","state_code":"OH","zip5":"45417","latitude":"39.7583000000000000","longitude":"-84.248670000000000","publicwifi":"U","url":null,"broadband_type_id":6}
{"id":null,"anchorname":"WESTWOOD BRANCH (DAYTON)","address":"3207 HOOVER AVENUE DAYTON, OH 45402","bldgnbr":"3207","predir":null,"streetname":"HOOVER AVENUE","streettype":null,"suffdir":null,"city":"DAYTON","state_code":"OH","zip5":"45402","latitude":"39.7616600000000000","longitude":"-84.242780000000000","publicwifi":"Y","url":null,"broadband_type_id":6}
{"id":null,"anchorname":"MELISSA BESS CHILD DEV CTR","address":"1798 W STEWART ST DAYTON, OH 45408-1740","bldgnbr":"1798","predir":null,"streetname":"W STEWART ST","streettype":null,"suffdir":null,"city":"DAYTON","state_code":"OH","zip5":"45408","latitude":"39.7417700000000000","longitude":"-84.226670000000000","publicwifi":"U","url":null,"broadband_type_id":6}
{"id":null,"anchorname":"MADDEN HILLS BRANCH","address":"2542 GERMANTOWN STREET DAYTON, OH 45408","bldgnbr":"2542","predir":null,"streetname":"GERMANTOWN STREET","streettype":null,"suffdir":null,"city":"DAYTON","state_code":"OH","zip5":"45408","latitude":"39.7400000000000000","longitude":"-84.235990000000000","publicwifi":"Y","url":null,"broadband_type_id":null}
{"id":null,"anchorname":"UNITED YOUTH GROUP HOMES","address":"2603 GERMANTOWN ST DAYTON, OH 45417","bldgnbr":"2603","predir":null,"streetname":"GERMANTOWN ST","streettype":null,"suffdir":null,"city":"DAYTON","state_code":"OH","zip5":"45417","latitude":"39.7398900000000000","longitude":"-84.237120000000000","publicwifi":"U","url":null,"broadband_type_id":6}
{"id":null,"anchorname":"CANAAN EARLY CH GOD CHRIST","address":"532 DEARBORN AVE DAYTON, OH 45408-1262","bldgnbr":"532","predir":null,"streetname":"DEARBORN AVE","streettype":null,"suffdir":null,"city":"DAYTON","state_code":"OH","zip5":"45408","latitude":"39.7437300000000000","longitude":"-84.238850000000000","publicwifi":"U","url":null,"broadband_type_id":6}
{"id":null,"anchorname":"RICHLEY HEAD START CENTER","address":"2222 RICHLEY DR DAYTON, OH 45408-2515","bldgnbr":"2222","predir":null,"streetname":"RICHLEY DR","streettype":null,"suffdir":null,"city":"DAYTON","state_code":"OH","zip5":"45408","latitude":"39.7359100000000000","longitude":"-84.232740000000000","publicwifi":"U","url":null,"broadband_type_id":null}
{"id":null,"anchorname":"HILLTOP HEAD START CENTER","address":"631 GROVELAND AVE DAYTON, OH 45408-1121","bldgnbr":"631","predir":null,"streetname":"GROVELAND AVE","streettype":null,"suffdir":null,"city":"DAYTON","state_code":"OH","zip5":"45408","latitude":"39.7421200000000000","longitude":"-84.240340000000000","publicwifi":"U","url":null,"broadband_type_id":null}
{"id":null,"anchorname":"HIGHVIEW 6TH GRADE CENTER","address":"106 S HIGHVIEW RD MIDDLETOWN, OH 45044","bldgnbr":"106","predir":null,"streetname":"S HIGHVIEW RD","streettype":null,"suffdir":null,"city":"MIDDLETOWN","state_code":"OH","zip5":"45044","latitude":"39.7256700000000000","longitude":"-84.239630000000000","publicwifi":"U","url":null,"broadband_type_id":6}
{"id":null,"anchorname":"CITY OF OAKWOOD PUBLIC SAFETY DEPARTMENT","address":"30 PARK AVENUE DAYTON, OH 45419","bldgnbr":"30","predir":null,"streetname":"PARK AVENUE","streettype":null,"suffdir":null,"city":"DAYTON","state_code":"OH","zip5":"45419","latitude":"39.7229300000000000","longitude":"-84.174040000000000","publicwifi":"U","url":null,"broadband_type_id":4}
{"id":null,"anchorname":"SUNRISE ASSISTED LIVING AT OAKWOOD","address":"1701 FAR HILLS AVE DAYTON, OH 45419","bldgnbr":"1701","predir":null,"streetname":"FAR HILLS AVE","streettype":null,"suffdir":null,"city":"DAYTON","state_code":"OH","zip5":"45419","latitude":"39.7158200000000000","longitude":"-84.172400000000000","publicwifi":"U","url":null,"broadband_type_id":6}
{"id":null,"anchorname":"OAKWOOD CITY","address":"20  RUBICON RD DAYTON, OH 45409-2239","bldgnbr":"20","predir":null,"streetname":"RUBICON RD","streettype":null,"suffdir":null,"city":"DAYTON","state_code":"OH","zip5":"45409","latitude":"39.7330800000000000","longitude":"-84.181430000000000","publicwifi":"U","url":null,"broadband_type_id":1}
{"id":null,"anchorname":"THE OAKS OF WEST KETTERING","address":"1150 W DOROTHY LN DAYTON, OH 45409","bldgnbr":"1150","predir":null,"streetname":"W DOROTHY LN","streettype":null,"suffdir":null,"city":"DAYTON","state_code":"OH","zip5":"45409","latitude":"39.7069600000000000","longitude":"-84.193980000000000","publicwifi":"U","url":null,"broadband_type_id":6}
{"id":null,"anchorname":"UNITED CHURCH HOMES MANAGEMENT","address":"1313 W DOROTHY LN DAYTON, OH 45409","bldgnbr":"1313","predir":null,"streetname":"W DOROTHY LN","streettype":null,"suffdir":null,"city":"DAYTON","state_code":"OH","zip5":"45409","latitude":"39.7083700000000000","longitude":"-84.197610000000000","publicwifi":"U","url":null,"broadband_type_id":6}
{"id":null,"anchorname":"DAYBREAK INC.","address":"2555 S DIXIE DR KETTERING, OH 45409-1539","bldgnbr":"2555","predir":null,"streetname":"S DIXIE DR","streettype":null,"suffdir":null,"city":"KETTERING","state_code":"OH","zip5":"45409","latitude":"39.7168100000000000","longitude":"-84.198700000000000","publicwifi":"U","url":null,"broadband_type_id":null}
{"id":null,"anchorname":"THE MEDICAL CENTER AT ELIZABETH PLACE","address":"1 ELIZABETH PLACE DAYTON, OH 45408","bldgnbr":"1","predir":null,"streetname":"ELIZABETH PLACE","streettype":null,"suffdir":null,"city":"DAYTON","state_code":"OH","zip5":"45408","latitude":"39.7453000000000000","longitude":"-84.199400000000000","publicwifi":"U","url":null,"broadband_type_id":3}
{"id":null,"anchorname":"WESTWOOD PREK-8 SCHOOL","address":"2805 OAKRIDGE DR DAYTON, OH 45417","bldgnbr":"2805","predir":null,"streetname":"OAKRIDGE DR","streettype":null,"suffdir":null,"city":"DAYTON","state_code":"OH","zip5":"45417","latitude":"39.7581160000000000","longitude":"-84.246089000000000","publicwifi":"U","url":null,"broadband_type_id":6}
