{"id":null,"anchorname":"ST PETE BEACH FIRE DEPARTMENT","address":"155 COREY AVE, SAINT PETERSBURG, FL 33706","bldgnbr":"155","predir":null,"streetname":"COREY","streettype":"AVE","suffdir":null,"city":"SAINT PETERSBURG","state_code":"FL","zip5":"33706","latitude":"27.7436427400000000","longitude":"-82.747103750000000","publicwifi":"U","url":"0","broadband_type_id":5}
{"id":null,"anchorname":"CITY OF SAINT PETE BEACH CITY HALL","address":"155 COREY AVE, SAINT PETERSBURG BEACH, FL 33706","bldgnbr":"155","predir":null,"streetname":"COREY","streettype":"AVE","suffdir":null,"city":"SAINT PETERSBURG BEACH","state_code":"FL","zip5":"33706","latitude":"27.7437084900000000","longitude":"-82.747454350000000","publicwifi":"U","url":"0","broadband_type_id":1}
{"id":null,"anchorname":"ST. PETE BEACH PUBLIC LIBRARY","address":"365 73RD AVE, SAINT PETE BEACH, FL 33706","bldgnbr":"365","predir":null,"streetname":"73RD","streettype":"AVE","suffdir":null,"city":"SAINT PETE BEACH","state_code":"FL","zip5":"33706","latitude":"27.7417857900000000","longitude":"-82.749373820000000","publicwifi":"Y","url":"0","broadband_type_id":6}
{"id":null,"anchorname":"ST PETE BEACH FIRE DEPARTMENT","address":"7301 GULF BLVD, ST PETE BEACH, FL 33706","bldgnbr":"7301","predir":null,"streetname":"GULF","streettype":"BLVD","suffdir":null,"city":"ST PETE BEACH","state_code":"FL","zip5":"33706","latitude":"27.7411844500000000","longitude":"-82.750527210000000","publicwifi":"U","url":"0","broadband_type_id":5}
{"id":null,"anchorname":"ST PETE BEACH POLICE DEPARTMENT","address":"165 75TH AVE, 33706, ST PETE BEACH, FL 33706","bldgnbr":"165","predir":null,"streetname":"75TH","streettype":"AVE","suffdir":null,"city":"ST PETE BEACH","state_code":"FL","zip5":"33706","latitude":"27.7442326000000000","longitude":"-82.748384450000000","publicwifi":"Y","url":"0","broadband_type_id":4}
{"id":null,"anchorname":"ST PETERSBURG POLICE DEPARTMENT","address":"200 76TH AVE, SAINT PETERSBURG, FL 33706","bldgnbr":"200","predir":null,"streetname":"76TH","streettype":"AVE","suffdir":null,"city":"ST PETERSBG BCH","state_code":"FL","zip5":"33706","latitude":"27.7443994700000000","longitude":"-82.748274470000000","publicwifi":"Y","url":"0","broadband_type_id":4}
{"id":null,"anchorname":"ALL BAY FAMILY \u0026 SENIOR CARE, INC","address":"1609 PASADENA AVE S STE 3A, SOUTH PASADENA, FL, 33707","bldgnbr":"1609","predir":"0","streetname":"PASADENA","streettype":"AVE","suffdir":"S","city":"SOUTH PASADENA","state_code":"FL","zip5":"33707","latitude":"27.7521410000000000","longitude":"-82.739411000000000","publicwifi":"U","url":"0","broadband_type_id":3}
{"id":null,"anchorname":"Christopher House","address":"6270 West 38th Avenue Wheat Ridge Co 80033","bldgnbr":"6270","predir":"West","streetname":"38th","streettype":"Avenue","suffdir":null,"city":"Wheat Ridge","state_code":"CO","zip5":"80033","latitude":"39.7692230510000000","longitude":"-105.06570471900000","publicwifi":"N","url":null,"broadband_type_id":6}
{"id":null,"anchorname":"NEIL TURK FELDMAN MD PA","address":"2525 PASADENA AVE S, SOUTH PASADENA, FL, 33707","bldgnbr":"2525","predir":"0","streetname":"PASADENA","streettype":"AVE","suffdir":"S","city":"SOUTH PASADENA","state_code":"FL","zip5":"33707","latitude":"27.7512390000000000","longitude":"-82.741630000000000","publicwifi":"U","url":"0","broadband_type_id":null}
{"id":null,"anchorname":"BOCA CIEGA CENTER","address":"1414 59TH ST S, GULFPORT, FL, 33707","bldgnbr":"1414","predir":"0","streetname":"59TH","streettype":"ST","suffdir":"S","city":"GULFPORT","state_code":"FL","zip5":"33707","latitude":"27.7563210000000000","longitude":"-82.714043000000000","publicwifi":"U","url":"0","broadband_type_id":null}
{"id":null,"anchorname":"Durango City General Services","address":"105 Sawyer Street Durango Co 81303","bldgnbr":"105","predir":null,"streetname":"Sawyer","streettype":"Street","suffdir":null,"city":"Durango","state_code":"CO","zip5":"81303","latitude":"37.2429223150000000","longitude":"-107.87348403500000","publicwifi":"N","url":null,"broadband_type_id":6}
{"id":null,"anchorname":"Thompson Valley EMS","address":"380 North Wilson Avenue Loveland CO 80537","bldgnbr":"380","predir":"North","streetname":"Wilson","streettype":"Avenue","suffdir":"\u003cNull\u003e","city":"Loveland","state_code":"CO","zip5":"80537","latitude":"40.3957167050000000","longitude":"-105.11348704100000","publicwifi":"N","url":"\u003cNull\u003e","broadband_type_id":6}
{"id":null,"anchorname":"FREEDOM ACADEMY","address":"15014 N 56TH SCOTTSDALE AZ 85254","bldgnbr":"15014","predir":"N","streetname":"56TH","streettype":null,"suffdir":null,"city":"SCOTTSDALE","state_code":"AZ","zip5":"85254","latitude":"33.6225700000000000","longitude":"-111.96040900000000","publicwifi":"U","url":null,"broadband_type_id":6}
{"id":null,"anchorname":"ARIZONA DEPARTMENT OF ECONOMIC SECURITY - CHILD SU","address":"13610 N BLACK CANYON HWY PHOENIX AZ 85029","bldgnbr":"13610","predir":"N","streetname":"BLACK CANYON","streettype":"HWY","suffdir":null,"city":"PHOENIX","state_code":"AZ","zip5":"85029","latitude":"33.6078910000000000","longitude":"-112.11715600000000","publicwifi":"U","url":null,"broadband_type_id":1}
{"id":null,"anchorname":"BENNETT ACADEMY- VENTURE SITE","address":"1535 W DUNLAP AVE PHOENIX AZ 85021","bldgnbr":"1535","predir":"W","streetname":"DUNLAP","streettype":"AVE","suffdir":null,"city":"PHOENIX","state_code":"AZ","zip5":"85021","latitude":"33.5674030000000000","longitude":"-112.09245200000000","publicwifi":"U","url":null,"broadband_type_id":6}
{"id":null,"anchorname":"ELIM JR ACADEMY \u0026 KINDERGARTEN","address":"821 6TH AVENUE SOUTH, SAINT PETERSBURG, FL 33701","bldgnbr":"821","predir":null,"streetname":"6TH","streettype":"AVE","suffdir":null,"city":"SAINT PETERSBURG","state_code":"FL","zip5":"33701","latitude":"27.7637673300000000","longitude":"-82.645095190000000","publicwifi":"U","url":"0","broadband_type_id":6}
{"id":null,"anchorname":"OREGAN  GERARD","address":"2800 45 TH ST S, GULFPORT, FL, 33711","bldgnbr":"2800","predir":"0","streetname":"45 TH","streettype":"ST","suffdir":"S","city":"GULFPORT","state_code":"FL","zip5":"33711","latitude":"27.7422640000000000","longitude":"-82.693959000000000","publicwifi":"U","url":"0","broadband_type_id":null}
{"id":null,"anchorname":"FLORIDA DEPARTMENT OF TRANSPORTATION","address":"107 8TH AVE SE, ST PETERSBURG, FL 33701","bldgnbr":"107","predir":null,"streetname":"8TH","streettype":"AVE","suffdir":null,"city":"ST PETERSBURG","state_code":"FL","zip5":"33701","latitude":"27.7622085700000000","longitude":"-82.633713650000000","publicwifi":"Y","url":"0","broadband_type_id":null}
{"id":null,"anchorname":"FLORIDA DEPARTMENT OF TRANSPORTATION","address":"550 - 5TH AVENUE S.E., ST. PETERSBURG, FL, 33701","bldgnbr":"550","predir":"0","streetname":"5TH","streettype":"AVENUE","suffdir":"S.E.","city":"ST. PETERSBURG","state_code":"FL","zip5":"33701","latitude":"27.7656250000000000","longitude":"-82.640698000000000","publicwifi":"Y","url":"0","broadband_type_id":null}
{"id":null,"anchorname":"DR WONG, MED-PED, P.A.","address":"461 7TH AVE S, ST PETERSBURG, FL, 33701","bldgnbr":"461","predir":"0","streetname":"7TH","streettype":"AVE","suffdir":"S","city":"ST PETERSBURG","state_code":"FL","zip5":"33701","latitude":"27.7631590000000000","longitude":"-82.639417000000000","publicwifi":"U","url":"0","broadband_type_id":null}
{"id":null,"anchorname":"BAYFRONT SAME DAY SURGERY CENTER, LLC.","address":"603 7TH ST S, ST PETERSBURG, FL, 33701","bldgnbr":"603","predir":"0","streetname":"7TH","streettype":"ST","suffdir":"S","city":"ST PETERSBURG","state_code":"FL","zip5":"33701","latitude":"27.7641970000000000","longitude":"-82.643243000000000","publicwifi":"U","url":"0","broadband_type_id":null}
{"id":null,"anchorname":"SC PHYSICIANS LLC","address":"601 7TH ST S, ST PETERSBURG, FL, 33701","bldgnbr":"601","predir":"0","streetname":"7TH","streettype":"ST","suffdir":"S","city":"ST PETERSBURG","state_code":"FL","zip5":"33701","latitude":"27.7642140000000000","longitude":"-82.643243000000000","publicwifi":"U","url":"0","broadband_type_id":null}
{"id":null,"anchorname":"BOLEY CENTERS","address":"815 7TH AVENUE SOUTH, SAINT PETERSBURG, FL, 33701","bldgnbr":"815","predir":"0","streetname":"7TH","streettype":"AVENUE","suffdir":"SOUTH","city":"SAINT PETERSBURG","state_code":"FL","zip5":"33701","latitude":"27.7631860000000000","longitude":"-82.645426000000000","publicwifi":"U","url":"0","broadband_type_id":null}
{"id":null,"anchorname":"FLORIDA DEPARTMENT OF HEALTH","address":"924 58TH STREET SOUTH, GULF PORT, FL, 33707","bldgnbr":"924","predir":"0","streetname":"58TH","streettype":"STREET","suffdir":"SOUTH","city":"GULF PORT","state_code":"FL","zip5":"33707","latitude":"27.7608800000000000","longitude":"-82.712069000000000","publicwifi":"Y","url":"0","broadband_type_id":3}
{"id":null,"anchorname":"BOCA CIEGA HIGH SCHOOL","address":"924 58TH ST S, SAINT PETERSBURG, FL 33707","bldgnbr":"924","predir":null,"streetname":"58TH","streettype":"ST","suffdir":null,"city":"SAINT PETERSBURG","state_code":"FL","zip5":"33707","latitude":"27.7609322500000000","longitude":"-82.710025080000000","publicwifi":"Y","url":"0","broadband_type_id":6}
{"id":null,"anchorname":"HAMILTON DISSTON SCHOOL","address":"5125 11TH AVE S, SAINT PETERSBURG, FL 33707","bldgnbr":"5125","predir":null,"streetname":"11TH","streettype":"AVE","suffdir":null,"city":"SAINT PETERSBURG","state_code":"FL","zip5":"33707","latitude":"27.7601406100000000","longitude":"-82.702817110000000","publicwifi":"Y","url":"0","broadband_type_id":6}
{"id":null,"anchorname":"GULFPORT PUBLIC LIBRARY","address":"5501 28TH AVE S, GULFPORT, FL 33707","bldgnbr":"5501","predir":null,"streetname":"28TH","streettype":"AVE","suffdir":null,"city":"GULFPORT","state_code":"FL","zip5":"33707","latitude":"27.7425691300000000","longitude":"-82.707857610000000","publicwifi":"Y","url":"0","broadband_type_id":6}
{"id":null,"anchorname":"CITY OF GULFPORT CITY HALL","address":"2401 53RD STREET SOUTH, GULFPORT, FL 33707","bldgnbr":"2401","predir":null,"streetname":"53RD","streettype":"ST","suffdir":null,"city":"GULFPORT","state_code":"FL","zip5":"33707","latitude":"27.7464409700000000","longitude":"-82.705674450000000","publicwifi":"U","url":"0","broadband_type_id":1}
{"id":null,"anchorname":"GULFPORT POLICE DEPARTMENT","address":"2401 53 ST SO, GULFPORT, FL, 33707","bldgnbr":"2401","predir":"0","streetname":"53","streettype":"ST","suffdir":"0","city":"GULFPORT","state_code":"FL","zip5":"33707","latitude":"27.7463208700000000","longitude":"-82.705693160000000","publicwifi":"Y","url":"0","broadband_type_id":4}
{"id":null,"anchorname":"GULFPORT FIRE DEPARTMENT","address":"5314 23RD AVE S, GULFPORT, FL 33707","bldgnbr":"5314","predir":null,"streetname":"23RD","streettype":"AVE","suffdir":null,"city":"GULFPORT","state_code":"FL","zip5":"33707","latitude":"27.7470709700000000","longitude":"-82.705836040000000","publicwifi":"U","url":"0","broadband_type_id":5}
{"id":null,"anchorname":"SUNFLOWER PRIVATE SCHOOL","address":"5313 27TH AVENUE S, SAINT PETERSBURG, FL 33707","bldgnbr":"5313","predir":null,"streetname":"27TH","streettype":"AVE","suffdir":null,"city":"SAINT PETERSBURG","state_code":"FL","zip5":"33707","latitude":"27.7436806700000000","longitude":"-82.705424460000000","publicwifi":"U","url":"0","broadband_type_id":6}
{"id":null,"anchorname":"WALDEN SCHOOL","address":"2728 53RD ST S, SAINT PETERSBURG, FL 33707","bldgnbr":"2728","predir":null,"streetname":"53RD","streettype":"ST","suffdir":null,"city":"SAINT PETERSBURG","state_code":"FL","zip5":"33707","latitude":"27.7424798700000000","longitude":"-82.704837670000000","publicwifi":"U","url":"0","broadband_type_id":6}
{"id":null,"anchorname":"UNIVERSITY OF SOUTH FLORIDA ST PETE CAMPUS POLICE DEPT.","address":"100 5TH AVE S, ST PETERSBURG, FL 33701","bldgnbr":"100","predir":null,"streetname":"5TH","streettype":"AVE","suffdir":null,"city":"ST. PETERSBURG","state_code":"FL","zip5":"33701","latitude":"27.7656670100000000","longitude":"-82.633957610000000","publicwifi":"Y","url":"0","broadband_type_id":4}
{"id":null,"anchorname":"UNIVERSITY OF SOUTH FLORIDA POLICE DEPARTMENT","address":"500 3RD STREET SOUTH, ST. PETERSBURG, FL 33701","bldgnbr":"500","predir":null,"streetname":"3RD","streettype":"ST","suffdir":null,"city":"ST. PETERSBURG","state_code":"FL","zip5":"33701","latitude":"27.7652278400000000","longitude":"-82.636578670000000","publicwifi":"Y","url":"0","broadband_type_id":4}
{"id":null,"anchorname":"ALL CHILDREN'S HOSPITAL","address":"501 6TH AVENUE SOUTH, SAINT PETERSBURG, FL 33701","bldgnbr":"501","predir":null,"streetname":"6TH","streettype":"AVE","suffdir":null,"city":"SAINT PETERSBURG","state_code":"FL","zip5":"33701","latitude":"27.7618444400000000","longitude":"-82.641970330000000","publicwifi":"Y","url":null,"broadband_type_id":3}
{"id":null,"anchorname":"BAYFRONT MEDICAL CENTER","address":"701 SIXTH STREET SOUTH, SAINT PETERSBURG, FL 33701","bldgnbr":"701","predir":null,"streetname":"6TH","streettype":"ST","suffdir":null,"city":"SAINT PETERSBURG","state_code":"FL","zip5":"33701","latitude":"27.7627971600000000","longitude":"-82.641975360000000","publicwifi":"Y","url":null,"broadband_type_id":3}
{"id":null,"anchorname":"SUNCOAST MEDICAL CLINIC LLC","address":"601 7TH ST S, ST PETERSBURG, FL, 33701","bldgnbr":"601","predir":"0","streetname":"7TH","streettype":"ST","suffdir":"S","city":"ST PETERSBURG","state_code":"FL","zip5":"33701","latitude":"27.7642140000000000","longitude":"-82.643243000000000","publicwifi":"U","url":"0","broadband_type_id":3}
{"id":null,"anchorname":"BAYFRONT MEDICAL CENTER - AUCREMANN MEDICAL LIBRARY","address":"701 6TH ST S, SAINT PETERSBURG, FL 33701","bldgnbr":"701","predir":null,"streetname":"6TH","streettype":"ST","suffdir":null,"city":"SAINT PETERSBURG","state_code":"FL","zip5":"33701","latitude":"27.7631471000000000","longitude":"-82.642713300000000","publicwifi":"U","url":"0","broadband_type_id":3}
{"id":null,"anchorname":"ALL CHILDREN'S HOSPITAL","address":"880 6TH ST S DEPT 6550, ST PETERSBURG, FL, 33701","bldgnbr":"880","predir":"0","streetname":"6TH","streettype":"ST","suffdir":"S","city":"ST PETERSBURG","state_code":"FL","zip5":"33701","latitude":"27.7615000000000000","longitude":"-82.641587000000000","publicwifi":"U","url":"0","broadband_type_id":3}
{"id":null,"anchorname":"ALL CHILDREN'S HOSPITAL","address":"500 7TH AVE S, ST PETERSBURG, FL, 33701","bldgnbr":"500","predir":"0","streetname":"7TH","streettype":"AVE","suffdir":"S","city":"ST PETERSBURG","state_code":"FL","zip5":"33701","latitude":"27.7630450000000000","longitude":"-82.640118000000000","publicwifi":"U","url":"0","broadband_type_id":3}
{"id":null,"anchorname":"BAYFRONT FAMILY HEALTH CENTER","address":"700 6TH ST S, SAINT PETERSBURG, FL, 33701","bldgnbr":"700","predir":"0","streetname":"6TH","streettype":"ST","suffdir":"S","city":"SAINT PETERSBURG","state_code":"FL","zip5":"33701","latitude":"27.7628450000000000","longitude":"-82.641589000000000","publicwifi":"U","url":"0","broadband_type_id":3}
{"id":null,"anchorname":"COMMUNITY HEALTH CENTERS OF PINELLAS INC","address":"700 6TH ST S, SAINT PETERSBURG, FL, 33701","bldgnbr":"700","predir":"0","streetname":"6TH","streettype":"ST","suffdir":"S","city":"SAINT PETERSBURG","state_code":"FL","zip5":"33701","latitude":"27.7628450000000000","longitude":"-82.641589000000000","publicwifi":"U","url":"0","broadband_type_id":3}
{"id":null,"anchorname":"NELSON POYNTER MEMORIAL LIBRARY/USF - UNIVERSITY OF SOUTH FLORIDA AT SAINT PETERSBURG","address":"140 7TH AVE S, SAINT PETERSBURG, FL 33701","bldgnbr":"140","predir":null,"streetname":"7TH","streettype":"AVE","suffdir":null,"city":"SAINT PETERSBURG","state_code":"FL","zip5":"33701","latitude":"27.7628095200000000","longitude":"-82.634961850000000","publicwifi":"U","url":"0","broadband_type_id":6}
{"id":null,"anchorname":"ARIZONA DEPARTMENT OF ECONOMIC SECURITY - DEVELOPM","address":"13832 N 32ND ST PHOENIX AZ 85032","bldgnbr":"13832","predir":"N","streetname":"32ND","streettype":"ST","suffdir":null,"city":"PHOENIX","state_code":"AZ","zip5":"85032","latitude":"33.6129400000000000","longitude":"-112.01330500000000","publicwifi":"U","url":null,"broadband_type_id":1}
{"id":null,"anchorname":"City Of Wheat Ridge","address":"7500 West 29th Avenue Wheat Ridge Co 80033","bldgnbr":"7500","predir":"West","streetname":"29th","streettype":"Avenue","suffdir":null,"city":"Wheat Ridge","state_code":"CO","zip5":"80033","latitude":"39.7571741160000000","longitude":"-105.08075369900000","publicwifi":"N","url":null,"broadband_type_id":1}
{"id":null,"anchorname":"Colorado Department Of Agriculture - Conservation Services Division","address":"700 Kipling Street Lakewood Co 80128","bldgnbr":"700","predir":null,"streetname":"Kipling","streettype":"Street","suffdir":null,"city":"Lakewood","state_code":"CO","zip5":"80215","latitude":"39.7274948860000000","longitude":"-105.10910384400000","publicwifi":"N","url":null,"broadband_type_id":6}
{"id":null,"anchorname":"U S COAST GUARD","address":"600 8TH AVE SE, ST PETERSBURG, FL 33701","bldgnbr":"600","predir":null,"streetname":"8TH","streettype":"AVE","suffdir":null,"city":"ST. PETERSBURG","state_code":"FL","zip5":"33701","latitude":"27.7623755800000000","longitude":"-82.628443840000000","publicwifi":"Y","url":"0","broadband_type_id":null}
{"id":null,"anchorname":"US COAST GUARD","address":"600 8TH AVENUE, SE, ST. PETERSBURG, FL,","bldgnbr":"600","predir":"0","streetname":"8TH","streettype":"AVENUE","suffdir":"0","city":"ST. PETERSBURG","state_code":"FL","zip5":"ZZ","latitude":"27.7623755800000000","longitude":"-82.628443840000000","publicwifi":"Y","url":"0","broadband_type_id":null}
{"id":null,"anchorname":"FLORIDA FISH AND WILDLIFE CONSERVATION COMMISSION FISH AND WILDLIFE RESEARCH INSTITUTE","address":"100 8TH AVE SE, ST PETERSBURG, FL 33701","bldgnbr":"100","predir":null,"streetname":"8TH","streettype":"AVE","suffdir":null,"city":"ST. PETERSBURG","state_code":"FL","zip5":"33701","latitude":"27.7621403000000000","longitude":"-82.633855050000000","publicwifi":"Y","url":"0","broadband_type_id":6}
{"id":null,"anchorname":"UNITED STATES COAST GUARD","address":"600 8TH AVE SE, ST PETERSBURG, FL 33701","bldgnbr":"600","predir":null,"streetname":"8TH","streettype":"AVE","suffdir":null,"city":"ST. PETERSBURG","state_code":"FL","zip5":"33701","latitude":"27.7623755800000000","longitude":"-82.628443840000000","publicwifi":"Y","url":"0","broadband_type_id":6}
{"id":null,"anchorname":"SUNRISE COMMUNITY OF POLK COUNTY INC","address":"1339 GOLCONDA RD, LAKELAND, FL, 33801","bldgnbr":"1339","predir":"0","streetname":"GOLCONDA","streettype":"RD","suffdir":"0","city":"LAKELAND","state_code":"FL","zip5":"33801","latitude":"28.0534370000000000","longitude":"-81.938234000000000","publicwifi":"U","url":"0","broadband_type_id":6}
{"id":null,"anchorname":"BLESSED ACADEMY","address":"1741 EAST GARY ROAD, LAKELAND, FL 33801","bldgnbr":"1741","predir":null,"streetname":"GARY","streettype":"RD","suffdir":null,"city":"LAKELAND","state_code":"FL","zip5":"33801","latitude":"28.0489296100000000","longitude":"-81.929105920000000","publicwifi":"U","url":"0","broadband_type_id":6}
{"id":null,"anchorname":"KIDNEY LIFE, INC.","address":"446 4TH ST S, ST PETERSBURG, FL, 33701","bldgnbr":"446","predir":"0","streetname":"4TH","streettype":"ST","suffdir":"S","city":"ST PETERSBURG","state_code":"FL","zip5":"33701","latitude":"27.7661440000000000","longitude":"-82.638371000000000","publicwifi":"U","url":"0","broadband_type_id":null}
{"id":null,"anchorname":"FLORIDA DEPARTMENT OF JUVENILE JUSTICE","address":"955 26TH ST S, ST PETERSBURG, FL 33712","bldgnbr":"955","predir":null,"streetname":"26TH","streettype":"ST","suffdir":null,"city":"ST. PETERSBURG","state_code":"FL","zip5":"33712","latitude":"27.7603987500000000","longitude":"-82.669167940000000","publicwifi":"Y","url":"0","broadband_type_id":null}
{"id":null,"anchorname":"PRIBILA CONSULTING SERVICES INC","address":"1826 N CRYSTAL LAKE DR, LAKELAND, FL, 33801","bldgnbr":"1826","predir":"N","streetname":"CRYSTAL LAKE","streettype":"DR","suffdir":"0","city":"LAKELAND","state_code":"FL","zip5":"33801","latitude":"28.0259900000000000","longitude":"-81.926029000000000","publicwifi":"U","url":"0","broadband_type_id":6}
{"id":null,"anchorname":"SECOND DISTRICT COURT OF APPEAL","address":"1005 E MEMORIAL BLVD, LAKELAND, FL 33801","bldgnbr":"1005","predir":null,"streetname":"MEMORIAL","streettype":"BLVD","suffdir":null,"city":"LAKELAND","state_code":"FL","zip5":"33801","latitude":"28.0545487800000000","longitude":"-81.944396320000000","publicwifi":"Y","url":"0","broadband_type_id":6}
{"id":null,"anchorname":"2ND DISTRICT COURT OF APPEALS","address":"1005 E. MEMORIAL BLVD., LAKELAND, FL, 33801","bldgnbr":"1005","predir":"E.","streetname":"MEMORIAL","streettype":"BLVD.","suffdir":"0","city":"LAKELAND","state_code":"FL","zip5":"33801","latitude":"28.0549670000000000","longitude":"-81.944754000000000","publicwifi":"Y","url":"0","broadband_type_id":6}
{"id":null,"anchorname":"LABOR OF LOVE CHILDBIRTH SERVICES, INC","address":"1525 EDGEWATER BEACH DR, LAKELAND, FL, 33805","bldgnbr":"1525","predir":"0","streetname":"EDGEWATER BEACH","streettype":"DR","suffdir":"0","city":"LAKELAND","state_code":"FL","zip5":"33805","latitude":"28.0556510000000000","longitude":"-81.938129000000000","publicwifi":"U","url":"0","broadband_type_id":6}
{"id":null,"anchorname":"POLK COUNTY CIRCUIT AND COUNTY COURTS - LAKELAND","address":"930 EAST PARKER ST, LAKELAND, FL 33801","bldgnbr":"930","predir":null,"streetname":"PARKER","streettype":"ST","suffdir":null,"city":"LAKELAND","state_code":"FL","zip5":"33801","latitude":"28.0527111500000000","longitude":"-81.945910480000000","publicwifi":"U","url":"0","broadband_type_id":1}
{"id":null,"anchorname":"POLK COUNTY TAX COLLECTOR","address":"930 EAST PARKER STREET, LAKELAND, FL 33801","bldgnbr":"930","predir":null,"streetname":"PARKER","streettype":"ST","suffdir":null,"city":"LAKELAND","state_code":"FL","zip5":"33801","latitude":"28.0527111500000000","longitude":"-81.945910480000000","publicwifi":"Y","url":"0","broadband_type_id":1}
{"id":null,"anchorname":"FLORIDA DEPARTMENT OF HIGHWAY SAFETY AND MOTOR VEHICLES","address":"930 E PARKER ST, LAKELAND, FL, 33801","bldgnbr":"930","predir":"E","streetname":"PARKER","streettype":"ST","suffdir":"0","city":"LAKELAND","state_code":"FL","zip5":"33801","latitude":"28.0514560000000000","longitude":"-81.945879000000000","publicwifi":"Y","url":"0","broadband_type_id":6}
{"id":null,"anchorname":"CRESTVIEW MANOR","address":"4381 TONAWANDA TRL DAYTON, OH 45430","bldgnbr":"4381","predir":null,"streetname":"TONAWANDA TRL","streettype":null,"suffdir":null,"city":"DAYTON","state_code":"OH","zip5":"45430","latitude":"39.6969000000000000","longitude":"-84.099340000000000","publicwifi":"U","url":null,"broadband_type_id":6}
{"id":null,"anchorname":"GREENE COUNTY CAC","address":"137 DETROIT BLVD XENIA, OH 45385-2241","bldgnbr":"137","predir":null,"streetname":"DETROIT BLVD","streettype":null,"suffdir":null,"city":"XENIA","state_code":"OH","zip5":"45385","latitude":"39.6876300000000000","longitude":"-83.929380000000000","publicwifi":"U","url":null,"broadband_type_id":1}
{"id":null,"anchorname":"CELL TOWER","address":"1109 E PARKER ST, LAKELAND, FL 33801","bldgnbr":"1109","predir":null,"streetname":"PARKER","streettype":"ST","suffdir":null,"city":"LAKELAND","state_code":"FL","zip5":"33801","latitude":"28.0513849100000000","longitude":"-81.942343610000000","publicwifi":"Y","url":"0","broadband_type_id":null}
{"id":null,"anchorname":"FLORIDA FISH \u0026 WILDLIFE RESEARCH INSTITUTE LIBRARY","address":"100 E 8TH AVE SE, SAINT PETERSBURG, FL 33701","bldgnbr":"100","predir":null,"streetname":"8TH","streettype":"AVE","suffdir":null,"city":"SAINT PETERSBURG","state_code":"FL","zip5":"33701","latitude":"27.7615050200000000","longitude":"-82.633631070000000","publicwifi":"U","url":"0","broadband_type_id":6}
{"id":null,"anchorname":"POYNTER INSTITUTE LIBRARY","address":"801 3RD ST S, SAINT PETERSBURG, FL 33701","bldgnbr":"801","predir":null,"streetname":"3RD","streettype":"ST","suffdir":null,"city":"SAINT PETERSBURG","state_code":"FL","zip5":"33701","latitude":"27.7620601600000000","longitude":"-82.637367850000000","publicwifi":"U","url":"0","broadband_type_id":6}
{"id":null,"anchorname":"ST. PETERSBURG TIMES NEWS LIBRARY","address":"490 1ST AVE S, SAINT PETERSBURG, FL 33701","bldgnbr":"490","predir":null,"streetname":"1ST","streettype":"AVE","suffdir":null,"city":"SAINT PETERSBURG","state_code":"FL","zip5":"33701","latitude":"27.7698666900000000","longitude":"-82.639183950000000","publicwifi":"U","url":"0","broadband_type_id":6}
{"id":null,"anchorname":"JOHN HOPKINS MIDDLE SCHOOL","address":"701 16TH ST S, SAINT PETERSBURG, FL 33712","bldgnbr":"701","predir":null,"streetname":"16TH","streettype":"ST","suffdir":null,"city":"SAINT PETERSBURG","state_code":"FL","zip5":"33712","latitude":"27.7633845500000000","longitude":"-82.656086590000000","publicwifi":"Y","url":"0","broadband_type_id":6}
{"id":null,"anchorname":"CAMPBELL PARK ELEMENTARY SCHOOL","address":"1051 7TH AVE S, SAINT PETERSBURG, FL 33705","bldgnbr":"1051","predir":null,"streetname":"7TH","streettype":"AVE","suffdir":null,"city":"SAINT PETERSBURG","state_code":"FL","zip5":"33705","latitude":"27.7636101500000000","longitude":"-82.650381800000000","publicwifi":"Y","url":"0","broadband_type_id":6}
{"id":null,"anchorname":"SUNCOAST CENTER FOR COMMUNITY MENTAL HEALTH","address":"1001 16TH ST S, ST PETERSBURG, FL, 33705","bldgnbr":"1001","predir":"0","streetname":"16TH","streettype":"ST","suffdir":"S","city":"ST PETERSBURG","state_code":"FL","zip5":"33705","latitude":"27.7605370000000000","longitude":"-82.654833000000000","publicwifi":"U","url":"0","broadband_type_id":3}
{"id":null,"anchorname":"ST PETERSBURG COLLEGE - SPC MIDTOWN","address":"1048 22ND ST S, SAINT PETERSBURG, FL 33712","bldgnbr":"1048","predir":null,"streetname":"22ND","streettype":"ST","suffdir":null,"city":"SAINT PETERSBURG","state_code":"FL","zip5":"33712","latitude":"27.7597506300000000","longitude":"-82.662738220000000","publicwifi":"U","url":"0","broadband_type_id":6}
{"id":null,"anchorname":"MELROSE ELEMENTARY SCHOOL","address":"1752 13TH AVE S, SAINT PETERSBURG, FL 33712","bldgnbr":"1752","predir":null,"streetname":"13TH","streettype":"AVE","suffdir":null,"city":"SAINT PETERSBURG","state_code":"FL","zip5":"33712","latitude":"27.7572179600000000","longitude":"-82.657316120000000","publicwifi":"Y","url":"0","broadband_type_id":6}
{"id":null,"anchorname":"COMMUNITY HEALTH CENTERS OF PINELLAS INC","address":"1344 22ND ST S, SAINT PETERSBURG, FL, 33712","bldgnbr":"1344","predir":"0","streetname":"22ND","streettype":"ST","suffdir":"S","city":"SAINT PETERSBURG","state_code":"FL","zip5":"33712","latitude":"27.7569740000000000","longitude":"-82.662919000000000","publicwifi":"U","url":"0","broadband_type_id":3}
{"id":null,"anchorname":"LIME STREET ELEMENTARY SCHOOL","address":"1225 E LIME STREET, LAKELAND, FL 33801","bldgnbr":"1225","predir":null,"streetname":"LIME","streettype":"ST","suffdir":null,"city":"LAKELAND","state_code":"FL","zip5":"33801","latitude":"28.0395234000000000","longitude":"-81.939197160000000","publicwifi":"Y","url":"0","broadband_type_id":6}
{"id":null,"anchorname":"POLK COUNTY SHERIFF'S OFFICE COMMINITY POLICING - SUNRAY","address":"15 GEORGE ST, LAKELAND, FL 33801","bldgnbr":"15","predir":null,"streetname":"GEORGE","streettype":"ST","suffdir":null,"city":"LAKELAND","state_code":"FL","zip5":"33801","latitude":"28.0424474700000000","longitude":"-81.938907750000000","publicwifi":"U","url":"0","broadband_type_id":4}
{"id":null,"anchorname":"EVEREST UNIVERSITY","address":"995 E MEMORIAL BLVD SUITE 110, LAKELAND, FL 33805","bldgnbr":"995","predir":null,"streetname":"MEMORIAL","streettype":"BLVD","suffdir":null,"city":"LAKELAND","state_code":"FL","zip5":"33805","latitude":"28.0564617400000000","longitude":"-81.945411080000000","publicwifi":"U","url":"0","broadband_type_id":6}
{"id":null,"anchorname":"CENTRAL FLORIDA HEALTH CARE INC","address":"936 E PARKER ST, LAKELAND, FL, 33801","bldgnbr":"936","predir":"E","streetname":"PARKER","streettype":"ST","suffdir":"0","city":"LAKELAND","state_code":"FL","zip5":"33801","latitude":"28.0514570000000000","longitude":"-81.945798000000000","publicwifi":"U","url":"0","broadband_type_id":3}
{"id":null,"anchorname":"EVEREST UNIVERSITY - LAKELAND CAMPUS LIBRARY","address":"995 E MEMORIAL BLVD, LAKELAND, FL 33801","bldgnbr":"995","predir":null,"streetname":"MEMORIAL","streettype":"BLVD","suffdir":null,"city":"LAKELAND","state_code":"FL","zip5":"33801","latitude":"28.0528596000000000","longitude":"-81.945854310000000","publicwifi":"U","url":"0","broadband_type_id":6}
{"id":null,"anchorname":"LAKELAND MONTESSORI SCHOOLHOUSE","address":"1124 LAKE PARKER AVE N, LAKELAND, FL, 33805","bldgnbr":"1124","predir":"0","streetname":"LAKE PARKER","streettype":"AVE","suffdir":"N","city":"LAKELAND","state_code":"FL","zip5":"33805","latitude":"28.0576290000000000","longitude":"-81.940959000000000","publicwifi":"Y","url":"0","broadband_type_id":6}
{"id":null,"anchorname":"ARCHWAY CLASSICAL ACADEMY NORTH PHOENIX","address":"13613 N CAVE CREEK RD PHOENIX AZ 85022","bldgnbr":"13613","predir":"N","streetname":"CAVE CREEK","streettype":"RD","suffdir":null,"city":"PHOENIX","state_code":"AZ","zip5":"85022","latitude":"33.6102950000000000","longitude":"-112.03599000000000","publicwifi":"Y","url":"http://archwaynorthphoenix.org/","broadband_type_id":6}
{"id":null,"anchorname":"City Of Edgewater","address":"2401 Sheridan Boulevard Edgewater Co 80214","bldgnbr":"2401","predir":null,"streetname":"Sheridan","streettype":"Boulevard","suffdir":null,"city":"Edgewater","state_code":"CO","zip5":"80214","latitude":"39.7513623970000000","longitude":"-105.05364332200000","publicwifi":"N","url":null,"broadband_type_id":1}
{"id":null,"anchorname":"ARIZONA PREPARATORY ACADEMY ONLINE","address":"10443 N CAVE CREEK RD PHOENIX AZ 85020","bldgnbr":"10443","predir":"N","streetname":"CAVE CREEK","streettype":"RD","suffdir":null,"city":"PHOENIX","state_code":"AZ","zip5":"85020","latitude":"33.5819920000000000","longitude":"-112.05192800000000","publicwifi":"U","url":null,"broadband_type_id":6}
{"id":null,"anchorname":"Mount View Youth Services Center","address":"7862 West Mansfield Parkway Denver Co 80235","bldgnbr":"7862","predir":"West","streetname":"Mansfield","streettype":"Parkway","suffdir":null,"city":"Denver","state_code":"CO","zip5":"80235","latitude":"39.6463880020000000","longitude":"-105.08721715300000","publicwifi":"N","url":null,"broadband_type_id":6}
{"id":null,"anchorname":"Kit Carson County Ambulance Service","address":"257 15th Street Burlington Co 80807","bldgnbr":"257","predir":null,"streetname":"15th","streettype":"Street","suffdir":null,"city":"Burlington","state_code":"CO","zip5":"80807","latitude":"39.3029928760000000","longitude":"-102.26956699400000","publicwifi":"N","url":null,"broadband_type_id":1}
{"id":null,"anchorname":"HERITAGE CHRISTIAN ACADEMY","address":"1211 NEW JERSEY ROAD, LAKELAND, FL 33801","bldgnbr":"1211","predir":null,"streetname":"NEW JERSEY","streettype":"RD","suffdir":null,"city":"LAKELAND","state_code":"FL","zip5":"33801","latitude":"28.0281606000000000","longitude":"-81.932902070000000","publicwifi":"U","url":"0","broadband_type_id":6}
{"id":null,"anchorname":"SPORTS AND ORTHOPEDIC REHABILITATION SERVICES","address":"3900 S FLORIDA AVE, LAKELAND, FL, 33813","bldgnbr":"3900","predir":"S","streetname":"FLORIDA","streettype":"AVE","suffdir":"0","city":"LAKELAND","state_code":"FL","zip5":"33813","latitude":"27.9929990000000000","longitude":"-81.956757000000000","publicwifi":"U","url":"0","broadband_type_id":6}
{"id":null,"anchorname":"FLORIDA PRESBYTERIAN HOMES INC","address":"909 LAKESIDE AVE, LAKELAND, FL, 33803","bldgnbr":"909","predir":"0","streetname":"LAKESIDE","streettype":"AVE","suffdir":"0","city":"LAKELAND","state_code":"FL","zip5":"33803","latitude":"28.0328850000000000","longitude":"-81.961230000000000","publicwifi":"U","url":"0","broadband_type_id":6}
{"id":null,"anchorname":"FAMILIES OF FAITH CHRISTIAN ACADEMY","address":"1248 GEORGE JENKINS BLVD # A, LAKELAND, FL 33815","bldgnbr":"1248","predir":null,"streetname":"GEORGE JENKINS","streettype":"BLVD","suffdir":null,"city":"LAKELAND","state_code":"FL","zip5":"33815","latitude":"28.0433641900000000","longitude":"-81.974156080000000","publicwifi":"U","url":"0","broadband_type_id":6}
{"id":null,"anchorname":"HMA BARTOW-SOLANTIC JOINT VENTURE LLC","address":"3030 HARDEN BLVD, LAKELAND, FL, 33803","bldgnbr":"3030","predir":"0","streetname":"HARDEN","streettype":"BLVD","suffdir":"0","city":"LAKELAND","state_code":"FL","zip5":"33803","latitude":"28.0098230000000000","longitude":"-81.974824000000000","publicwifi":"U","url":"0","broadband_type_id":null}
{"id":null,"anchorname":"DEMETRA BENNETT ARNP LLC","address":"3628 HARDEN BLVD, LAKELAND, FL, 33803","bldgnbr":"3628","predir":"0","streetname":"HARDEN","streettype":"BLVD","suffdir":"0","city":"LAKELAND","state_code":"FL","zip5":"33803","latitude":"27.9985940000000000","longitude":"-81.974929000000000","publicwifi":"U","url":"0","broadband_type_id":null}
{"id":null,"anchorname":"MARY L PEPINE MD PLLC","address":"727 S FLORIDA AVE, LAKELAND, FL, 33801-5232","bldgnbr":"727","predir":"S","streetname":"FLORIDA","streettype":"AVE","suffdir":"0","city":"LAKELAND","state_code":"FL","zip5":"33801","latitude":"28.0358330000000000","longitude":"-81.957193000000000","publicwifi":"U","url":"0","broadband_type_id":null}
{"id":null,"anchorname":"WHITEFIELD THEOLOGICAL SEMINARY","address":"1347 ARIANA ST, LAKELAND, FL 33815","bldgnbr":"1347","predir":null,"streetname":"ARIANA","streettype":"ST","suffdir":null,"city":"LAKELAND","state_code":"FL","zip5":"33815","latitude":"28.0271091300000000","longitude":"-81.975637150000000","publicwifi":"U","url":"0","broadband_type_id":null}
{"id":null,"anchorname":"LAKELAND MULTI-PURPOSE SENIOR CENTER","address":"1200 SOUTHERN AVENUE, LAKELAND, FL, 33815","bldgnbr":"1200","predir":"0","streetname":"SOUTHERN","streettype":"AVENUE","suffdir":"0","city":"LAKELAND","state_code":"FL","zip5":"33815","latitude":"28.0278590000000000","longitude":"-81.985788000000000","publicwifi":"U","url":"0","broadband_type_id":null}
{"id":null,"anchorname":"FLORIDA SOUTHERN COLLEGE","address":"111 LAKE HOLLINGSWORTH DR., LAKELAND, FL 33803","bldgnbr":"111","predir":null,"streetname":"LAKE HOLLINGSWORTH","streettype":"DR","suffdir":null,"city":"LAKELAND","state_code":"FL","zip5":"33803","latitude":"28.0309467600000000","longitude":"-81.946073810000000","publicwifi":"U","url":"0","broadband_type_id":6}
{"id":null,"anchorname":"FLORIDA SOUTHERN COLLEGE - ROUX LIBRARY/FLORIDA SOUTHERN COLLEGE","address":"111 LAKE HOLLINGSWORTH DR, LAKELAND, FL 33801","bldgnbr":"111","predir":null,"streetname":"LAKE HOLLINGSWORTH","streettype":"DR","suffdir":null,"city":"LAKELAND","state_code":"FL","zip5":"33801","latitude":"28.0325616600000000","longitude":"-81.948869570000000","publicwifi":"U","url":"0","broadband_type_id":6}
{"id":null,"anchorname":"LAKELAND PUBLIC LIBRARY","address":"100 LAKE MORTON DR, LAKELAND, FL 33801","bldgnbr":"100","predir":null,"streetname":"LAKE MORTON","streettype":"DR","suffdir":null,"city":"LAKELAND","state_code":"FL","zip5":"33801","latitude":"28.0374635400000000","longitude":"-81.949482360000000","publicwifi":"Y","url":"0","broadband_type_id":6}
{"id":null,"anchorname":"POLK MUSEUM OF ART - CHARLOTTE AND PAUL PENFIELD LIBRARY","address":"800 E PALMETTO ST, LAKELAND, FL 33801","bldgnbr":"800","predir":null,"streetname":"PALMETTO","streettype":"ST","suffdir":null,"city":"LAKELAND","state_code":"FL","zip5":"33801","latitude":"28.0373668300000000","longitude":"-81.948261990000000","publicwifi":"U","url":"0","broadband_type_id":6}
{"id":null,"anchorname":"FLYNN CLINIC, INC","address":"3810 S FLORIDA AVE, LAKELAND, FL, 33813","bldgnbr":"3810","predir":"S","streetname":"FLORIDA","streettype":"AVE","suffdir":"0","city":"LAKELAND","state_code":"FL","zip5":"33813","latitude":"27.9947160000000000","longitude":"-81.956799000000000","publicwifi":"U","url":"0","broadband_type_id":3}
{"id":null,"anchorname":"RESURRECTION CATHOLIC SCHOOL","address":"3720 OLD HIGHWAY 37, LAKELAND, FL 33813","bldgnbr":"3720","predir":null,"streetname":"OLD HIGHWAY 37","streettype":"0","suffdir":null,"city":"LAKELAND","state_code":"FL","zip5":"33813","latitude":"27.9947462500000000","longitude":"-81.956515560000000","publicwifi":"U","url":"0","broadband_type_id":6}
{"id":null,"anchorname":"HEALTHSOUTH CORPORATION","address":"3900 S FLORIDA AVE, LAKELAND, FL, 33813","bldgnbr":"3900","predir":"S","streetname":"FLORIDA","streettype":"AVE","suffdir":"0","city":"LAKELAND","state_code":"FL","zip5":"33813","latitude":"27.9929990000000000","longitude":"-81.956757000000000","publicwifi":"U","url":"0","broadband_type_id":3}
{"id":null,"anchorname":"FLORIDA CAREER INSTITUTE","address":"4222 S FLORIDA AVE, LAKELAND, FL 33813","bldgnbr":"4222","predir":null,"streetname":"FLORIDA","streettype":"AVE","suffdir":null,"city":"LAKELAND","state_code":"FL","zip5":"33813","latitude":"27.9886559600000000","longitude":"-81.955561310000000","publicwifi":"U","url":"0","broadband_type_id":3}
{"id":null,"anchorname":"LAKELAND FIRE DEPARTMENT STATION 5","address":"3101 LAKELAND HIGHLANDS RD., LAKELAND, FL 33801","bldgnbr":"3101","predir":null,"streetname":"LAKELAND HIGHLANDS","streettype":"RD","suffdir":null,"city":"LAKELAND","state_code":"FL","zip5":"33801","latitude":"28.0088475800000000","longitude":"-81.924284360000000","publicwifi":"U","url":"0","broadband_type_id":5}
{"id":null,"anchorname":"DIXIELAND ELEMENTARY SCHOOL","address":"416 W ARIANA STREET, LAKELAND, FL 33803","bldgnbr":"416","predir":null,"streetname":"ARIANA","streettype":"ST","suffdir":null,"city":"LAKELAND","state_code":"FL","zip5":"33803","latitude":"28.0254773500000000","longitude":"-81.960395440000000","publicwifi":"Y","url":"0","broadband_type_id":6}
{"id":null,"anchorname":"FLORIDA SCHOOL OF PREACHING","address":"1807 S FLORODA AVE, LAKELAND, FL 33803","bldgnbr":"1807","predir":null,"streetname":"FLORODA","streettype":"AVE","suffdir":null,"city":"LAKELAND","state_code":"FL","zip5":"33803","latitude":"28.0215164600000000","longitude":"-81.957693490000000","publicwifi":"U","url":"0","broadband_type_id":6}
{"id":null,"anchorname":"LAKELAND CHRISTIAN SCHOOL","address":"1111 FOREST PARK ST, LAKELAND, FL 33815","bldgnbr":"1111","predir":null,"streetname":"FOREST PARK","streettype":"ST","suffdir":null,"city":"LAKELAND","state_code":"FL","zip5":"33815","latitude":"28.0245841500000000","longitude":"-81.972350850000000","publicwifi":"U","url":"0","broadband_type_id":6}
{"id":null,"anchorname":"LAKELAND FIRE DEPARTMENT STATION 2","address":"2102 S. FLORIDA AVE., LAKELAND, FL 33801","bldgnbr":"2102","predir":null,"streetname":"FLORIDA","streettype":"AVE","suffdir":null,"city":"LAKELAND","state_code":"FL","zip5":"33801","latitude":"28.0185174400000000","longitude":"-81.957082790000000","publicwifi":"U","url":"0","broadband_type_id":5}
{"id":null,"anchorname":"SOUTHWEST MIDDLE SCHOOL","address":"2815 SOUTH EDEN PARKWAY, LAKELAND, FL 33803","bldgnbr":"2815","predir":null,"streetname":"EDEN","streettype":"PKWY","suffdir":null,"city":"LAKELAND","state_code":"FL","zip5":"33803","latitude":"28.0126202700000000","longitude":"-81.963715840000000","publicwifi":"Y","url":"0","broadband_type_id":6}
{"id":null,"anchorname":"SOUTHWEST ELEMENTARY SCHOOL","address":"2650 SOUTHWEST AVENUE, LAKELAND, FL 33803","bldgnbr":"2650","predir":null,"streetname":"SOUTHWEST","streettype":"AVE","suffdir":null,"city":"LAKELAND","state_code":"FL","zip5":"33803","latitude":"28.0135355300000000","longitude":"-81.959358250000000","publicwifi":"Y","url":"0","broadband_type_id":6}
{"id":null,"anchorname":"CLARK \u0026 DAUGHTREY MEDICAL GROUP PA","address":"2625 S FLORIDA AVE, LAKELAND, FL, 33803","bldgnbr":"2625","predir":"S","streetname":"FLORIDA","streettype":"AVE","suffdir":"0","city":"LAKELAND","state_code":"FL","zip5":"33803","latitude":"28.0136060000000000","longitude":"-81.957113000000000","publicwifi":"U","url":"0","broadband_type_id":3}
{"id":null,"anchorname":"WEST AREA ADULT/COMMUNITY SCHOOL","address":"604 S CENTRAL AVE, LAKELAND, FL 33815","bldgnbr":"604","predir":null,"streetname":"CENTRAL","streettype":"AVE","suffdir":null,"city":"LAKELAND","state_code":"FL","zip5":"33815","latitude":"28.0374135000000000","longitude":"-81.972899790000000","publicwifi":"U","url":"0","broadband_type_id":6}
{"id":null,"anchorname":"JESSE KEEN ELEMENTARY SCHOOL","address":"815 PLATEAU AVENUE, LAKELAND, FL 33815","bldgnbr":"815","predir":null,"streetname":"PLATEAU","streettype":"AVE","suffdir":null,"city":"LAKELAND","state_code":"FL","zip5":"33815","latitude":"28.0344260600000000","longitude":"-81.988508590000000","publicwifi":"Y","url":"0","broadband_type_id":6}
{"id":null,"anchorname":"POLK COUNTY HEALTH DEPARTMENT","address":"1291 ARIANA ST, LAKELAND, FL 33803","bldgnbr":"1291","predir":null,"streetname":"ARIANA","streettype":"ST","suffdir":null,"city":"LAKELAND","state_code":"FL","zip5":"33803","latitude":"28.0270789900000000","longitude":"-81.975028770000000","publicwifi":"Y","url":"0","broadband_type_id":3}
{"id":null,"anchorname":"FLORIDA DEPARTMENT OF HEALTH","address":"1291 ARIANA STREET, LAKELAND, FL, 33803","bldgnbr":"1291","predir":"0","streetname":"ARIANA","streettype":"STREET","suffdir":"0","city":"LAKELAND","state_code":"FL","zip5":"33803","latitude":"28.0259550000000000","longitude":"-81.974521000000000","publicwifi":"Y","url":"0","broadband_type_id":3}
{"id":null,"anchorname":"ST LUKES CHRISTIAN ACADEMY \u0026 PRESCHOOL","address":"910 QUINCY STREET, LAKELAND, FL 33815","bldgnbr":"910","predir":null,"streetname":"QUINCY","streettype":"ST","suffdir":null,"city":"LAKELAND","state_code":"FL","zip5":"33815","latitude":"28.0543787500000000","longitude":"-81.966816270000000","publicwifi":"U","url":"0","broadband_type_id":6}
{"id":null,"anchorname":"EDKEY INC- ARIZONA CONSERVATORY FOR ARTS AND ACADEMICS","address":"2820 W KELTON LN PHOENIX AZ 85053","bldgnbr":"2820","predir":"W","streetname":"KELTON","streettype":"LN","suffdir":null,"city":"PHOENIX","state_code":"AZ","zip5":"85053","latitude":"33.6366970000000000","longitude":"-112.11951100000000","publicwifi":"Y","url":"http://choiceed.org","broadband_type_id":6}
{"id":null,"anchorname":"Montessori Peaks Charter Academy","address":"9904 West Capri Avenue Littleton Co 80123","bldgnbr":"9904","predir":"West","streetname":"Capri","streettype":"Avenue","suffdir":null,"city":"Littleton","state_code":"CO","zip5":"80123","latitude":"39.6053473090000000","longitude":"-105.10887143100000","publicwifi":"N","url":null,"broadband_type_id":6}
{"id":null,"anchorname":"LEONA ADVANCED VIRTUAL ACADEMY","address":"7878 N 16TH PHOENIX AZ 85020","bldgnbr":"7878","predir":"N","streetname":"16TH","streettype":null,"suffdir":null,"city":"PHOENIX","state_code":"AZ","zip5":"85020","latitude":"33.5527600000000000","longitude":"-112.04797500000000","publicwifi":"U","url":null,"broadband_type_id":6}
{"id":null,"anchorname":"Meiklejohn Elementary","address":"13405 West 83rd Place Arvada Co 80005","bldgnbr":"13405","predir":"West","streetname":"83rd","streettype":"Place","suffdir":null,"city":"Arvada","state_code":"CO","zip5":"80005","latitude":"39.8476968710000000","longitude":"-105.15018399100000","publicwifi":"N","url":null,"broadband_type_id":6}
{"id":null,"anchorname":"MCKEEL ACADEMY OF TECHNOLOGY","address":"1810 W PARKER STREET, LAKELAND, FL 33815","bldgnbr":"1810","predir":null,"streetname":"PARKER","streettype":"ST","suffdir":null,"city":"LAKELAND","state_code":"FL","zip5":"33815","latitude":"28.0492287000000000","longitude":"-81.983909150000000","publicwifi":"Y","url":"0","broadband_type_id":1}
{"id":null,"anchorname":"FLORIDA HIGHWAY PATROL LAKELAND - TROOP C","address":"3247 LAKELAND HILLS BLVD., LAKELAND, FL 33805","bldgnbr":"3247","predir":null,"streetname":"LAKELAND HILLS","streettype":"BLVD","suffdir":null,"city":"LAKELAND","state_code":"FL","zip5":"33805","latitude":"28.0833091300000000","longitude":"-81.952795680000000","publicwifi":"U","url":"0","broadband_type_id":4}
{"id":null,"anchorname":"FLORIDA DEPARTMENT OF HIGHWAY SAFETY AND MOTOR VEHICLES","address":"3247 LAKELAND HILLS BLVD, LAKELAND, FL 33805","bldgnbr":"3247","predir":null,"streetname":"LAKELAND HILLS","streettype":"BLVD","suffdir":null,"city":"LAKELAND","state_code":"FL","zip5":"33805","latitude":"28.0830694200000000","longitude":"-81.953115340000000","publicwifi":"Y","url":"0","broadband_type_id":6}
{"id":null,"anchorname":"ARIZONA STATE BOARD OF CHIROPRACTIC EXAMINERS","address":"5060 N 19TH AVE PHOENIX AZ 85015","bldgnbr":"5060","predir":"N","streetname":"19TH","streettype":"AVE","suffdir":null,"city":"PHOENIX","state_code":"AZ","zip5":"85015","latitude":"33.5114700000000000","longitude":"-112.09999500000000","publicwifi":"U","url":null,"broadband_type_id":1}
{"id":null,"anchorname":"MCGORDON  JACQUELINE","address":"1038 N WALKER AVE, LAKELAND, FL, 33805","bldgnbr":"1038","predir":"N","streetname":"WALKER","streettype":"AVE","suffdir":"0","city":"LAKELAND","state_code":"FL","zip5":"33805","latitude":"28.0556860000000000","longitude":"-81.967083000000000","publicwifi":"U","url":"0","broadband_type_id":null}
{"id":null,"anchorname":"LAKELAND SURGICAL \u0026 DIAGNOSTIC CENTER LLP","address":"818 GRIFFIN RD, LAKELAND, FL, 33805","bldgnbr":"818","predir":"0","streetname":"GRIFFIN","streettype":"RD","suffdir":"0","city":"LAKELAND","state_code":"FL","zip5":"33805","latitude":"28.0805710000000000","longitude":"-81.966771000000000","publicwifi":"U","url":"0","broadband_type_id":null}
{"id":null,"anchorname":"FLORIDA DEPARTMENT OF HIGHWAY SAFETY AND MOTOR VEHICLES","address":"3249 LAKELAND HILLS BOULEVARD, LAKELAND, FL, 33805","bldgnbr":"3249","predir":"0","streetname":"LAKELAND HILLS","streettype":"BOULEVARD","suffdir":"0","city":"LAKELAND","state_code":"FL","zip5":"33805","latitude":"28.0831090000000000","longitude":"-81.953119000000000","publicwifi":"Y","url":"0","broadband_type_id":6}
{"id":null,"anchorname":"DIVISION OF FORESTRY","address":"5745 S FLORIDA AVE, LAKELAND, FL 33813","bldgnbr":"5745","predir":null,"streetname":"FLORIDA","streettype":"AVE","suffdir":null,"city":"LAKELAND","state_code":"FL","zip5":"33813","latitude":"27.9625022500000000","longitude":"-81.966251770000000","publicwifi":"Y","url":"0","broadband_type_id":2}
{"id":null,"anchorname":"GIRLS LEADERSHIP ACADEMY OF ARIZONA","address":"715 W MARIPOSA ST PHOENIX AZ 85013","bldgnbr":"715","predir":"W","streetname":"MARIPOSA","streettype":"ST","suffdir":null,"city":"PHOENIX","state_code":"AZ","zip5":"85013","latitude":"33.5084560000000000","longitude":"-112.08329500000000","publicwifi":"U","url":null,"broadband_type_id":6}
{"id":null,"anchorname":"LINCOLN AVENUE ACADEMY","address":"1330 N LINCOLN AVENUE, LAKELAND, FL 33805","bldgnbr":"1330","predir":null,"streetname":"LINCOLN","streettype":"AVE","suffdir":null,"city":"LAKELAND","state_code":"FL","zip5":"33805","latitude":"28.0614219300000000","longitude":"-81.966258240000000","publicwifi":"Y","url":"0","broadband_type_id":6}
{"id":null,"anchorname":"GREATER ST PAUL ACADEMY","address":"1130 N WEBSTER AVENUE, LAKELAND, FL 33805","bldgnbr":"1130","predir":null,"streetname":"WEBSTER","streettype":"AVE","suffdir":null,"city":"LAKELAND","state_code":"FL","zip5":"33805","latitude":"28.0581871200000000","longitude":"-81.969860010000000","publicwifi":"U","url":"0","broadband_type_id":6}
{"id":null,"anchorname":"ONEBLOOD INC","address":"1324 LAKELAND HILLS BLVD, LAKELAND, FL, 33805","bldgnbr":"1324","predir":"0","streetname":"LAKELAND HILLS","streettype":"BLVD","suffdir":"0","city":"LAKELAND","state_code":"FL","zip5":"33805","latitude":"28.0612020000000000","longitude":"-81.953316000000000","publicwifi":"U","url":"0","broadband_type_id":null}
{"id":null,"anchorname":"LAKELAND SURGICAL \u0026 DIAGNOSTIC CENTER LLP","address":"1315 N FLORIDA AVE, LAKELAND, FL, 33805","bldgnbr":"1315","predir":"N","streetname":"FLORIDA","streettype":"AVE","suffdir":"0","city":"LAKELAND","state_code":"FL","zip5":"33805","latitude":"28.0617030000000000","longitude":"-81.957269000000000","publicwifi":"U","url":"0","broadband_type_id":null}
{"id":null,"anchorname":"KATHLEEN SENIOR HIGH SCHOOL","address":"1100 RED DEVIL WAY, LAKELAND, FL, 33815","bldgnbr":"1100","predir":"0","streetname":"RED DEVIL","streettype":"WAY","suffdir":"0","city":"LAKELAND","state_code":"FL","zip5":"33815","latitude":"28.0550070000000000","longitude":"-81.997046000000000","publicwifi":"Y","url":"0","broadband_type_id":6}
{"id":null,"anchorname":"FLORIDA BIBLE COLLEGE AND SEMINARY INC.","address":"514 W 5TH ST, LAKELAND, FL 33805","bldgnbr":"514","predir":null,"streetname":"5TH","streettype":"ST","suffdir":null,"city":"LAKELAND","state_code":"FL","zip5":"33805","latitude":"28.0582079000000000","longitude":"-81.958621420000000","publicwifi":"U","url":"0","broadband_type_id":6}
{"id":null,"anchorname":"LARRY R. JACKSON BRANCH LIBRARY","address":"1700 N FLORIDA AVE, LAKELAND, FL 33805","bldgnbr":"1700","predir":null,"streetname":"FLORIDA","streettype":"AVE","suffdir":null,"city":"LAKELAND","state_code":"FL","zip5":"33805","latitude":"28.0687236800000000","longitude":"-81.957771440000000","publicwifi":"Y","url":"0","broadband_type_id":6}
{"id":null,"anchorname":"ROCHELLE SCHOOL OF THE ARTS","address":"1501 MARTIN L KING JR AVE, LAKELAND, FL 33805","bldgnbr":"1501","predir":null,"streetname":"MARTIN L KING JR","streettype":"AVE","suffdir":null,"city":"LAKELAND","state_code":"FL","zip5":"33805","latitude":"28.0637701200000000","longitude":"-81.960625700000000","publicwifi":"Y","url":"0","broadband_type_id":6}
{"id":null,"anchorname":"SURGICARE OF CENTRAL FLORIDA LTD","address":"900 GRIFFIN RD, LAKELAND, FL, 33805","bldgnbr":"900","predir":"0","streetname":"GRIFFIN","streettype":"RD","suffdir":"0","city":"LAKELAND","state_code":"FL","zip5":"33805","latitude":"28.0805940000000000","longitude":"-81.968081000000000","publicwifi":"U","url":"0","broadband_type_id":3}
{"id":null,"anchorname":"DVA HEALTHCARE RENAL CARE, INC.","address":"515 E BELLA VISTA ST, LAKELAND, FL, 33805","bldgnbr":"515","predir":"E","streetname":"BELLA VISTA","streettype":"ST","suffdir":"0","city":"LAKELAND","state_code":"FL","zip5":"33805","latitude":"28.0696690000000000","longitude":"-81.953103000000000","publicwifi":"U","url":"0","broadband_type_id":3}
{"id":null,"anchorname":"SCHC WOMENS CARE OF LAKELAND","address":"1729 LAKELAND HILLS BLVD, LAKELAND, FL, 33805","bldgnbr":"1729","predir":"0","streetname":"LAKELAND HILLS","streettype":"BLVD","suffdir":"0","city":"LAKELAND","state_code":"FL","zip5":"33805","latitude":"28.0689870000000000","longitude":"-81.953239000000000","publicwifi":"U","url":"0","broadband_type_id":3}
{"id":null,"anchorname":"WATSON CLINIC LLP","address":"1730 LAKELAND HILLS BLVD, LAKELAND, FL, 33805","bldgnbr":"1730","predir":"0","streetname":"LAKELAND HILLS","streettype":"BLVD","suffdir":"0","city":"LAKELAND","state_code":"FL","zip5":"33805","latitude":"28.0688660000000000","longitude":"-81.953363000000000","publicwifi":"U","url":"0","broadband_type_id":3}
{"id":null,"anchorname":"WATSON CLINIC KIDNEY CENTER","address":"1550 LAKELAND HILLS BLVD, LAKELAND, FL, 33805","bldgnbr":"1550","predir":"0","streetname":"LAKELAND HILLS","streettype":"BLVD","suffdir":"0","city":"LAKELAND","state_code":"FL","zip5":"33805","latitude":"28.0655560000000000","longitude":"-81.953337000000000","publicwifi":"U","url":"0","broadband_type_id":3}
{"id":null,"anchorname":"HEALTHCARE CENTER OF TAMPA","address":"202 PARKVIEW PL, LAKELAND, FL, 33805","bldgnbr":"202","predir":"0","streetname":"PARKVIEW","streettype":"PL","suffdir":"0","city":"LAKELAND","state_code":"FL","zip5":"33805","latitude":"28.0625050000000000","longitude":"-81.956201000000000","publicwifi":"U","url":"0","broadband_type_id":3}
{"id":null,"anchorname":"LAKELAND REGIONAL MEDICAL CENTER","address":"1417 LAKELAND HILLS BLVD, LAKELAND, FL, 33805","bldgnbr":"1417","predir":"0","streetname":"LAKELAND HILLS","streettype":"BLVD","suffdir":"0","city":"LAKELAND","state_code":"FL","zip5":"33805","latitude":"28.0632800000000000","longitude":"-81.953199000000000","publicwifi":"U","url":"0","broadband_type_id":3}
{"id":null,"anchorname":"LAKELAND FAMILY MEDICINE","address":"1305 LAKELAND HILLS BLVD, LAKELAND, FL, 33805","bldgnbr":"1305","predir":"0","streetname":"LAKELAND HILLS","streettype":"BLVD","suffdir":"0","city":"LAKELAND","state_code":"FL","zip5":"33805","latitude":"28.0608850000000000","longitude":"-81.953190000000000","publicwifi":"U","url":"0","broadband_type_id":3}
{"id":null,"anchorname":"LAKELAND REGIONAL MEDICAL CENTER","address":"1324 LAKELAND HILLS BLVD, LAKELAND, FL 33805","bldgnbr":"1324","predir":null,"streetname":"LAKELAND HILLS","streettype":"BLVD","suffdir":null,"city":"LAKELAND","state_code":"FL","zip5":"33805","latitude":"28.0613587300000000","longitude":"-81.954358520000000","publicwifi":"Y","url":null,"broadband_type_id":3}
{"id":null,"anchorname":"LAKELAND REG. MEDICAL CENTER LIBRARY","address":"1324 LAKELAND HILLS BLVD, LAKELAND, FL 33805","bldgnbr":"1324","predir":null,"streetname":"LAKELAND HILLS","streettype":"BLVD","suffdir":null,"city":"LAKELAND","state_code":"FL","zip5":"33805","latitude":"28.0612413300000000","longitude":"-81.954074770000000","publicwifi":"U","url":"0","broadband_type_id":3}
{"id":null,"anchorname":"LAKELAND VOLUNTEERS IN MEDICINE","address":"1021 LAKELAND HILLS BLVD, LAKELAND, FL, 33805","bldgnbr":"1021","predir":"0","streetname":"LAKELAND HILLS","streettype":"BLVD","suffdir":"0","city":"LAKELAND","state_code":"FL","zip5":"33805","latitude":"28.0561940000000000","longitude":"-81.954166000000000","publicwifi":"U","url":"0","broadband_type_id":3}
{"id":null,"anchorname":"JAY CARE MEDICAL CENTER","address":"135 E 1ST ST, LAKELAND, FL, 33805","bldgnbr":"135","predir":"E","streetname":"1ST","streettype":"ST","suffdir":"0","city":"LAKELAND","state_code":"FL","zip5":"33805","latitude":"28.0559190000000000","longitude":"-81.956963000000000","publicwifi":"U","url":"0","broadband_type_id":3}
{"id":null,"anchorname":"PARKVIEW MEDICAL GROUP, LLC","address":"135 E 1ST ST, LAKELAND, FL, 33805","bldgnbr":"135","predir":"E","streetname":"1ST","streettype":"ST","suffdir":"0","city":"LAKELAND","state_code":"FL","zip5":"33805","latitude":"28.0559190000000000","longitude":"-81.956963000000000","publicwifi":"U","url":"0","broadband_type_id":3}
{"id":null,"anchorname":"POLK COUNTY HEALTH DEPARTMENT","address":"3241 LAKELAND HILLS BOULEVARD, LAKELAND, FL 33805","bldgnbr":"3241","predir":null,"streetname":"LAKELAND HILLS","streettype":"BLVD","suffdir":null,"city":"LAKELAND","state_code":"FL","zip5":"33805","latitude":"28.0825322700000000","longitude":"-81.952698920000000","publicwifi":"Y","url":"0","broadband_type_id":3}
{"id":null,"anchorname":"Kit Carson County Jail","address":"251 16th Street Burlington Co 80807","bldgnbr":"251","predir":null,"streetname":"16th","streettype":"Street","suffdir":null,"city":"Burlington","state_code":"CO","zip5":"80807","latitude":"39.3029040460000000","longitude":"-102.27113867400000","publicwifi":"N","url":null,"broadband_type_id":1}
{"id":null,"anchorname":"ONEBLOOD INC","address":"3200 LAKELAND HILLS BLVD, LAKELAND, FL, 33805","bldgnbr":"3200","predir":"0","streetname":"LAKELAND HILLS","streettype":"BLVD","suffdir":"0","city":"LAKELAND","state_code":"FL","zip5":"33805","latitude":"28.0820960000000000","longitude":"-81.953403000000000","publicwifi":"U","url":"0","broadband_type_id":null}
{"id":null,"anchorname":"Department of Motor Vehicles Bayfield","address":"1199 Bayfield Parkway Bayfield Co 81122","bldgnbr":"1199","predir":null,"streetname":"Bayfield","streettype":"Parkway","suffdir":null,"city":"Bayfield","state_code":"CO","zip5":"81122","latitude":"37.2254846020000000","longitude":"-107.60388362200000","publicwifi":"N","url":null,"broadband_type_id":6}
{"id":null,"anchorname":"ARIZONA DEPARTMENT OF ECONOMIC SECURITY - CHILD PR","address":"10640 N 28TH DR PHOENIX AZ 85029","bldgnbr":"10640","predir":"N","streetname":"28TH","streettype":"DR","suffdir":null,"city":"PHOENIX","state_code":"AZ","zip5":"85029","latitude":"33.5831110000000000","longitude":"-112.12209400000000","publicwifi":"U","url":null,"broadband_type_id":1}
{"id":null,"anchorname":"TLC REHAB INC","address":"810 E BELLA VISTA ST, LAKELAND, FL, 33805","bldgnbr":"810","predir":"E","streetname":"BELLA VISTA","streettype":"ST","suffdir":"0","city":"LAKELAND","state_code":"FL","zip5":"33805","latitude":"28.0698020000000000","longitude":"-81.948836000000000","publicwifi":"U","url":"0","broadband_type_id":null}
{"id":null,"anchorname":"VENTURE ACADEMY","address":"1535 W DUNLAP AVE PHOENIX AZ 85020","bldgnbr":"1535","predir":"W","streetname":"DUNLAP","streettype":"AVE","suffdir":null,"city":"PHOENIX","state_code":"AZ","zip5":"85020","latitude":"33.5674330000000000","longitude":"-112.09244400000000","publicwifi":"U","url":null,"broadband_type_id":6}
{"id":null,"anchorname":"LAKELAND ADVENTIST JR ACADEMY","address":"1443 GILMORE AVENUE, LAKELAND, FL 33805","bldgnbr":"1443","predir":null,"streetname":"GILMORE","streettype":"AVE","suffdir":null,"city":"LAKELAND","state_code":"FL","zip5":"33805","latitude":"28.0702705600000000","longitude":"-81.950634910000000","publicwifi":"U","url":"0","broadband_type_id":6}
{"id":null,"anchorname":"PEACE RIVER CENTER","address":"728 EAST BELLA VISTA STREET, LAKELAND, FL, 33805","bldgnbr":"728","predir":"EAST","streetname":"BELLA VISTA","streettype":"STREET","suffdir":"0","city":"LAKELAND","state_code":"FL","zip5":"33805","latitude":"28.0698040000000000","longitude":"-81.950160000000000","publicwifi":"U","url":"0","broadband_type_id":null}
{"id":null,"anchorname":"CALVARY BAPTIST CHURCH ACADEMY","address":"1945 NORTH FLORIDA AVENUE, LAKELAND, FL 33805","bldgnbr":"1945","predir":null,"streetname":"FLORIDA","streettype":"AVE","suffdir":null,"city":"LAKELAND","state_code":"FL","zip5":"33805","latitude":"28.0724189300000000","longitude":"-81.956959970000000","publicwifi":"U","url":"0","broadband_type_id":6}
{"id":null,"anchorname":"LAKELAND HILLS CENTER","address":"610 E BELLA VISTA DR, LAKELAND, FL, 33805","bldgnbr":"610","predir":"E","streetname":"BELLA VISTA","streettype":"DR","suffdir":"0","city":"LAKELAND","state_code":"FL","zip5":"33805","latitude":"28.0697950000000000","longitude":"-81.952175000000000","publicwifi":"U","url":"0","broadband_type_id":null}
{"id":null,"anchorname":"BENNETT ACADEMY","address":"2930 W BETHANY HOME RD PHOENIX AZ 85017","bldgnbr":"2930","predir":"W","streetname":"BETHANY HOME","streettype":"RD","suffdir":null,"city":"PHOENIX","state_code":"AZ","zip5":"85017","latitude":"33.5240560000000000","longitude":"-112.12192900000000","publicwifi":"U","url":null,"broadband_type_id":6}
{"id":null,"anchorname":"LAKELAND FL ENDOSCOPY ASC LLC","address":"3340 LAKELAND HILLS BLVD, LAKELAND, FL, 33805","bldgnbr":"3340","predir":"0","streetname":"LAKELAND HILLS","streettype":"BLVD","suffdir":"0","city":"LAKELAND","state_code":"FL","zip5":"33805","latitude":"28.0849610000000000","longitude":"-81.953422000000000","publicwifi":"U","url":"0","broadband_type_id":null}
{"id":null,"anchorname":"FLORIDA FISH AND WILDLIFE CONSERVATION COMMISSION TENOROC FISH MANAGEMENT AREA","address":"3829 TENOROC MINE RD, LAKELAND, FL 33805","bldgnbr":"3829","predir":null,"streetname":"TENOROC MINE","streettype":"RD","suffdir":null,"city":"LAKELAND","state_code":"FL","zip5":"33805","latitude":"28.1047039200000000","longitude":"-81.868072650000000","publicwifi":"Y","url":"0","broadband_type_id":6}
{"id":null,"anchorname":"ANCHOR ACADEMY","address":"P.O. BOX 625, AUBURNDALE, FL 33823","bldgnbr":"0","predir":null,"streetname":"ADDRESS NOT AVAILABLE","streettype":"0","suffdir":null,"city":"AUBURNDALE","state_code":"FL","zip5":"33823","latitude":"28.0430308900000000","longitude":"-81.836598010000000","publicwifi":"U","url":"0","broadband_type_id":6}
{"id":null,"anchorname":"FLORIDA DEPARTMENT OF HIGHWAY SAFETY AND MOTOR VEHICLES","address":"3001 WATERFIELD CIR, LAKELAND, FL 33803","bldgnbr":"3001","predir":null,"streetname":"WATERFIELD","streettype":"CIR","suffdir":null,"city":"LAKELAND","state_code":"FL","zip5":"33803","latitude":"28.0003029400000000","longitude":"-81.898174940000000","publicwifi":"Y","url":"0","broadband_type_id":6}
{"id":null,"anchorname":"FLORIDA DEPARTMENT OF TRANSPORTATION","address":"4801 East Polk Pkwy, Lakeland, FL, 33840","bldgnbr":"4801","predir":"East","streetname":"Polk","streettype":"Pkwy","suffdir":"0","city":"Lakeland","state_code":"FL","zip5":"33840","latitude":"28.0101829300000000","longitude":"-81.862957180000000","publicwifi":"Y","url":"0","broadband_type_id":null}
{"id":null,"anchorname":"POLK COUNTY SHERIFF'S OFFICE COMMINITY POLICING - NORTH FLORIDA","address":"3223 US HWY 98 N ( STE 189), LAKELAND, FL 33805","bldgnbr":"3223","predir":null,"streetname":"US HWY 98","streettype":"0","suffdir":null,"city":"LAKELAND","state_code":"FL","zip5":"33805","latitude":"28.0827334000000000","longitude":"-81.967713100000000","publicwifi":"U","url":"0","broadband_type_id":4}
{"id":null,"anchorname":"ACE CHARTER SCHOOL","address":"710 EAST BELLA VISTA STRE, LAKELAND, FL 33805","bldgnbr":"710","predir":null,"streetname":"BELLA VISTA","streettype":"ST","suffdir":null,"city":"LAKELAND","state_code":"FL","zip5":"33805","latitude":"28.0700700700000000","longitude":"-81.950761060000000","publicwifi":"Y","url":"0","broadband_type_id":6}
{"id":null,"anchorname":"NORTH LAKELAND ELEMENTARY SCHOOL OF CHOICE","address":"410 ROBSON STREET, LAKELAND, FL 33805","bldgnbr":"410","predir":null,"streetname":"ROBSON","streettype":"ST","suffdir":null,"city":"LAKELAND","state_code":"FL","zip5":"33805","latitude":"28.0838745400000000","longitude":"-81.960398880000000","publicwifi":"Y","url":"0","broadband_type_id":6}
{"id":null,"anchorname":"SANTA FE CATHOLIC HIGH SCHOOL","address":"3110 US HWY 92 E, LAKELAND, FL 33801","bldgnbr":"3110","predir":null,"streetname":"US HWY 92","streettype":"0","suffdir":null,"city":"LAKELAND","state_code":"FL","zip5":"33801","latitude":"28.0487822200000000","longitude":"-81.899076730000000","publicwifi":"U","url":"0","broadband_type_id":6}
{"id":null,"anchorname":"SONRISE CHRISTIAN SCHOOL","address":"3151 HARDIN COMBEE ROAD, LAKELAND, FL 33801","bldgnbr":"3151","predir":null,"streetname":"HARDIN COMBEE","streettype":"RD","suffdir":null,"city":"LAKELAND","state_code":"FL","zip5":"33801","latitude":"28.0546376800000000","longitude":"-81.896659640000000","publicwifi":"U","url":"0","broadband_type_id":6}
{"id":null,"anchorname":"LAKELAND REGIONAL HEALTH SYSTEMS INC","address":"3525 LAKELAND HILLS BLVD, LAKELAND, FL, 33805","bldgnbr":"3525","predir":"0","streetname":"LAKELAND HILLS","streettype":"BLVD","suffdir":"0","city":"LAKELAND","state_code":"FL","zip5":"33805","latitude":"28.0897200000000000","longitude":"-81.953341000000000","publicwifi":"U","url":"0","broadband_type_id":3}
{"id":null,"anchorname":"LAKELAND FIRE DEPARTMENT STATION 6","address":"5050 N. STATE ROAD 33, LAKELAND, FL 33801","bldgnbr":"5050","predir":null,"streetname":"STATE HIGHWAY 33","streettype":"0","suffdir":null,"city":"LAKELAND","state_code":"FL","zip5":"33801","latitude":"28.1072077600000000","longitude":"-81.936639680000000","publicwifi":"U","url":"0","broadband_type_id":5}
{"id":null,"anchorname":"TENOROC HIGH SCHOOL","address":"4905 SADDLE CREEK ROAD, LAKELAND, FL 33801","bldgnbr":"4905","predir":null,"streetname":"SADDLE CREEK","streettype":"RD","suffdir":null,"city":"LAKELAND","state_code":"FL","zip5":"33801","latitude":"28.0716548900000000","longitude":"-81.859472190000000","publicwifi":"Y","url":"0","broadband_type_id":6}
{"id":null,"anchorname":"LENA VISTA ELEMENTARY SCHOOL","address":"925 BERKLEY ROAD, AUBURNDALE, FL 33823","bldgnbr":"925","predir":null,"streetname":"BERKLEY","streettype":"RD","suffdir":null,"city":"AUBURNDALE","state_code":"FL","zip5":"33823","latitude":"28.0702762500000000","longitude":"-81.817996100000000","publicwifi":"Y","url":"0","broadband_type_id":6}
{"id":null,"anchorname":"POLK COUNTY SHERIFF'S OFFICE COMMINITY POLICING - EATON PARK","address":"3119 IOWA RD, EATON PARK, FL 33803","bldgnbr":"3119","predir":null,"streetname":"IOWA","streettype":"RD","suffdir":null,"city":"EATON PARK","state_code":"FL","zip5":"33803","latitude":"28.0081423200000000","longitude":"-81.899491270000000","publicwifi":"U","url":"0","broadband_type_id":4}
{"id":null,"anchorname":"POLK COUNTY SHERIFF'S OFFICE COMMINITY POLICING - SKYVIEW","address":"3330 SKYVIEW DR, LAKELAND, FL 33801","bldgnbr":"3330","predir":null,"streetname":"SKYVIEW","streettype":"DR","suffdir":null,"city":"LAKELAND","state_code":"FL","zip5":"33801","latitude":"28.0260497500000000","longitude":"-81.894214410000000","publicwifi":"U","url":"0","broadband_type_id":4}
{"id":null,"anchorname":"OSCAR J. POPE ELEMENTARY SCHOOL","address":"2730 MAINE AVE, LAKELAND, FL 33801","bldgnbr":"2730","predir":null,"streetname":"MAINE","streettype":"AVE","suffdir":null,"city":"LAKELAND","state_code":"FL","zip5":"33801","latitude":"28.0122948700000000","longitude":"-81.904568080000000","publicwifi":"Y","url":"0","broadband_type_id":6}
{"id":null,"anchorname":"POLK COUNTY SHERIFF'S OFFICE COMMINITY POLICING - CRYSTAL LAKE/NORTH COMBEE","address":"2707 HWY 92 E, LAKELAND, FL 33801","bldgnbr":"2707","predir":null,"streetname":"US HWY 92","streettype":"0","suffdir":null,"city":"LAKELAND","state_code":"FL","zip5":"33801","latitude":"28.0477670100000000","longitude":"-81.907217810000000","publicwifi":"U","url":"0","broadband_type_id":4}
{"id":null,"anchorname":"POLK COUNTY SHERIFF'S OFFICE COMMINITY POLICING - SUNSHINE","address":"1234 REYNOLDS RD, LAKELAND, FL 33801","bldgnbr":"1234","predir":null,"streetname":"REYNOLDS","streettype":"RD","suffdir":null,"city":"LAKELAND","state_code":"FL","zip5":"33801","latitude":"28.0282761300000000","longitude":"-81.891321700000000","publicwifi":"U","url":"0","broadband_type_id":4}
{"id":null,"anchorname":"SOUTHEASTERN UNIVERSITY","address":"4514 US HIGHWAY 92 E, LAKELAND, FL 33801","bldgnbr":"4514","predir":null,"streetname":"US HWY 92","streettype":"0","suffdir":null,"city":"LAKELAND","state_code":"FL","zip5":"33801","latitude":"28.0479482800000000","longitude":"-81.867561010000000","publicwifi":"U","url":"0","broadband_type_id":6}
{"id":null,"anchorname":"POLK COUNTY SHERIFF'S OFFICE COMMINITY POLICING - KVILLE","address":"1339 PAYNE ST, AUBURNDALE, FL 33823","bldgnbr":"1339","predir":null,"streetname":"PAYNE","streettype":"ST","suffdir":null,"city":"AUBURNDALE","state_code":"FL","zip5":"33823","latitude":"28.0453000100000000","longitude":"-81.847097750000000","publicwifi":"U","url":"0","broadband_type_id":4}
{"id":null,"anchorname":"CRYSTAL LAKE ELEMENTARY SCHOOL","address":"700 GALVIN DRIVE, LAKELAND, FL 33801","bldgnbr":"700","predir":null,"streetname":"GALVIN","streettype":"DR","suffdir":null,"city":"LAKELAND","state_code":"FL","zip5":"33801","latitude":"28.0347145900000000","longitude":"-81.912576990000000","publicwifi":"Y","url":"0","broadband_type_id":6}
{"id":null,"anchorname":"SOUTHEASTERN UNIVERSITY","address":"1000 LONGFELLOW BLVD, LAKELAND, FL 33801","bldgnbr":"1000","predir":null,"streetname":"LONGFELLOW","streettype":"BLVD","suffdir":null,"city":"LAKELAND","state_code":"FL","zip5":"33801","latitude":"28.0298199800000000","longitude":"-81.918125350000000","publicwifi":"U","url":"0","broadband_type_id":6}
{"id":null,"anchorname":"SOUTHEASTERN UNIVERSITY - STEELMAN LIBRARY/SOUTHEASTERN UNIVERSITY","address":"1000 LONGFELLOW BLVD, LAKELAND, FL 33801","bldgnbr":"1000","predir":null,"streetname":"LONGFELLOW","streettype":"BLVD","suffdir":null,"city":"LAKELAND","state_code":"FL","zip5":"33801","latitude":"28.0297241400000000","longitude":"-81.918355210000000","publicwifi":"U","url":"0","broadband_type_id":6}
{"id":null,"anchorname":"LAKELAND B.E.S.T. PROGRAM AND AGENCY COMM. TREATMENT SERVICE","address":"900 LOWERY AVE, LAKELAND, FL 33801","bldgnbr":"900","predir":null,"streetname":"LOWERY","streettype":"AVE","suffdir":null,"city":"LAKELAND","state_code":"FL","zip5":"33801","latitude":"28.0320893400000000","longitude":"-81.911133580000000","publicwifi":"Y","url":"0","broadband_type_id":null}
{"id":null,"anchorname":"Co Wkfc - Rural Resort Region - Leadville","address":"115 West 6th Street Leadville Co 80461","bldgnbr":"115","predir":"West","streetname":"6th","streettype":"Street","suffdir":null,"city":"Leadville","state_code":"CO","zip5":"80461","latitude":"39.2487164010000000","longitude":"-106.29223747100000","publicwifi":"N","url":null,"broadband_type_id":6}
{"id":null,"anchorname":"La Plata County Road \u0026 Bridge - Ignacio Shop","address":"181 County Road 319 Ignacio Co 81137","bldgnbr":"181","predir":null,"streetname":"319","streettype":null,"suffdir":null,"city":"Ignacio","state_code":"CO","zip5":"81137","latitude":"37.0953165070000000","longitude":"-107.64670742600000","publicwifi":"N","url":null,"broadband_type_id":1}
{"id":null,"anchorname":"Colorado State Patrol - District 5 Headquarters Troop 5A","address":"20591 US Highway 160 Durango Co 81301","bldgnbr":"20591","predir":null,"streetname":"160","streettype":null,"suffdir":null,"city":"Durango","state_code":"CO","zip5":"81301","latitude":"37.2698297160000000","longitude":"-107.91115494800000","publicwifi":"N","url":null,"broadband_type_id":4}
{"id":null,"anchorname":"HIGHLANDS CHRISTIAN ACADEMY","address":"4210 LAKELAND HIGHLANDS ROAD, LAKELAND, FL 33813","bldgnbr":"4210","predir":null,"streetname":"LAKELAND HIGHLANDS","streettype":"RD","suffdir":null,"city":"LAKELAND","state_code":"FL","zip5":"33813","latitude":"27.9892958200000000","longitude":"-81.922745330000000","publicwifi":"U","url":"0","broadband_type_id":6}
{"id":null,"anchorname":"PROFESSIONAL HEALING SERVICES LLC","address":"5130 S FLORIDA AVE, LAKELAND, FL, 33813","bldgnbr":"5130","predir":"S","streetname":"FLORIDA","streettype":"AVE","suffdir":"0","city":"LAKELAND","state_code":"FL","zip5":"33813","latitude":"27.9726480000000000","longitude":"-81.961385000000000","publicwifi":"U","url":"0","broadband_type_id":6}
{"id":null,"anchorname":"VERITAS PREPARATORY ACADEMY","address":"2131 E LINCOLN DR PHOENIX AZ 85016","bldgnbr":"2131","predir":"E","streetname":"LINCOLN","streettype":"DR","suffdir":null,"city":"PHOENIX","state_code":"AZ","zip5":"85016","latitude":"33.5382990000000000","longitude":"-112.03602000000000","publicwifi":"U","url":null,"broadband_type_id":6}
{"id":null,"anchorname":"FLORIDA DEPARTMENT OF AGRICULTURE AND CONSUMER SERVICES","address":"5745 S FLORIDA AVE, LAKELAND, FL 33813","bldgnbr":"5745","predir":null,"streetname":"FLORIDA","streettype":"AVE","suffdir":null,"city":"LAKELAND","state_code":"FL","zip5":"33813","latitude":"27.9625022500000000","longitude":"-81.966251770000000","publicwifi":"Y","url":"0","broadband_type_id":6}
{"id":null,"anchorname":"PROSTATE SOLUTIONS OF ARIZONA","address":"2525 E ARIZONA BILTMORE CIRCLE PHOENIX AZ 85016","bldgnbr":"2525","predir":"E","streetname":"ARIZONA BILTMORE","streettype":"CIRCLE","suffdir":null,"city":"PHOENIX","state_code":"AZ","zip5":"85016","latitude":"33.5252530000000000","longitude":"-112.02490800000000","publicwifi":"U","url":null,"broadband_type_id":1}
{"id":null,"anchorname":"ACS/BILL DUNCAN OPPORTUNITY CENTER","address":"3333 WINTER LAKE ROAD, LAKELAND, FL 33812","bldgnbr":"3333","predir":null,"streetname":"WINTER LAKE","streettype":"RD","suffdir":null,"city":"LAKELAND","state_code":"FL","zip5":"33812","latitude":"27.9960863200000000","longitude":"-81.891974270000000","publicwifi":"Y","url":"0","broadband_type_id":null}
{"id":null,"anchorname":"ARIZONA DEPARTMENT OF ECONOMIC SECURITY","address":"22 E MITCHELL DR PHOENIX AZ 85012","bldgnbr":"22","predir":"E","streetname":"MITCHELL","streettype":"DR","suffdir":null,"city":"PHOENIX","state_code":"AZ","zip5":"85012","latitude":"33.4887170000000000","longitude":"-112.07243200000000","publicwifi":"U","url":null,"broadband_type_id":1}
{"id":null,"anchorname":"HAWTHORNE INN LAKELAND","address":"6150 LAKELAND HIGHLANDS ROAD, LAKELAND, FL, 33813","bldgnbr":"6150","predir":"0","streetname":"LAKELAND HIGHLANDS","streettype":"ROAD","suffdir":"0","city":"LAKELAND","state_code":"FL","zip5":"33813","latitude":"27.9541490000000000","longitude":"-81.923536000000000","publicwifi":"U","url":"0","broadband_type_id":null}
{"id":null,"anchorname":"ULTRA IMAGING OF TAMPA LLC","address":"2946 LAKELAND HIGHLANDS RD, LAKELAND, FL, 33803","bldgnbr":"2946","predir":"0","streetname":"LAKELAND HIGHLANDS","streettype":"RD","suffdir":"0","city":"LAKELAND","state_code":"FL","zip5":"33803","latitude":"28.0095750000000000","longitude":"-81.924229000000000","publicwifi":"U","url":"0","broadband_type_id":null}
{"id":null,"anchorname":"FLORIDA DEPARTMENT OF TRANSPORTATION","address":"3520 US HIGHWAY 98 S, LAKELAND, FL 33803","bldgnbr":"3520","predir":null,"streetname":"US HWY 98","streettype":"0","suffdir":null,"city":"LAKELAND","state_code":"FL","zip5":"33803","latitude":"28.0035768000000000","longitude":"-81.903721470000000","publicwifi":"Y","url":"0","broadband_type_id":null}
{"id":null,"anchorname":"FLORIDA DEPARTMENT OF CORRECTIONS LAKELAND SOUTH PROBATION AND PAROLE","address":"3939 US HIGHWAY 98 S, LAKELAND, FL 33812","bldgnbr":"3939","predir":null,"streetname":"US HWY 98","streettype":"0","suffdir":null,"city":"LAKELAND","state_code":"FL","zip5":"33812","latitude":"27.9937446800000000","longitude":"-81.897503720000000","publicwifi":"Y","url":"0","broadband_type_id":null}
{"id":null,"anchorname":"NEW HORIZONS AND LEVEL 6 DELIQUENT - BRADLEY MANOR","address":"6980 S STATE RD 37, LAKELAND, FL 33813","bldgnbr":"6980","predir":null,"streetname":"STATE HIGHWAY 37","streettype":"0","suffdir":null,"city":"LAKELAND","state_code":"FL","zip5":"33813","latitude":"27.9377740700000000","longitude":"-81.973989120000000","publicwifi":"Y","url":"0","broadband_type_id":null}
{"id":null,"anchorname":"TOTAL REHAB, INC","address":"4406 S FLORIDA AVE, LAKELAND, FL, 33813","bldgnbr":"4406","predir":"S","streetname":"FLORIDA","streettype":"AVE","suffdir":"0","city":"LAKELAND","state_code":"FL","zip5":"33813","latitude":"27.9853130000000000","longitude":"-81.956679000000000","publicwifi":"U","url":"0","broadband_type_id":null}
{"id":null,"anchorname":"SIMPLY WOMEN PL","address":"619 MIDFLORIDA DR, LAKELAND, FL, 33813","bldgnbr":"619","predir":"0","streetname":"MIDFLORIDA","streettype":"DR","suffdir":"0","city":"LAKELAND","state_code":"FL","zip5":"33813","latitude":"27.9569550000000000","longitude":"-81.965238000000000","publicwifi":"U","url":"0","broadband_type_id":null}
{"id":null,"anchorname":"CRYSTAL LAKE FIRE DEPARTMENT STATION 7","address":"2450 EAST MAIN STREET, LAKELAND, FL 33801","bldgnbr":"2450","predir":null,"streetname":"MAIN","streettype":"ST","suffdir":null,"city":"LAKELAND","state_code":"FL","zip5":"33801","latitude":"28.0443833800000000","longitude":"-81.910988120000000","publicwifi":"U","url":"0","broadband_type_id":5}
{"id":null,"anchorname":"SCOTT LAKE ELEMENTARY SCHOOL","address":"1140 E COUNTY ROAD 540A, LAKELAND, FL 33813","bldgnbr":"1140","predir":null,"streetname":"COUNTY ROAD 540A","streettype":"0","suffdir":null,"city":"LAKELAND","state_code":"FL","zip5":"33813","latitude":"27.9537019100000000","longitude":"-81.944807940000000","publicwifi":"Y","url":"0","broadband_type_id":6}
{"id":null,"anchorname":"HIGHLAND CITY ELEMENTARY SCHOOL","address":"5355 SE 9TH ST, LAKELAND, FL 33812","bldgnbr":"5355","predir":null,"streetname":"9TH","streettype":"ST","suffdir":null,"city":"LAKELAND","state_code":"FL","zip5":"33812","latitude":"27.9649763500000000","longitude":"-81.885775210000000","publicwifi":"Y","url":"0","broadband_type_id":6}
{"id":null,"anchorname":"POLK STATE COLLEGE - LAKELAND CAMPUS","address":"3425 WINTER LAKE ROAD, LAKELAND, FL 33803","bldgnbr":"3425","predir":null,"streetname":"WINTER LAKE","streettype":"RD","suffdir":null,"city":"LAKELAND","state_code":"FL","zip5":"33803","latitude":"27.9904334300000000","longitude":"-81.888989380000000","publicwifi":"U","url":"0","broadband_type_id":6}
{"id":null,"anchorname":"UNIVERSITY OF SOUTH FLORIDA","address":"4130 - 4136 S. US HIGHWAY 98, LAKELAND, FL 33812","bldgnbr":"4130","predir":null,"streetname":"US HWY 98","streettype":"0","suffdir":null,"city":"LAKELAND","state_code":"FL","zip5":"33812","latitude":"27.9891761000000000","longitude":"-81.889225860000000","publicwifi":"U","url":"0","broadband_type_id":6}
{"id":null,"anchorname":"MAYNARD E. TRAVISS CAREER CENTER","address":"3225 WINTER LAKE ROAD, LAKELAND, FL 33812","bldgnbr":"3225","predir":null,"streetname":"WINTER LAKE","streettype":"RD","suffdir":null,"city":"LAKELAND","state_code":"FL","zip5":"33812","latitude":"27.9961469900000000","longitude":"-81.894250310000000","publicwifi":"Y","url":"0","broadband_type_id":3}
{"id":null,"anchorname":"UNIVERSITY OF SOUTH FLORIDA - LAKELAND","address":"3433 WINTER LAKE RD, LAKELAND, FL 33803","bldgnbr":"3433","predir":null,"streetname":"WINTER LAKE","streettype":"RD","suffdir":null,"city":"LAKELAND","state_code":"FL","zip5":"33803","latitude":"27.9903143400000000","longitude":"-81.889591470000000","publicwifi":"U","url":"0","broadband_type_id":6}
{"id":null,"anchorname":"UNIVERSITY OF SOUTH FLORIDA POLYTECHNIC LIBRARY","address":"3433 WINTER LAKE RD, LAKELAND, FL 33803","bldgnbr":"3433","predir":null,"streetname":"WINTER LAKE","streettype":"RD","suffdir":null,"city":"LAKELAND","state_code":"FL","zip5":"33803","latitude":"27.9889465700000000","longitude":"-81.888920210000000","publicwifi":"U","url":"0","broadband_type_id":6}
{"id":null,"anchorname":"HIGHLAND CITY FIRE DEPARTMENT STATION 13","address":"4101 CLUBHOUSE ROAD, HIGHLAND CITY, FL 33846","bldgnbr":"4101","predir":null,"streetname":"CLUBHOUSE","streettype":"RD","suffdir":null,"city":"HIGHLAND CITY","state_code":"FL","zip5":"33846","latitude":"27.9683152300000000","longitude":"-81.882406490000000","publicwifi":"U","url":"0","broadband_type_id":5}
{"id":null,"anchorname":"VALLEYVIEW ELEMENTARY SCHOOL","address":"2900 E COUNTY ROAD 540-A, LAKELAND, FL 33812","bldgnbr":"2900","predir":null,"streetname":"COUNTY ROAD 540 A","streettype":"0","suffdir":null,"city":"LAKELAND","state_code":"FL","zip5":"33812","latitude":"27.9537856100000000","longitude":"-81.908226850000000","publicwifi":"Y","url":"0","broadband_type_id":6}
{"id":null,"anchorname":"CYNERGY URGENT CARE, LLC","address":"4692 EXPLORATION AVE, LAKELAND, FL, 33812","bldgnbr":"4692","predir":"0","streetname":"EXPLORATION","streettype":"AVE","suffdir":"0","city":"LAKELAND","state_code":"FL","zip5":"33812","latitude":"27.9806580000000000","longitude":"-81.891989000000000","publicwifi":"U","url":"0","broadband_type_id":3}
{"id":null,"anchorname":"HIGHLANDS GROVE ELEMENTARY SCHOOL","address":"4510 LAKELAND HIGHLANDS RD, LAKELAND, FL 33813","bldgnbr":"4510","predir":null,"streetname":"LAKELAND HIGHLANDS","streettype":"RD","suffdir":null,"city":"LAKELAND","state_code":"FL","zip5":"33813","latitude":"27.9831382800000000","longitude":"-81.922689130000000","publicwifi":"Y","url":"0","broadband_type_id":6}
{"id":null,"anchorname":"LAKELAND HIGHLANDS MIDDLE SCHOOL","address":"740 LAKE MIRIAM DRIVE, LAKELAND, FL 33813","bldgnbr":"740","predir":null,"streetname":"LAKE MIRIAM","streettype":"DR","suffdir":null,"city":"LAKELAND","state_code":"FL","zip5":"33813","latitude":"27.9756241100000000","longitude":"-81.951439140000000","publicwifi":"Y","url":"0","broadband_type_id":6}
{"id":null,"anchorname":"ELIBRARY---SOUTH LAKELAND","address":"4740 S FLORIDA AVE, LAKELAND, FL 33813","bldgnbr":"4740","predir":null,"streetname":"FLORIDA","streettype":"AVE","suffdir":null,"city":"LAKELAND","state_code":"FL","zip5":"33813","latitude":"27.9794629800000000","longitude":"-81.957369870000000","publicwifi":"Y","url":"0","broadband_type_id":6}
{"id":null,"anchorname":"VA MEDICAL CENTER","address":"5416 ORANGE VALLEY DR, LAKELAND, FL, 33813","bldgnbr":"5416","predir":"0","streetname":"ORANGE VALLEY","streettype":"DR","suffdir":"0","city":"LAKELAND","state_code":"FL","zip5":"33813","latitude":"27.9667950000000000","longitude":"-81.953049000000000","publicwifi":"U","url":"0","broadband_type_id":3}
{"id":null,"anchorname":"PREMIER WALK IN CLINIC \u0026 PRIMARY CARE","address":"5676 S FLORIDA AVE, LAKELAND, FL, 33813","bldgnbr":"5676","predir":"S","streetname":"FLORIDA","streettype":"AVE","suffdir":"0","city":"LAKELAND","state_code":"FL","zip5":"33813","latitude":"27.9634610000000000","longitude":"-81.965735000000000","publicwifi":"U","url":"0","broadband_type_id":3}
{"id":null,"anchorname":"SAINT PAUL LUTHERAN SCHOOL","address":"4450 HARDEN BLVD, LAKELAND, FL 33813","bldgnbr":"4450","predir":null,"streetname":"HARDEN","streettype":"BLVD","suffdir":null,"city":"LAKELAND","state_code":"FL","zip5":"33813","latitude":"27.9847217100000000","longitude":"-81.971516900000000","publicwifi":"U","url":"0","broadband_type_id":6}
{"id":null,"anchorname":"FLORIDA DEPARTMENT OF JUVENILE JUSTICE","address":"5979 S FLORIDA AVE, LAKELAND, FL 33813","bldgnbr":"5979","predir":null,"streetname":"FLORIDA","streettype":"AVE","suffdir":null,"city":"LAKELAND","state_code":"FL","zip5":"33813","latitude":"27.9594308800000000","longitude":"-81.966873820000000","publicwifi":"Y","url":"0","broadband_type_id":null}
{"id":null,"anchorname":"Pine River Community Learning","address":"535 Candelaria Street Ignacio Co 81137","bldgnbr":"535","predir":null,"streetname":"Candelaria","streettype":"Street","suffdir":null,"city":"Ignacio","state_code":"CO","zip5":"81137","latitude":"37.1226118750000000","longitude":"-107.64047722400000","publicwifi":"N","url":null,"broadband_type_id":6}
{"id":null,"anchorname":"STATE OF FLORIDA DIVISION OF ADMINISTRATIVE HEARINGS","address":"5015 S FLORIDA AVE, LAKELAND, FL 33813","bldgnbr":"5015","predir":null,"streetname":"FLORIDA","streettype":"AVE","suffdir":null,"city":"LAKELAND","state_code":"FL","zip5":"33813","latitude":"27.9746012100000000","longitude":"-81.960545120000000","publicwifi":"Y","url":"0","broadband_type_id":6}
{"id":null,"anchorname":"ARIZONA DEPARTMENT OF ECONOMIC SECURITY","address":"1990 W CAMELBACK RD PHOENIX AZ 85015","bldgnbr":"1990","predir":"W","streetname":"CAMELBACK","streettype":"RD","suffdir":null,"city":"PHOENIX","state_code":"AZ","zip5":"85015","latitude":"33.5096280000000000","longitude":"-112.10219600000000","publicwifi":"U","url":null,"broadband_type_id":1}
{"id":null,"anchorname":"FDLE SUBSTATION: LAKELAND FIELD OFFICE","address":"5015 SOUTH FLORIDA AVENUE, LAKELAND, FL 33813","bldgnbr":"5015","predir":null,"streetname":"FLORIDA","streettype":"AVE","suffdir":null,"city":"LAKELAND","state_code":"FL","zip5":"33813","latitude":"27.9743831100000000","longitude":"-81.960595610000000","publicwifi":"U","url":"0","broadband_type_id":null}
{"id":null,"anchorname":"ARIZONA DEPARTMENT OF ECONOMIC SECURITY - EMPLOYME","address":"3406 N 51ST AVE PHOENIX AZ 85031","bldgnbr":"3406","predir":"N","streetname":"51ST","streettype":"AVE","suffdir":null,"city":"PHOENIX","state_code":"AZ","zip5":"85031","latitude":"33.4885300000000000","longitude":"-112.16894500000000","publicwifi":"U","url":null,"broadband_type_id":1}
{"id":null,"anchorname":"TAMPA VAMC","address":"4237 SOUTH PIPKIN RD, LAKELAND, FL, 33811","bldgnbr":"4237","predir":"SOUTH","streetname":"PIPKIN","streettype":"RD","suffdir":"0","city":"LAKELAND","state_code":"FL","zip5":"33811","latitude":"27.9874040000000000","longitude":"-81.995382000000000","publicwifi":"U","url":"0","broadband_type_id":null}
{"id":null,"anchorname":"FLORIDA FISH AND WILDLIFE CONSERVATION COMMISSION SOUTHWEST REGIONAL OFFICE","address":"3900 DRANE FIELD RD, LAKELAND, FL 33811","bldgnbr":"3900","predir":null,"streetname":"DRANE FIELD","streettype":"RD","suffdir":null,"city":"LAKELAND","state_code":"FL","zip5":"33811","latitude":"27.9965965400000000","longitude":"-82.024861470000000","publicwifi":"Y","url":"0","broadband_type_id":6}
{"id":null,"anchorname":"VICTORY CHRISTIAN ACADEMY","address":"1401 GRIFFIN RD, LAKELAND, FL 33810","bldgnbr":"1401","predir":null,"streetname":"GRIFFIN","streettype":"RD","suffdir":null,"city":"LAKELAND","state_code":"FL","zip5":"33810","latitude":"28.0830370100000000","longitude":"-81.976894160000000","publicwifi":"U","url":"0","broadband_type_id":6}
{"id":null,"anchorname":"FLORIDA DEPARTMENT OF MILITARY AFFAIRS","address":"4140 DRANE FIELD RD, LAKELAND, FL 33811","bldgnbr":"4140","predir":null,"streetname":"DRANE FIELD","streettype":"RD","suffdir":null,"city":"LAKELAND","state_code":"FL","zip5":"33811","latitude":"27.9965839300000000","longitude":"-82.028972050000000","publicwifi":"Y","url":"0","broadband_type_id":null}
{"id":null,"anchorname":"EXCEL CHRISTIAN ACADEMY","address":"6505 ODOM ROAD, LAKELAND, FL 33809","bldgnbr":"6505","predir":null,"streetname":"ODOM","streettype":"RD","suffdir":null,"city":"LAKELAND","state_code":"FL","zip5":"33809","latitude":"28.1261424100000000","longitude":"-81.950008700000000","publicwifi":"U","url":"0","broadband_type_id":6}
{"id":null,"anchorname":"EDGAR L PADGETT ELEMENTARY","address":"110 LEELON ROAD, LAKELAND, FL 33809","bldgnbr":"110","predir":null,"streetname":"LEELON","streettype":"RD","suffdir":null,"city":"LAKELAND","state_code":"FL","zip5":"33809","latitude":"28.1215348200000000","longitude":"-81.955641630000000","publicwifi":"Y","url":"0","broadband_type_id":6}
{"id":null,"anchorname":"SPINE INSTITUTE OF CENTRAL FLORIDA","address":"1301 GRASSLANDS BLVD, LAKELAND, FL, 33803","bldgnbr":"1301","predir":"0","streetname":"GRASSLANDS","streettype":"BLVD","suffdir":"0","city":"LAKELAND","state_code":"FL","zip5":"33803","latitude":"28.0115620000000000","longitude":"-81.975931000000000","publicwifi":"U","url":"0","broadband_type_id":null}
{"id":null,"anchorname":"LAKELAND BRANCH LIBRARY - KEISER UNIVERSITY LIBRARIES","address":"3515 AVIATION DR, LAKELAND, FL 33811","bldgnbr":"3515","predir":null,"streetname":"AVIATION","streettype":"DR","suffdir":null,"city":"LAKELAND","state_code":"FL","zip5":"33811","latitude":"27.9779089200000000","longitude":"-82.016483770000000","publicwifi":"U","url":"0","broadband_type_id":6}
{"id":null,"anchorname":"EMBRY-RIDDLE AERONAUTICAL UNIVERSITY","address":"4175 MEDULLA RD, LAKELAND, FL 33811","bldgnbr":"4175","predir":null,"streetname":"MEDULLA","streettype":"RD","suffdir":null,"city":"LAKELAND","state_code":"FL","zip5":"33811","latitude":"27.9825769300000000","longitude":"-82.027537630000000","publicwifi":"U","url":"0","broadband_type_id":6}
{"id":null,"anchorname":"BAYCARE HOME CARE INC","address":"4040 KIDRON RD STE 1, LAKELAND, FL, 33811","bldgnbr":"4040","predir":"0","streetname":"KIDRON","streettype":"RD","suffdir":"STE 1","city":"LAKELAND","state_code":"FL","zip5":"33811","latitude":"27.9939810000000000","longitude":"-82.030880000000000","publicwifi":"U","url":"0","broadband_type_id":3}
{"id":null,"anchorname":"R BRUCE WAGNER ELEMENTARY SCHOOL","address":"5500 YATES ROAD, LAKELAND, FL 33811","bldgnbr":"5500","predir":null,"streetname":"YATES","streettype":"RD","suffdir":null,"city":"LAKELAND","state_code":"FL","zip5":"33811","latitude":"27.9662641400000000","longitude":"-82.011126020000000","publicwifi":"Y","url":"0","broadband_type_id":6}
{"id":null,"anchorname":"MEDULLA FIRE DEPARTMENT STATION 2","address":"4525 EWELL ROAD, LAKELAND, FL 33811","bldgnbr":"4525","predir":null,"streetname":"EWELL","streettype":"RD","suffdir":null,"city":"LAKELAND","state_code":"FL","zip5":"33811","latitude":"27.9528078400000000","longitude":"-82.035673420000000","publicwifi":"U","url":"0","broadband_type_id":5}
{"id":null,"anchorname":"JAMES W SIKES ELEMENTARY SCHOOL","address":"2727 SHEPHEROAD ROAD, LAKELAND, FL 33811","bldgnbr":"2727","predir":null,"streetname":"SHEPHEROAD","streettype":"RD","suffdir":null,"city":"LAKELAND","state_code":"FL","zip5":"33811","latitude":"27.9396342900000000","longitude":"-82.000044290000000","publicwifi":"Y","url":"0","broadband_type_id":6}
{"id":null,"anchorname":"MEDULLA FIRE DEPARTMENT STATION 1","address":"5115 OLD HIGHWAY 37, LAKELAND, FL 33813","bldgnbr":"5115","predir":null,"streetname":"OLD HIGHWAY 37","streettype":"0","suffdir":null,"city":"LAKELAND","state_code":"FL","zip5":"33813","latitude":"27.9724397800000000","longitude":"-81.973473880000000","publicwifi":"U","url":"0","broadband_type_id":5}
{"id":null,"anchorname":"WINSTON ELEMENTARY SCHOOL","address":"3415 SWINDELL ROAD, LAKELAND, FL 33810","bldgnbr":"3415","predir":null,"streetname":"SWINDELL","streettype":"RD","suffdir":null,"city":"LAKELAND","state_code":"FL","zip5":"33810","latitude":"28.0554366800000000","longitude":"-82.013885680000000","publicwifi":"Y","url":"0","broadband_type_id":6}
{"id":null,"anchorname":"POLK COUNTY SHERIFF'S OFFICE COMMINITY POLICING - WABASH","address":"2128 AZALEA COURT, LAKELAND, FL 33815","bldgnbr":"2128","predir":null,"streetname":"AZALEA","streettype":"CT","suffdir":null,"city":"LAKELAND","state_code":"FL","zip5":"33815","latitude":"28.0448354000000000","longitude":"-81.990638380000000","publicwifi":"U","url":"0","broadband_type_id":4}
{"id":null,"anchorname":"POLK COUNTY SHERIFF'S OFFICE COMMINITY POLICING - ELIZABETH","address":"2130 ELIZABETH ST, LAKELAND, FL 33815","bldgnbr":"2130","predir":null,"streetname":"ELIZABETH","streettype":"ST","suffdir":null,"city":"LAKELAND","state_code":"FL","zip5":"33815","latitude":"28.0373941100000000","longitude":"-81.990251030000000","publicwifi":"U","url":"0","broadband_type_id":4}
{"id":null,"anchorname":"DR NE ROBERTS ELEMENTARY SCHOOL","address":"6600 GREEN ROAD, LAKELAND, FL 33810","bldgnbr":"6600","predir":null,"streetname":"GREEN","streettype":"RD","suffdir":null,"city":"LAKELAND","state_code":"FL","zip5":"33810","latitude":"28.1268189500000000","longitude":"-81.986869980000000","publicwifi":"Y","url":"0","broadband_type_id":6}
{"id":null,"anchorname":"KATHLEEN ELEMENTARY SCHOOL","address":"3515 SHERETZ ROAD, LAKELAND, FL 33810","bldgnbr":"3515","predir":null,"streetname":"SHERETZ","streettype":"RD","suffdir":null,"city":"LAKELAND","state_code":"FL","zip5":"33810","latitude":"28.1274390600000000","longitude":"-82.018208720000000","publicwifi":"Y","url":"0","broadband_type_id":6}
{"id":null,"anchorname":"KATHLEEN MIDDLE SCHOOL","address":"3627 KATHLEEN PINES, LAKELAND, FL 33810","bldgnbr":"3627","predir":null,"streetname":"KATHLEEN","streettype":"PINE","suffdir":null,"city":"LAKELAND","state_code":"FL","zip5":"33810","latitude":"28.1246798500000000","longitude":"-82.019651190000000","publicwifi":"Y","url":"0","broadband_type_id":6}
{"id":null,"anchorname":"SLEEPY HILL FIRE DEPARTMENT STATION 24","address":"3030 SLEEPY HILL ROAD, LAKELAND, FL 33809","bldgnbr":"3030","predir":null,"streetname":"SLEEPY HILL","streettype":"RD","suffdir":null,"city":"LAKELAND","state_code":"FL","zip5":"33809","latitude":"28.0913539900000000","longitude":"-82.008427560000000","publicwifi":"U","url":"0","broadband_type_id":5}
{"id":null,"anchorname":"SLEEPY HILL MIDDLE SCHOOL","address":"2215 SLEEPY HILL ROAD, LAKELAND, FL 33810","bldgnbr":"2215","predir":null,"streetname":"SLEEPY HILL","streettype":"RD","suffdir":null,"city":"LAKELAND","state_code":"FL","zip5":"33810","latitude":"28.0923499400000000","longitude":"-81.992567910000000","publicwifi":"Y","url":"0","broadband_type_id":6}
{"id":null,"anchorname":"SLEEPY HILL ELEMENTARY SCHOOL","address":"2285 SLEEPY HILL RD, LAKELAND, FL 33810","bldgnbr":"2285","predir":null,"streetname":"SLEEPY HILL","streettype":"RD","suffdir":null,"city":"LAKELAND","state_code":"FL","zip5":"33810","latitude":"28.0941415800000000","longitude":"-81.995392420000000","publicwifi":"Y","url":"0","broadband_type_id":6}
{"id":null,"anchorname":"R CLEM CHURCHWELL ELEMENTARY SCHOOL","address":"8201 PARK BYRD ROAD, LAKELAND, FL 33810","bldgnbr":"8201","predir":null,"streetname":"PARK BYRD","streettype":"RD","suffdir":null,"city":"LAKELAND","state_code":"FL","zip5":"33810","latitude":"28.1489821900000000","longitude":"-81.988923420000000","publicwifi":"Y","url":"0","broadband_type_id":6}
{"id":null,"anchorname":"PROVIDENCE FIRE DEPARTMENT STATION 23","address":"8936 HIGHWAY 98 NORTH, LAKELAND, FL 33809","bldgnbr":"8936","predir":null,"streetname":"US HWY 98","streettype":"0","suffdir":null,"city":"LAKELAND","state_code":"FL","zip5":"33809","latitude":"28.1623640600000000","longitude":"-81.974432010000000","publicwifi":"U","url":"0","broadband_type_id":5}
{"id":null,"anchorname":"SOCRUM ELEMENTARY SCHOOL","address":"9400 OLD DADE CITY ROAD, LAKELAND, FL 33810","bldgnbr":"9400","predir":null,"streetname":"OLD DADE CITY","streettype":"RD","suffdir":null,"city":"LAKELAND","state_code":"FL","zip5":"33810","latitude":"28.1704370400000000","longitude":"-82.015646530000000","publicwifi":"Y","url":"0","broadband_type_id":6}
{"id":null,"anchorname":"SAINT ANTHONY CATHOLIC SCHOOL","address":"820 MARCUM ROAD, LAKELAND, FL 33809","bldgnbr":"820","predir":null,"streetname":"MARCUM","streettype":"RD","suffdir":null,"city":"LAKELAND","state_code":"FL","zip5":"33809","latitude":"28.1270182100000000","longitude":"-81.971153950000000","publicwifi":"U","url":"0","broadband_type_id":6}
{"id":null,"anchorname":"POLK COUNTY SHERIFF'S OFFICE - NW DISTRICT","address":"1045 WEDGEWOOD ESTATES BLVD., LAKELAND, FL 33809","bldgnbr":"1045","predir":null,"streetname":"WEDGEWOOD ESTATES","streettype":"BLVD","suffdir":null,"city":"LAKELAND","state_code":"FL","zip5":"33809","latitude":"28.0970276800000000","longitude":"-81.972499200000000","publicwifi":"U","url":"0","broadband_type_id":4}
{"id":null,"anchorname":"POLK COUNTY SHERIFF'S OFFICE - SW DISTRICT","address":"4120 U.S. HIGHWAY 98 S., LAKELAND, FL 33801","bldgnbr":"4120","predir":null,"streetname":"US HWY 98","streettype":"0","suffdir":null,"city":"LAKELAND","state_code":"FL","zip5":"33801","latitude":"28.0947222600000000","longitude":"-81.973882710000000","publicwifi":"U","url":"0","broadband_type_id":4}
{"id":null,"anchorname":"Ft. Lewis Mesa Elementary","address":"11274 Highway 140 Hesperus Co 81326","bldgnbr":"11274","predir":null,"streetname":"140","streettype":null,"suffdir":null,"city":"Hesperus","state_code":"CO","zip5":"81326","latitude":"37.1453004850000000","longitude":"-108.12094803000000","publicwifi":"N","url":null,"broadband_type_id":6}
{"id":null,"anchorname":"Department Of Natural Resources","address":"50 Long Hollow Lane Durango Co 81301","bldgnbr":"50","predir":null,"streetname":"Long Hollow","streettype":"Lane","suffdir":null,"city":"Durango","state_code":"CO","zip5":"81301","latitude":"37.4009737800000000","longitude":"-107.83659851800000","publicwifi":"Y","url":null,"broadband_type_id":6}
{"id":null,"anchorname":"MANOR AT CARPENTERS  THE","address":"1001 CARPENTERS WAY, LAKELAND, FL, 33809","bldgnbr":"1001","predir":"0","streetname":"CARPENTERS","streettype":"WAY","suffdir":"0","city":"LAKELAND","state_code":"FL","zip5":"33809","latitude":"28.1003420000000000","longitude":"-81.969663000000000","publicwifi":"U","url":"0","broadband_type_id":null}
{"id":null,"anchorname":"Sw Board Cooperative Services","address":"20 East 12th Street Durango Co 81301","bldgnbr":"20","predir":"East","streetname":"12th","streettype":"Street","suffdir":null,"city":"Durango","state_code":"CO","zip5":"81301","latitude":"37.2765555160000000","longitude":"-107.87961887800000","publicwifi":"N","url":null,"broadband_type_id":6}
{"id":null,"anchorname":"La Plata County Humane Society","address":"1111 South Camino Del Rio Durango Co 81303","bldgnbr":"1111","predir":"South","streetname":"Camino Del Rio","streettype":null,"suffdir":null,"city":"Durango","state_code":"CO","zip5":"81303","latitude":"37.2328696320000000","longitude":"-107.86728359200000","publicwifi":"N","url":null,"broadband_type_id":1}
{"id":null,"anchorname":"RIDGEVIEW GLOBAL STUDIES ACADEMY","address":"1000 DUNSON ROAD, DAVENPORT, FL 33896","bldgnbr":"1000","predir":null,"streetname":"DUNSON","streettype":"RD","suffdir":null,"city":"DAVENPORT","state_code":"FL","zip5":"33896","latitude":"28.2461178200000000","longitude":"-81.646887220000000","publicwifi":"Y","url":"0","broadband_type_id":6}
{"id":null,"anchorname":"MATHIS  VERA RENITA","address":"331 THOMASDALE AVE, HAINES CITY, FL, 33844","bldgnbr":"331","predir":"0","streetname":"THOMASDALE","streettype":"AVE","suffdir":"0","city":"HAINES CITY","state_code":"FL","zip5":"33844","latitude":"28.1259500000000000","longitude":"-81.657988000000000","publicwifi":"U","url":"0","broadband_type_id":6}
{"id":null,"anchorname":"POLK COUNTY TAX COLLECTOR","address":"74 MAXCY PLAZA CIRCLE, HAINES CITY, FL 33844","bldgnbr":"74","predir":null,"streetname":"MAXCY PLAZA","streettype":"CIR","suffdir":null,"city":"HAINES CITY","state_code":"FL","zip5":"33844","latitude":"28.1262068500000000","longitude":"-81.641432460000000","publicwifi":"Y","url":"0","broadband_type_id":1}
{"id":null,"anchorname":"ARIZONA DEPARTMENT OF ECONOMIC SECURITY","address":"103 W HIGHLAND AVE PHOENIX AZ 85103","bldgnbr":"103","predir":"W","streetname":"HIGHLAND","streettype":"AVE","suffdir":null,"city":"PHOENIX","state_code":"AZ","zip5":"85103","latitude":"33.5056630000000000","longitude":"-112.07568100000000","publicwifi":"U","url":null,"broadband_type_id":1}
{"id":null,"anchorname":"ARIZONA DEPARTMENT OF ECONOMIC SECURITY - CHILD SU","address":"515 N 51ST AVE PHOENIX AZ 85043","bldgnbr":"515","predir":"N","streetname":"51ST","streettype":"AVE","suffdir":null,"city":"PHOENIX","state_code":"AZ","zip5":"85043","latitude":"33.4548510000000000","longitude":"-112.16910800000000","publicwifi":"U","url":null,"broadband_type_id":1}
{"id":null,"anchorname":"FLORIDA DEPARTMENT OF CORRECTIONS POLK CORRECTIONAL INSTITUTION","address":"10800 EVANS RD, POLK CITY, FL 33868","bldgnbr":"10800","predir":null,"streetname":"EVANS","streettype":"RD","suffdir":null,"city":"POLK CITY","state_code":"FL","zip5":"33868","latitude":"28.1898287600000000","longitude":"-81.778114100000000","publicwifi":"Y","url":"0","broadband_type_id":null}
{"id":null,"anchorname":"FLORIDA DEPARTMENT OF CORRECTIONS DEMILLEY CORRECTIONAL INSTITUTION","address":"10980 DEMILLY RD, POLK CITY, FL 33868","bldgnbr":"10980","predir":null,"streetname":"DEMILLEY","streettype":"RD","suffdir":null,"city":"POLK CITY","state_code":"FL","zip5":"33868","latitude":"28.1994331900000000","longitude":"-81.789258530000000","publicwifi":"Y","url":"0","broadband_type_id":null}
{"id":null,"anchorname":"DEPARTMENT OF CORRECTIONS POLK CORRECTIONAL INSTITUTION","address":"10800 Evans Rd/ Hwy 50, POLK CITY, FL, 33868","bldgnbr":"10800","predir":"0","streetname":"Evans","streettype":"Rd","suffdir":"0","city":"POLK CITY","state_code":"FL","zip5":"33868","latitude":"28.1898287600000000","longitude":"-81.778114100000000","publicwifi":"Y","url":"0","broadband_type_id":null}
{"id":null,"anchorname":"RENAL LIFE LINK INC","address":"45597 HIGHWAY 27, DAVENPORT, FL, 33897","bldgnbr":"45597","predir":"0","streetname":"HIGHWAY 27","streettype":"0","suffdir":"0","city":"DAVENPORT","state_code":"FL","zip5":"33897","latitude":"28.2551850000000000","longitude":"-81.658576000000000","publicwifi":"U","url":"0","broadband_type_id":null}
{"id":null,"anchorname":"EVANGEL CHRISTIAN SCHOOL","address":"777 CARPENTERS WAY, LAKELAND, FL 33809","bldgnbr":"777","predir":null,"streetname":"CARPENTERS","streettype":"WAY","suffdir":null,"city":"LAKELAND","state_code":"FL","zip5":"33809","latitude":"28.1003168600000000","longitude":"-81.966425090000000","publicwifi":"U","url":"0","broadband_type_id":6}
