{"id":null,"anchorname":"CUMBERLAND TOWNSHIP POLICE DEPARTMENT","address":"100 MUNICIPAL RD","bldgnbr":"100","predir":null,"streetname":"MUNICIPAL","streettype":"RD","suffdir":null,"city":"CARMICHAELS","state_code":"PA","zip5":"15320","latitude":"39.9019950010000000","longitude":"-79.966341000000000","publicwifi":"U","url":"http://www.cumberlandtwppolice.com/","broadband_type_id":4}
{"id":null,"anchorname":"FLENNIKEN PUBLIC LIBRARY","address":"102 EAST GEORGE ST","bldgnbr":"102","predir":"E","streetname":"GEORGE","streettype":"ST","suffdir":null,"city":"Carmichaels","state_code":"PA","zip5":"15320","latitude":"39.8970273620000000","longitude":"-79.975025768000000","publicwifi":"U","url":null,"broadband_type_id":6}
{"id":null,"anchorname":"Wm F AND Mary A Flenniken Public Library","address":"102 East George St.","bldgnbr":"102","predir":"E","streetname":"George","streettype":"St","suffdir":null,"city":"Carmichaels","state_code":"PA","zip5":"15320","latitude":"39.8969871510000000","longitude":"-79.975017717000000","publicwifi":"Y","url":null,"broadband_type_id":6}
{"id":null,"anchorname":"GREENE COUNTY LIBRARY SYSTEM","address":"THOMAS HUGHES HOUSE 107 HATFIELD ST,  PO BOX 274","bldgnbr":"107","predir":null,"streetname":"HATFIELD","streettype":"ST","suffdir":null,"city":"Jefferson","state_code":"PA","zip5":"15344","latitude":"39.9328430000000000","longitude":"-80.059372000000000","publicwifi":"U","url":null,"broadband_type_id":6}
{"id":null,"anchorname":"NORTHEASTERN NEVADA PHYSICIAN PRACTICES LLC","address":"2001 ERRECART BLVD ELKO, NV 89801","bldgnbr":"2001","predir":null,"streetname":"ERRECART BLVD","streettype":null,"suffdir":null,"city":"ELKO","state_code":"NV","zip5":"89801","latitude":"40.8233370000000000","longitude":"-115.73159500000000","publicwifi":"U","url":null,"broadband_type_id":6}
{"id":null,"anchorname":"GRAYSVILLE EL SCH","address":"1029 W ROY FURMAN HIGHWAY","bldgnbr":"1029","predir":"W","streetname":"ROY FURMAN","streettype":"HWY","suffdir":null,"city":"GRAYSVILLE","state_code":"PA","zip5":"15337","latitude":"39.9313184020000000","longitude":"-80.396541298000000","publicwifi":"U","url":null,"broadband_type_id":null}
{"id":null,"anchorname":"SPRINGHILL-FREEPORT EL SCH","address":"1055 DEEP VALLEY ROAD","bldgnbr":"1055","predir":null,"streetname":"DEEP VALLEY","streettype":"RD","suffdir":null,"city":"NEW FREEPORT","state_code":"PA","zip5":"15352","latitude":"39.7613268940000000","longitude":"-80.448002383000000","publicwifi":"U","url":null,"broadband_type_id":null}
{"id":null,"anchorname":"WEST GREENE MS","address":"1352 HARGUS CREEK RD","bldgnbr":"1352","predir":null,"streetname":"HARGUS CREEK","streettype":"RD","suffdir":null,"city":"WAYNESBURG","state_code":"PA","zip5":"15370","latitude":"39.8682083490000000","longitude":"-80.282273325000000","publicwifi":"U","url":null,"broadband_type_id":6}
{"id":null,"anchorname":"WAYNESBURG CENTRAL HS","address":"30 ZIMMERMAN DR","bldgnbr":"30","predir":null,"streetname":"ZIMMERMAN","streettype":"DR","suffdir":null,"city":"WAYNESBURG","state_code":"PA","zip5":"15370","latitude":"39.8953638830000000","longitude":"-80.150565421000000","publicwifi":"U","url":null,"broadband_type_id":6}
{"id":null,"anchorname":"GREENE COUNTY CTC","address":"60 ZIMMERMAN DR","bldgnbr":"60","predir":null,"streetname":"ZIMMERMAN","streettype":"DR","suffdir":null,"city":"WAYNESBURG","state_code":"PA","zip5":"15370","latitude":"39.8939187000000000","longitude":"-80.151047402000000","publicwifi":"U","url":null,"broadband_type_id":1}
{"id":null,"anchorname":"MILLER MS","address":"126 E LINCOLN ST","bldgnbr":"126","predir":"E","streetname":"LINCOLN","streettype":"ST","suffdir":null,"city":"WAYNESBURG","state_code":"PA","zip5":"15370","latitude":"39.8936631500000000","longitude":"-80.185042865000000","publicwifi":"U","url":null,"broadband_type_id":6}
{"id":null,"anchorname":"MAPLETOWN JSHS","address":"1000 MAPLETOWN RD","bldgnbr":"1000","predir":null,"streetname":"MAPLETOWN","streettype":"RD","suffdir":null,"city":"GREENSBORO","state_code":"PA","zip5":"15338","latitude":"39.8040454400000000","longitude":"-79.937711942000000","publicwifi":"U","url":"http://www.segsd.org/mhs/contact.php","broadband_type_id":6}
{"id":null,"anchorname":"JUNIATA VALLEY JSHS","address":"7775 JUNIATA VALLEY PIKE PO BOX 318","bldgnbr":"7775","predir":null,"streetname":"JUNIATA VALLEY","streettype":"PIKE","suffdir":null,"city":"ALEXANDRIA","state_code":"PA","zip5":"16611","latitude":"40.5620776940000000","longitude":"-78.078094674000000","publicwifi":"U","url":null,"broadband_type_id":6}
{"id":null,"anchorname":"HUNTINGTON CHRISTIAN ACADEMY","address":"9945 EMMANUEL DR","bldgnbr":"9945","predir":null,"streetname":"EMMANUEL","streettype":"DR","suffdir":null,"city":"HUNTINGDON","state_code":"PA","zip5":"16652","latitude":"40.4869208660000000","longitude":"-78.050178833000000","publicwifi":"U","url":null,"broadband_type_id":6}
{"id":null,"anchorname":"CALVARY CHRISTIAN ACADEMY","address":"300 STANDING STONE AVE","bldgnbr":"300","predir":null,"streetname":"STANDING STONE","streettype":"AVE","suffdir":null,"city":"HUNTINGDON","state_code":"PA","zip5":"16652","latitude":"40.4890061780000000","longitude":"-77.999005434000000","publicwifi":"U","url":null,"broadband_type_id":6}
{"id":null,"anchorname":"HUNTINGDON COUNTY CTC","address":"11893 TECHNOLOGY DR","bldgnbr":"11893","predir":null,"streetname":"Technology","streettype":"Dr","suffdir":null,"city":"MILL CREEK","state_code":"PA","zip5":"17060","latitude":"40.4341551990000000","longitude":"-77.927957553000000","publicwifi":"U","url":"http://www.hcctc.org/","broadband_type_id":1}
{"id":null,"anchorname":"BOBTOWN EL SCH","address":"304 GRANT ST","bldgnbr":"304","predir":null,"streetname":"Grant","streettype":"ST","suffdir":null,"city":"BOBTOWN","state_code":"PA","zip5":"15315","latitude":"39.7599920890000000","longitude":"-79.984995872000000","publicwifi":"U","url":"http://www.segsd.org/bes/","broadband_type_id":null}
{"id":null,"anchorname":"JUNIATA VALLEY EL SCH","address":"7855 JUNIATA VALLEY PIKE PO BOX 318","bldgnbr":"7855","predir":null,"streetname":"JUNIATA VALLEY","streettype":"PIKE","suffdir":null,"city":"ALEXANDRIA","state_code":"PA","zip5":"16611","latitude":"40.5629982130000000","longitude":"-78.075804506000000","publicwifi":"U","url":null,"broadband_type_id":null}
{"id":null,"anchorname":"STANDING STONE EL SCH","address":"10 29TH STREET","bldgnbr":"10","predir":null,"streetname":"29TH","streettype":"ST","suffdir":null,"city":"HUNTINGDON","state_code":"PA","zip5":"16652","latitude":"40.5068356600000000","longitude":"-78.012960599000000","publicwifi":"U","url":null,"broadband_type_id":null}
{"id":null,"anchorname":"THE MEADOWS PSYCHIATRIC CENTER","address":"620 WASHINGTON ST","bldgnbr":"620","predir":null,"streetname":"WASHINGTON","streettype":"ST","suffdir":null,"city":"HUNTINGDON","state_code":"PA","zip5":"16652","latitude":"40.4856113560000000","longitude":"-78.012444002000000","publicwifi":"U","url":null,"broadband_type_id":null}
{"id":null,"anchorname":"GREENE COUNTY HEALTH CENTER","address":"432 E OAKVIEW DR","bldgnbr":"432","predir":"E","streetname":"OAKVIEW","streettype":"DR","suffdir":null,"city":"WAYNESBURG","state_code":"PA","zip5":"15370","latitude":"39.8965250010000000","longitude":"-80.155940000000000","publicwifi":"U","url":"http://webserver.health.state.pa.us/health/comm/comm.asp?COUNTY=all","broadband_type_id":3}
{"id":null,"anchorname":"WAYNESBURG CENTRAL EL SCHOOL","address":"90 ZIMMERMAN DR","bldgnbr":"90","predir":null,"streetname":"ZIMMERMAN","streettype":"DR","suffdir":null,"city":"WAYNESBURG","state_code":"PA","zip5":"15370","latitude":"39.8948943760000000","longitude":"-80.148353200000000","publicwifi":"U","url":null,"broadband_type_id":6}
{"id":null,"anchorname":"SOUTHWEST REGIONAL MEDICAL CENTER","address":"350 BONAR AVENUE","bldgnbr":"350","predir":null,"streetname":"BONAR","streettype":"AVE","suffdir":null,"city":"Waynesburg","state_code":"PA","zip5":"15370","latitude":"39.9006210050000000","longitude":"-80.173195997000000","publicwifi":"U","url":null,"broadband_type_id":3}
{"id":null,"anchorname":"CENTERVILLE CLINIC INC","address":"190 BONAR AVE","bldgnbr":"190","predir":null,"streetname":"BONAR","streettype":"AVE","suffdir":null,"city":"WAYNESBURG","state_code":"PA","zip5":"15370","latitude":"39.8985625760000000","longitude":"-80.173321145000000","publicwifi":"U","url":"http://www.centervilleclinics.com/","broadband_type_id":3}
{"id":null,"anchorname":"CENTERVILLE CLINIC INC","address":"300 NORTH ST","bldgnbr":"300","predir":null,"streetname":"NORTH","streettype":"ST","suffdir":null,"city":"WAYNESBURG","state_code":"PA","zip5":"15370","latitude":"39.8967696750000000","longitude":"-80.160090634000000","publicwifi":"U","url":"http://www.centervilleclinics.com/","broadband_type_id":3}
{"id":null,"anchorname":"WAYNESBURG UNIVERSITY","address":"51 WEST COLLEGE STREET","bldgnbr":"51","predir":"W","streetname":"COLLEGE","streettype":"ST","suffdir":null,"city":"Waynesburg","state_code":"PA","zip5":"15370","latitude":"39.8991800000000000","longitude":"-80.184730555000000","publicwifi":"U","url":"www.waynesburg.edu","broadband_type_id":6}
{"id":null,"anchorname":"WAYNESBURG POLICE DEPARTMENT","address":"90 E HIGH ST","bldgnbr":"90","predir":"E","streetname":"HIGH","streettype":"ST","suffdir":null,"city":"WAYNESBURG","state_code":"PA","zip5":"15370","latitude":"39.8964690010000000","longitude":"-80.185534000000000","publicwifi":"U","url":null,"broadband_type_id":4}
{"id":null,"anchorname":"EVA K BOWLBY PUBLIC LIBRARY","address":"311 NORTH WEST ST","bldgnbr":"311","predir":"N","streetname":"WEST","streettype":"ST","suffdir":null,"city":"Waynesburg","state_code":"PA","zip5":"15370","latitude":"39.8992735780000000","longitude":"-80.191517295000000","publicwifi":"Y","url":null,"broadband_type_id":6}
{"id":null,"anchorname":"GREENE COUNTY MENTAL HEALTH SERVICES","address":"19 S WASHINGTON ST","bldgnbr":"19","predir":"S","streetname":"WASHINGTON","streettype":"ST","suffdir":null,"city":"WAYNESBURG","state_code":"PA","zip5":"15370","latitude":"39.8961810010000000","longitude":"-80.186933000000000","publicwifi":"U","url":"http://www.co.greene.pa.us/secured/gc2/depts/hs/mhs/mhs.htm","broadband_type_id":3}
{"id":null,"anchorname":"STONE VALLEY COMMUNITY CHARTER SCHOOL","address":"13006 GREENWOOD RD","bldgnbr":"13006","predir":null,"streetname":"Greenwood","streettype":"RD","suffdir":null,"city":"HUNTINGDON","state_code":"PA","zip5":"16652","latitude":"40.6376108630000000","longitude":"-77.837265388000000","publicwifi":"U","url":"http://hasd.tiu.k12.pa.us/schools/jm.aspx","broadband_type_id":6}
{"id":null,"anchorname":"THE GRIER SCHOOL","address":"2522 GRIER SCHOOL RD","bldgnbr":"2522","predir":null,"streetname":"GRIER SCHOOL","streettype":"RD","suffdir":null,"city":"BIRMINGHAM","state_code":"PA","zip5":"16686","latitude":"40.6459605740000000","longitude":"-78.193106911000000","publicwifi":"U","url":null,"broadband_type_id":6}
{"id":null,"anchorname":"MEMORIAL PUBLIC LIBRARY OF THE BOROUGH OF ALEXANDRIA","address":"MAIN ST","bldgnbr":"N/A","predir":null,"streetname":"MAIN","streettype":"ST","suffdir":null,"city":"Alexandria","state_code":"PA","zip5":"16611","latitude":"40.5567900000000000","longitude":"-78.098415000000000","publicwifi":"U","url":null,"broadband_type_id":6}
{"id":null,"anchorname":"J C BLAIR MEMORIAL HOSPITAL","address":"1225 WARM SPRINGS AVENUE","bldgnbr":"1225","predir":null,"streetname":"WARM SPRINGS","streettype":"AVE","suffdir":null,"city":"Huntingdon","state_code":"PA","zip5":"16652","latitude":"40.4941989990000000","longitude":"-78.012129997000000","publicwifi":"U","url":null,"broadband_type_id":3}
{"id":null,"anchorname":"J C BLAIR MEMORIAL HOSP-BHVRL HEALTH SVC","address":"1225 WARM SPRINGS AVE","bldgnbr":"1225","predir":null,"streetname":"WARM SPRINGS","streettype":"AVE","suffdir":null,"city":"HUNTINGDON","state_code":"PA","zip5":"16652","latitude":"40.4934897590000000","longitude":"-78.013803186000000","publicwifi":"U","url":"http://www.jcblair.org/","broadband_type_id":3}
{"id":null,"anchorname":"PA STATE POLICE TROOP G-HUNTINGDON","address":"10637 RAYSTOWN RD","bldgnbr":"10637","predir":null,"streetname":"RAYSTOWN","streettype":"RD","suffdir":null,"city":"HUNTINGDON","state_code":"PA","zip5":"16652","latitude":"40.4966440010000000","longitude":"-78.016638000000000","publicwifi":"U","url":null,"broadband_type_id":4}
{"id":null,"anchorname":"JUNIATA COLLEGE","address":"1700 MOORE STREET","bldgnbr":"1700","predir":null,"streetname":"MOORE","streettype":"ST","suffdir":null,"city":"Huntingdon","state_code":"PA","zip5":"16652","latitude":"40.4965798880000000","longitude":"-78.016638809000000","publicwifi":"U","url":"www.juniata.edu","broadband_type_id":6}
{"id":null,"anchorname":"HUNTINGDON POLICE DEPARTMENT","address":"530 WASHINGTON ST","bldgnbr":"530","predir":null,"streetname":"WASHINGTON","streettype":"ST","suffdir":null,"city":"HUNTINGDON","state_code":"PA","zip5":"16652","latitude":"40.4853370010000000","longitude":"-78.011215000000000","publicwifi":"U","url":null,"broadband_type_id":4}
{"id":null,"anchorname":"HUNTINGDON COUNTY LIBRARY","address":"330 PENN ST","bldgnbr":"330","predir":null,"streetname":"PENN","streettype":"ST","suffdir":null,"city":"Huntingdon","state_code":"PA","zip5":"16652","latitude":"40.4839169460000000","longitude":"-78.009359858000000","publicwifi":"U","url":null,"broadband_type_id":6}
{"id":null,"anchorname":"DUBOIS BUSINESS COLLEGE/HUNTINGDON","address":"1001 MOORE STREET HUNTINGDON COUNTY CAMPUS","bldgnbr":"1001","predir":null,"streetname":"MOORE","streettype":"ST","suffdir":null,"city":"Huntingdon","state_code":"PA","zip5":"16652","latitude":"40.4885118260000000","longitude":"-78.013877024000000","publicwifi":"U","url":"http://www.dbcollege.com/","broadband_type_id":6}
{"id":null,"anchorname":"HUNTINGDON COUNTY HEALTH CENTER","address":"909 MOORE ST","bldgnbr":"909","predir":null,"streetname":"MOORE","streettype":"ST","suffdir":null,"city":"HUNTINGDON","state_code":"PA","zip5":"16652","latitude":"40.4882190010000000","longitude":"-78.013000000000000","publicwifi":"U","url":"http://webserver.health.state.pa.us/health/comm/comm.asp?COUNTY=all","broadband_type_id":3}
{"id":null,"anchorname":"BRADY-HENDERSON EL SCH","address":"12045 TECHNOLOGY DR","bldgnbr":"12045","predir":null,"streetname":"TECHNOLOGY","streettype":"DR","suffdir":null,"city":"MILL CREEK","state_code":"PA","zip5":"17060","latitude":"40.4366289570000000","longitude":"-77.927965641000000","publicwifi":"U","url":null,"broadband_type_id":null}
{"id":null,"anchorname":"PENNSYLVANIA ACADEMY OF PET GROOMING","address":"2860 W PIKE RD","bldgnbr":"2860","predir":"W","streetname":"PIKE","streettype":"RD","suffdir":null,"city":"Indiana","state_code":"PA","zip5":"15701","latitude":"40.6209331650000000","longitude":"-79.198925811000000","publicwifi":"U","url":null,"broadband_type_id":6}
{"id":null,"anchorname":"MAPLETON-UNION EL SCH","address":"13606 SMITH VALLEY RD","bldgnbr":"13606","predir":null,"streetname":"Smith Valley","streettype":"RD","suffdir":null,"city":"MAPLETON DEPOT","state_code":"PA","zip5":"17052","latitude":"40.4038725500000000","longitude":"-77.943439089000000","publicwifi":"U","url":"http://www.muasd.org/mapleton_union/Welcome.html","broadband_type_id":null}
{"id":null,"anchorname":"THE MEADOWS PSYCHIATRIC CENTER","address":"13903 WILLIAM PENN HWY","bldgnbr":"13903","predir":null,"streetname":"WILLIAM PENN","streettype":"HWY","suffdir":null,"city":"MAPLETON DEPOT","state_code":"PA","zip5":"17052","latitude":"40.3771800010000000","longitude":"-77.973580000000000","publicwifi":"U","url":null,"broadband_type_id":null}
{"id":null,"anchorname":"TROUGH CREEK VALLEY EL SCH","address":"18546 COOKS RD","bldgnbr":"18546","predir":null,"streetname":"Cooks","streettype":"RD","suffdir":null,"city":"CASSVILLE","state_code":"PA","zip5":"16623","latitude":"40.2677696610000000","longitude":"-78.058607620000000","publicwifi":"U","url":null,"broadband_type_id":null}
{"id":null,"anchorname":"NORTHEASTERN NEVADA PHYSICIAN PRACTICES LLC","address":"1995 ERRECART BLVD ELKO, NV 89801","bldgnbr":"1995","predir":null,"streetname":"ERRECART BLVD","streettype":null,"suffdir":null,"city":"ELKO","state_code":"NV","zip5":"89801","latitude":"40.8217820000000000","longitude":"-115.72960000000000","publicwifi":"U","url":null,"broadband_type_id":6}
{"id":null,"anchorname":"MOUNT UNION AREA SHS","address":"706 N SHAVER ST","bldgnbr":"706","predir":"N","streetname":"SHAVER","streettype":"ST","suffdir":null,"city":"MOUNT UNION","state_code":"PA","zip5":"17066","latitude":"40.3900970200000000","longitude":"-77.876786996000000","publicwifi":"U","url":null,"broadband_type_id":6}
{"id":null,"anchorname":"SHIRLEY TWP EL SCH","address":"14188 2ND ST","bldgnbr":"14188","predir":null,"streetname":"2nd","streettype":"ST","suffdir":null,"city":"MOUNT UNION","state_code":"PA","zip5":"17066","latitude":"40.3816405830000000","longitude":"-77.877082193000000","publicwifi":"U","url":"http://www.muasd.org/shirley_township/home.html","broadband_type_id":null}
{"id":null,"anchorname":"SHADE GAP EL SCH","address":"22251 SHADE VALLEY RD","bldgnbr":"22251","predir":null,"streetname":"SHADE VALLEY","streettype":"RD","suffdir":null,"city":"SHADE GAP","state_code":"PA","zip5":"17255","latitude":"40.1846137550000000","longitude":"-77.861083922000000","publicwifi":"U","url":null,"broadband_type_id":null}
{"id":null,"anchorname":"ROCKHILL EL SCH","address":"510 MEADOW ST","bldgnbr":"510","predir":null,"streetname":"MEADOW","streettype":"ST","suffdir":null,"city":"ROCKHILL FURNACE","state_code":"PA","zip5":"17249","latitude":"40.2412450750000000","longitude":"-77.897143945000000","publicwifi":"U","url":"wrockhill.pennridge.org","broadband_type_id":null}
{"id":null,"anchorname":"MOUNT UNION AREA JHS","address":"706 N SHAVER ST","bldgnbr":"706","predir":"N","streetname":"SHAVER","streettype":"ST","suffdir":null,"city":"MOUNT UNION","state_code":"PA","zip5":"17066","latitude":"40.3897397010000000","longitude":"-77.875903393000000","publicwifi":"U","url":null,"broadband_type_id":6}
{"id":null,"anchorname":"ROBERTSDALE GR SCH","address":"37 MAIN ST","bldgnbr":"37","predir":null,"streetname":"MAIN","streettype":"ST","suffdir":null,"city":"ROBERTSDALE","state_code":"PA","zip5":"16674","latitude":"40.1810007360000000","longitude":"-78.117249656000000","publicwifi":"U","url":null,"broadband_type_id":null}
{"id":null,"anchorname":"LONGVIEW EL SCH","address":"19466 ROUTE 119 HWY N","bldgnbr":"19466","predir":null,"streetname":"Route 119","streettype":"Hwy","suffdir":"N","city":"PUNXSUTAWNEY","state_code":"PA","zip5":"15767","latitude":"40.9023222500000000","longitude":"-79.010343964000000","publicwifi":"U","url":"http://www.punxsy.k12.pa.us/domain/275","broadband_type_id":null}
{"id":null,"anchorname":"W.A. MCCREERY EL SCH","address":"22810 ROUTE 403 HWY N","bldgnbr":"22810","predir":null,"streetname":"ROUTE 403","streettype":"Hwy","suffdir":"N","city":"MARION CENTER","state_code":"PA","zip5":"15759","latitude":"40.7702456640000000","longitude":"-79.054726280000000","publicwifi":"U","url":"http://www.mcasd.net/elem/elementary.html","broadband_type_id":null}
{"id":null,"anchorname":"SOUTHERN HUNTINGDON CO HS/MS","address":"10339 POGUE RD","bldgnbr":"10339","predir":null,"streetname":"POGUE","streettype":"RD","suffdir":null,"city":"THREE SPRINGS","state_code":"PA","zip5":"17264","latitude":"40.2145371250000000","longitude":"-77.923871063000000","publicwifi":"U","url":null,"broadband_type_id":6}
{"id":null,"anchorname":"PURCHASE LINE SOUTH EL SCH","address":"16957 ROUTE 286 HWY E PO BOX 374","bldgnbr":"16957","predir":null,"streetname":"HWY","streettype":null,"suffdir":"E","city":"COMMODORE","state_code":"PA","zip5":"15729","latitude":"40.7355474680000000","longitude":"-78.911662818000000","publicwifi":"U","url":null,"broadband_type_id":null}
{"id":null,"anchorname":"SPRING FARMS EL SCH","address":"12075 OLD PLANK RD","bldgnbr":"12075","predir":null,"streetname":"Old Plank","streettype":"RD","suffdir":null,"city":"THREE SPRINGS","state_code":"PA","zip5":"17264","latitude":"40.1974322270000000","longitude":"-78.009403053000000","publicwifi":"U","url":null,"broadband_type_id":6}
{"id":null,"anchorname":"RAYNE EL SCH","address":"2535 RT 119 HWY NORTH","bldgnbr":"2535","predir":null,"streetname":"Rt 119","streettype":"Hyw","suffdir":"N","city":"HOME","state_code":"PA","zip5":"15747","latitude":"40.7043121910000000","longitude":"-79.102550980000000","publicwifi":"U","url":"http://www.mcasd.net/elem/elementary.html","broadband_type_id":null}
{"id":null,"anchorname":"BENJAMIN FRANKLIN EL SCH","address":"5400 FLORIDA AVE","bldgnbr":"5400","predir":null,"streetname":"FLORIDA","streettype":"AVE","suffdir":null,"city":"BETHEL PARK","state_code":"PA","zip5":"15102","latitude":"40.6202053700000000","longitude":"-79.192387296000000","publicwifi":"U","url":null,"broadband_type_id":null}
{"id":null,"anchorname":"MARION CENTER AREA HS","address":"22800 ROUTE 403 HWY N PO BOX 209","bldgnbr":"22800","predir":null,"streetname":"HWY","streettype":null,"suffdir":"N","city":"MARION CENTER","state_code":"PA","zip5":"15759","latitude":"40.7695733280000000","longitude":"-79.055580031000000","publicwifi":"U","url":null,"broadband_type_id":6}
{"id":null,"anchorname":"PURCHASE LINE JSHS","address":"16559 ROUTE 286 HWY E PO BOX 374","bldgnbr":"16559","predir":null,"streetname":"HWY","streettype":null,"suffdir":"E","city":"COMMODORE","state_code":"PA","zip5":"15729","latitude":"40.7355474360000000","longitude":"-78.917218376000000","publicwifi":"U","url":null,"broadband_type_id":6}
{"id":null,"anchorname":"INDIANA AMBULATORY SURGICAL ASSOCIATES","address":"841 HOSPITAL ROAD","bldgnbr":"841","predir":null,"streetname":"HOSPITAL","streettype":"RD","suffdir":null,"city":"Indiana","state_code":"PA","zip5":"15701","latitude":"40.6022311110000000","longitude":"-79.161368334000000","publicwifi":"U","url":null,"broadband_type_id":6}
{"id":null,"anchorname":"EAST PIKE EL SCH","address":"501 E PIKE","bldgnbr":"501","predir":null,"streetname":"E","streettype":"PIKE","suffdir":null,"city":"INDIANA","state_code":"PA","zip5":"15701","latitude":"40.6206481450000000","longitude":"-79.124702274000000","publicwifi":"U","url":null,"broadband_type_id":null}
{"id":null,"anchorname":"FAMILY COUNSELING CENTER","address":"155 N TENTH ST","bldgnbr":"155","predir":"N","streetname":"10TH","streettype":"ST","suffdir":null,"city":"INDIANA","state_code":"PA","zip5":"15701","latitude":"40.6247501450000000","longitude":"-79.158109323000000","publicwifi":"U","url":null,"broadband_type_id":null}
{"id":null,"anchorname":"INDIANA AREA SHS","address":"450 N 5TH ST","bldgnbr":"450","predir":"N","streetname":"5TH","streettype":"ST","suffdir":null,"city":"INDIANA","state_code":"PA","zip5":"15701","latitude":"40.6323887570000000","longitude":"-79.149479900000000","publicwifi":"U","url":null,"broadband_type_id":6}
{"id":null,"anchorname":"SEEDS OF FAITH CHRISTIAN ACADEMY","address":"640 CHURCH ST","bldgnbr":"640","predir":null,"streetname":"CHURCH","streettype":"ST","suffdir":null,"city":"INDIANA","state_code":"PA","zip5":"15701","latitude":"40.6215319120000000","longitude":"-79.151956098000000","publicwifi":"U","url":null,"broadband_type_id":6}
{"id":null,"anchorname":"EISENHOWER EL SCH","address":"1460 SCHOOL ST","bldgnbr":"1460","predir":null,"streetname":"SCHOOL","streettype":"ST","suffdir":null,"city":"INDIANA","state_code":"PA","zip5":"15701","latitude":"40.6206538500000000","longitude":"-79.169765134000000","publicwifi":"U","url":null,"broadband_type_id":6}
{"id":null,"anchorname":"MOUNT UNION BOROUGH POLICE DEPARTMENT","address":"16 S DIVISION ST","bldgnbr":"16","predir":"S","streetname":"DIVISION","streettype":"ST","suffdir":null,"city":"MOUNT UNION","state_code":"PA","zip5":"17066","latitude":"40.3843230010000000","longitude":"-77.883121000000000","publicwifi":"U","url":null,"broadband_type_id":4}
{"id":null,"anchorname":"LOWER HUNTINGDON COUNTY BRANCH LIBRARY","address":"S CROMWELL ST P O BOX 70","bldgnbr":"N/A","predir":"S","streetname":"CROMWELL","streettype":"ST","suffdir":null,"city":"Orbisonia","state_code":"PA","zip5":"17243","latitude":"40.2431970000000000","longitude":"-77.892191000000000","publicwifi":"U","url":null,"broadband_type_id":6}
{"id":null,"anchorname":"INDIANA WESLEYAN SCHOOL","address":"18215 ROUTE 403 HWY N","bldgnbr":"18215","predir":null,"streetname":"403","streettype":"HWY","suffdir":null,"city":"DIXONVILLE","state_code":"PA","zip5":"15734","latitude":"40.7199918330000000","longitude":"-79.007205967000000","publicwifi":"U","url":null,"broadband_type_id":6}
{"id":null,"anchorname":"PA STATE POLICE TROOP A-INDIANA","address":"4221 ROUTE 286 HWY W","bldgnbr":"4221","predir":null,"streetname":"HWY","streettype":null,"suffdir":"W","city":"INDIANA","state_code":"PA","zip5":"15701","latitude":"40.5900910010000000","longitude":"-79.205369000000000","publicwifi":"U","url":null,"broadband_type_id":4}
{"id":null,"anchorname":"INDIANA REGIONAL MEDICAL CENTER","address":"835 HOSPITAL ROAD PO BOX 788","bldgnbr":"835","predir":null,"streetname":"HOSPITAL","streettype":"RD","suffdir":null,"city":"Indiana","state_code":"PA","zip5":"15701","latitude":"40.6075210040000000","longitude":"-79.156261997000000","publicwifi":"U","url":"http://www.indianarmc.org/","broadband_type_id":3}
{"id":null,"anchorname":"ST. BERNARD SCHOOL","address":"300 CLAIRVAUX DR","bldgnbr":"300","predir":null,"streetname":"CLAIRVAUX","streettype":"DR","suffdir":null,"city":"INDIANA","state_code":"PA","zip5":"15701","latitude":"40.6301157600000000","longitude":"-79.134379960000000","publicwifi":"U","url":null,"broadband_type_id":6}
{"id":null,"anchorname":"INDIANA BORO POLICE DEPARTMENT","address":"80 N 8TH ST STE 104","bldgnbr":"80","predir":"N","streetname":"8TH","streettype":"ST","suffdir":null,"city":"INDIANA","state_code":"PA","zip5":"15701","latitude":"40.6240470010000000","longitude":"-79.154668000000000","publicwifi":"U","url":"http://www.indianaboro.com/departments/police%20department.htm","broadband_type_id":4}
{"id":null,"anchorname":"INDIANA FREE LIBRARY INC","address":"845 PHILADELPHIA ST","bldgnbr":"845","predir":null,"streetname":"PHILADELPHIA","streettype":"ST","suffdir":null,"city":"Indiana","state_code":"PA","zip5":"15701","latitude":"40.6230486310000000","longitude":"-79.155274810000000","publicwifi":"Y","url":null,"broadband_type_id":6}
{"id":null,"anchorname":"KEYS MONTESSORI SCHOOL","address":"695 SCHOOL ST","bldgnbr":"695","predir":null,"streetname":"SCHOOL","streettype":"ST","suffdir":null,"city":"INDIANA","state_code":"PA","zip5":"15701","latitude":"40.6206548540000000","longitude":"-79.153267241000000","publicwifi":"U","url":null,"broadband_type_id":6}
{"id":null,"anchorname":"CAMBRIA-ROWE BUSINESS COLLEGE/INDIANA","address":"422 SOUTH 13TH STREET","bldgnbr":"422","predir":"S","streetname":"13TH","streettype":"ST","suffdir":null,"city":"Indiana","state_code":"PA","zip5":"15701","latitude":"40.6179601910000000","longitude":"-79.165979966000000","publicwifi":"U","url":"http://crbc.reachlocal.net/index.html","broadband_type_id":6}
{"id":null,"anchorname":"Indiana University of Pennsylvania","address":"210 S 10th St, Indiana, PA 15701","bldgnbr":"210","predir":"S","streetname":"10th","streettype":"St","suffdir":null,"city":"Indiana","state_code":"PA","zip5":"15701","latitude":"40.6202050000000000","longitude":"-79.158890000000000","publicwifi":"U","url":"www.iup.edu","broadband_type_id":6}
{"id":null,"anchorname":"FRIENDS IN SERVICE HELPING (FISH)","address":"821 WATER STREET ELKO, NV 89801","bldgnbr":"821","predir":null,"streetname":"WATER STREET","streettype":null,"suffdir":null,"city":"ELKO","state_code":"NV","zip5":"89801","latitude":"40.8319410000000000","longitude":"-115.75598100000000","publicwifi":"U","url":null,"broadband_type_id":6}
{"id":null,"anchorname":"HORACE MANN EL SCH","address":"205 S 5TH ST","bldgnbr":"205","predir":"S","streetname":"5TH","streettype":"ST","suffdir":null,"city":"INDIANA","state_code":"PA","zip5":"15701","latitude":"40.6202359400000000","longitude":"-79.145335913000000","publicwifi":"U","url":null,"broadband_type_id":null}
{"id":null,"anchorname":"PENNS MANOR AREA EL SCH","address":"6003 ROUTE 553 HWY","bldgnbr":"6003","predir":null,"streetname":"HWY","streettype":null,"suffdir":null,"city":"CLYMER","state_code":"PA","zip5":"15728","latitude":"40.6392244940000000","longitude":"-78.944387169000000","publicwifi":"U","url":null,"broadband_type_id":null}
{"id":null,"anchorname":"PENNS MANOR AREA JSHS","address":"6003 ROUTE 553 HIGHWAY","bldgnbr":"6003","predir":null,"streetname":"HIGHWAY","streettype":null,"suffdir":null,"city":"CLYMER","state_code":"PA","zip5":"15728","latitude":"40.6405488030000000","longitude":"-78.944365021000000","publicwifi":"U","url":null,"broadband_type_id":6}
{"id":null,"anchorname":"HOMER-CENTER JSHS","address":"70 WILDCAT LN","bldgnbr":"70","predir":null,"streetname":"WILDCAT","streettype":"LN","suffdir":null,"city":"HOMER CITY","state_code":"PA","zip5":"15748","latitude":"40.5335795700000000","longitude":"-79.159668881000000","publicwifi":"U","url":null,"broadband_type_id":6}
{"id":null,"anchorname":"HOMER-CENTER EL SCH","address":"45 WILDCAT LN","bldgnbr":"45","predir":null,"streetname":"WILDCAT","streettype":"LN","suffdir":null,"city":"HOMER CITY","state_code":"PA","zip5":"15748","latitude":"40.5319224250000000","longitude":"-79.159599679000000","publicwifi":"U","url":null,"broadband_type_id":null}
{"id":null,"anchorname":"SALTSBURG MS/HS","address":"84 TROJAN LANE","bldgnbr":"84","predir":null,"streetname":"TROJAN","streettype":"LN","suffdir":null,"city":"SALTSBURG","state_code":"PA","zip5":"15681","latitude":"40.4914243010000000","longitude":"-79.448847987000000","publicwifi":"U","url":null,"broadband_type_id":6}
{"id":null,"anchorname":"SALTSBURG EL SCH","address":"250 3RD ST","bldgnbr":"250","predir":null,"streetname":"3RD","streettype":"ST","suffdir":null,"city":"SALTSBURG","state_code":"PA","zip5":"15681","latitude":"40.4984969210000000","longitude":"-79.442686787000000","publicwifi":"U","url":null,"broadband_type_id":null}
{"id":null,"anchorname":"BLAIRSVILLE SHS","address":"100 SCHOOL LANE","bldgnbr":"100","predir":null,"streetname":"SCHOOL","streettype":"LN","suffdir":null,"city":"BLAIRSVILLE","state_code":"PA","zip5":"15717","latitude":"40.4487401810000000","longitude":"-79.218540304000000","publicwifi":"U","url":null,"broadband_type_id":6}
{"id":null,"anchorname":"UNITED JSHS","address":"10780 ROUTE 56 EAST PO BOX 168","bldgnbr":"10780","predir":null,"streetname":"RT 56","streettype":null,"suffdir":"E","city":"ARMAGH","state_code":"PA","zip5":"15920","latitude":"40.4655475150000000","longitude":"-79.045551714000000","publicwifi":"U","url":null,"broadband_type_id":6}
{"id":null,"anchorname":"BLAIRSVILLE EL SCH","address":"106 SCHOOL LANE","bldgnbr":"106","predir":null,"streetname":"SCHOOL","streettype":"LN","suffdir":null,"city":"BLAIRSVILLE","state_code":"PA","zip5":"15717","latitude":"40.4498722890000000","longitude":"-79.218661039000000","publicwifi":"U","url":null,"broadband_type_id":null}
{"id":null,"anchorname":"WYOMING TECHNICAL INSTITUTE","address":"500 INNOVATION DRIVE","bldgnbr":"500","predir":null,"streetname":"INNOVATION","streettype":"DR","suffdir":null,"city":"Blairsville","state_code":"PA","zip5":"15717","latitude":"40.4461600000000000","longitude":"-79.222820000000000","publicwifi":"U","url":"www.wyotech.edu/campus/blairsville","broadband_type_id":null}
{"id":null,"anchorname":"BROCKWAY AREA JSHS","address":"100 ALEXANDER ST","bldgnbr":"100","predir":null,"streetname":"ALEXANDER","streettype":"ST","suffdir":null,"city":"BROCKWAY","state_code":"PA","zip5":"15824","latitude":"41.2514606770000000","longitude":"-78.807700416000000","publicwifi":"U","url":null,"broadband_type_id":6}
{"id":null,"anchorname":"BROCKWAY AREA ELEMENTARY SCH","address":"40 NORTH ST","bldgnbr":"40","predir":null,"streetname":"NORTH","streettype":"ST","suffdir":null,"city":"BROCKWAY","state_code":"PA","zip5":"15824","latitude":"41.2520330670000000","longitude":"-78.808180029000000","publicwifi":"U","url":"http://www.brockway.k12.pa.us/Elementary/index.html","broadband_type_id":6}
{"id":null,"anchorname":"UNITED EL SCH","address":"10775 ROUTE 56 EAST PO BOX 168","bldgnbr":"10775","predir":null,"streetname":"RT 56","streettype":null,"suffdir":"E","city":"ARMAGH","state_code":"PA","zip5":"15920","latitude":"40.4691586350000000","longitude":"-79.042496140000000","publicwifi":"U","url":null,"broadband_type_id":null}
{"id":null,"anchorname":"CLEARFIELD-JEFFERSON MH-MR PROG","address":"1200 WOOD ST STE U110","bldgnbr":"1200","predir":null,"streetname":"WOOD","streettype":"ST","suffdir":null,"city":"BROCKWAY","state_code":"PA","zip5":"15824","latitude":"41.2506450000000000","longitude":"-78.789298000000000","publicwifi":"U","url":"https://www.hcsis.state.pa.us/hcsis-ssd/pgm/asp/PRCNT.ASP","broadband_type_id":null}
{"id":null,"anchorname":"BROOKVILLE JSHS","address":"96 JENKS ST","bldgnbr":"96","predir":null,"streetname":"JENKS","streettype":"ST","suffdir":null,"city":"BROOKVILLE","state_code":"PA","zip5":"15825","latitude":"41.1731696770000000","longitude":"-79.085424118000000","publicwifi":"U","url":null,"broadband_type_id":6}
{"id":null,"anchorname":"NORTHSIDE EL SCH","address":"280 CHURCH ST PO BOX 479","bldgnbr":"280","predir":null,"streetname":"CHURCH","streettype":"ST","suffdir":null,"city":"BROOKVILLE","state_code":"PA","zip5":"15825","latitude":"41.1635932180000000","longitude":"-79.080719606000000","publicwifi":"U","url":null,"broadband_type_id":6}
{"id":null,"anchorname":"TRANSPORT TECH/BROOKVILLE","address":"3661 ROUTE 28","bldgnbr":"3661","predir":null,"streetname":"RT 28","streettype":null,"suffdir":null,"city":"North Brookville","state_code":"PA","zip5":"15825","latitude":"41.1970601230000000","longitude":"-79.002347799000000","publicwifi":"U","url":null,"broadband_type_id":null}
{"id":null,"anchorname":"CHRIST'S DOMINION ACADEMY","address":"59 W PENN ST","bldgnbr":"59","predir":"W","streetname":"PENN","streettype":"ST","suffdir":null,"city":"SUMMERVILLE","state_code":"PA","zip5":"15864","latitude":"41.1160184680000000","longitude":"-79.188138652000000","publicwifi":"U","url":null,"broadband_type_id":6}
{"id":null,"anchorname":"HICKORY GROVE EL SCH","address":"104 JENKS ST PO BOX 479","bldgnbr":"104","predir":null,"streetname":"JENKS","streettype":"ST","suffdir":null,"city":"BROOKVILLE","state_code":"PA","zip5":"15825","latitude":"41.1739193010000000","longitude":"-79.089337263000000","publicwifi":"U","url":null,"broadband_type_id":null}
{"id":null,"anchorname":"PRAISE CHRISTIAN ACADEMY","address":"113 SANDY VALLEY RD","bldgnbr":"113","predir":null,"streetname":"SANDY VALLEY","streettype":"RD","suffdir":null,"city":"REYNOLDSVILLE","state_code":"PA","zip5":"15851","latitude":"41.1300435820000000","longitude":"-78.886604154000000","publicwifi":"U","url":null,"broadband_type_id":6}
{"id":null,"anchorname":"JEFFERSON COUNTY-DUBOIS AVTS","address":"576 VO TECH RD","bldgnbr":"576","predir":null,"streetname":"VO TECH","streettype":"RD","suffdir":null,"city":"REYNOLDSVILLE","state_code":"PA","zip5":"15851","latitude":"41.1111266050000000","longitude":"-78.893515781000000","publicwifi":"U","url":"www.jefftech.us","broadband_type_id":6}
{"id":null,"anchorname":"PINECREEK EL SCH","address":"16771 ROUTE 322 PO BOX 479","bldgnbr":"16771","predir":null,"streetname":"RT 322","streettype":null,"suffdir":null,"city":"BROOKVILLE","state_code":"PA","zip5":"15825","latitude":"41.1483250250000000","longitude":"-79.028051589000000","publicwifi":"U","url":null,"broadband_type_id":null}
{"id":null,"anchorname":"C G JOHNSON EL SCH","address":"923 JACKSON ST","bldgnbr":"923","predir":null,"streetname":"JACKSON","streettype":"ST","suffdir":null,"city":"REYNOLDSVILLE","state_code":"PA","zip5":"15851","latitude":"41.0902428040000000","longitude":"-78.884251124000000","publicwifi":"U","url":null,"broadband_type_id":null}
{"id":null,"anchorname":"CLYMER BOROUGH POLICE DEPARTMENT","address":"115 6TH ST","bldgnbr":"115","predir":null,"streetname":"6TH","streettype":"ST","suffdir":null,"city":"CLYMER","state_code":"PA","zip5":"15728","latitude":"40.6687830010000000","longitude":"-79.012632000000000","publicwifi":"U","url":"http://www.usacops.com/pa/p15728/index.html","broadband_type_id":4}
{"id":null,"anchorname":"BREEZY LANE SCHOOL","address":"8614 ROUTE 259 HWY","bldgnbr":"8614","predir":null,"streetname":"259","streettype":"HWY","suffdir":null,"city":"HOMER CITY","state_code":"PA","zip5":"15748","latitude":"40.4974481410000000","longitude":"-79.086437672000000","publicwifi":"U","url":null,"broadband_type_id":6}
{"id":null,"anchorname":"HOMER CITY POLICE DEPARTMENT","address":"30 E WILEY ST","bldgnbr":"30","predir":"E","streetname":"WILEY","streettype":"ST","suffdir":null,"city":"HOMER CITY","state_code":"PA","zip5":"15748","latitude":"40.5402350010000000","longitude":"-79.159626000000000","publicwifi":"U","url":"http://www.manta.com/c/mmfb413/homer-city-police-dept","broadband_type_id":4}
{"id":null,"anchorname":"SALTSBURG FREE LIBRARY","address":"307 POINT ST, SUITE 3","bldgnbr":"307","predir":null,"streetname":"POINT","streettype":"ST","suffdir":null,"city":"Saltsburg","state_code":"PA","zip5":"15681","latitude":"40.4853780150000000","longitude":"-79.450059289000000","publicwifi":"U","url":null,"broadband_type_id":6}
{"id":null,"anchorname":"BURRELL TOWNSHIP LIBRARY","address":"190 PARK DR PO BOX 424","bldgnbr":"190","predir":null,"streetname":"PARK","streettype":"DR","suffdir":null,"city":"Black Lick","state_code":"PA","zip5":"15716","latitude":"40.4726488310000000","longitude":"-79.192044132000000","publicwifi":"Y","url":null,"broadband_type_id":6}
{"id":null,"anchorname":"BLAIRSVILLE POLICE DEPARTMENT","address":"201 E MARKET ST","bldgnbr":"201","predir":"E","streetname":"MARKET","streettype":"ST","suffdir":null,"city":"BLAIRSVILLE","state_code":"PA","zip5":"15717","latitude":"40.4310610010000000","longitude":"-79.260412000000000","publicwifi":"U","url":"http://www.usacops.com/pa/p15717/index.html","broadband_type_id":4}
{"id":null,"anchorname":"BLAIRSVILLE PUBLIC LIBRARY","address":"113 NORTH WALNUT ST","bldgnbr":"113","predir":"N","streetname":"WALNUT","streettype":"ST","suffdir":null,"city":"Blairsville","state_code":"PA","zip5":"15717","latitude":"40.4334016130000000","longitude":"-79.264878334000000","publicwifi":"Y","url":null,"broadband_type_id":6}
{"id":null,"anchorname":"BROCKWAY POLICE DEPARTMENT","address":"501 MAIN ST","bldgnbr":"501","predir":null,"streetname":"MAIN","streettype":"ST","suffdir":null,"city":"BROCKWAY","state_code":"PA","zip5":"15824","latitude":"41.2491350010000000","longitude":"-78.798910000000000","publicwifi":"U","url":"http://www.usacops.com/pa/p15824/index.html","broadband_type_id":4}
{"id":null,"anchorname":"MENGLE MEMORIAL LIBRARY","address":"324 MAIN ST","bldgnbr":"324","predir":null,"streetname":"MAIN","streettype":"ST","suffdir":null,"city":"Brockway","state_code":"PA","zip5":"15824","latitude":"41.2493217940000000","longitude":"-78.800574561000000","publicwifi":"Y","url":null,"broadband_type_id":6}
{"id":null,"anchorname":"PA STATE POLICE TROOP C-DUBOIS","address":"101 PRESTON WAY","bldgnbr":"101","predir":null,"streetname":"PRESTON","streettype":"WAY","suffdir":null,"city":"FALLS CREEK","state_code":"PA","zip5":"15840","latitude":"41.1475930010000000","longitude":"-78.812340000000000","publicwifi":"U","url":null,"broadband_type_id":4}
{"id":null,"anchorname":"REBECCA M ARTHURS MEMORIAL LIBRARY","address":"223 VALLEY ST","bldgnbr":"223","predir":null,"streetname":"VALLEY","streettype":"ST","suffdir":null,"city":"Brookville","state_code":"PA","zip5":"15825","latitude":"41.1640146270000000","longitude":"-79.084865417000000","publicwifi":"Y","url":null,"broadband_type_id":6}
{"id":null,"anchorname":"BROOKVILLE HOSPITAL","address":"100 HOSPITAL ROAD","bldgnbr":"100","predir":null,"streetname":"HOSPITAL","streettype":"RD","suffdir":null,"city":"Brookville","state_code":"PA","zip5":"15825","latitude":"41.1565294190000000","longitude":"-79.093332994000000","publicwifi":"U","url":"http://www.hpndatabase.com/brookville/","broadband_type_id":3}
{"id":null,"anchorname":"SUMMERVILLE PUBLIC LIBRARY","address":"114 SECOND AVE PO BOX 301","bldgnbr":"114","predir":null,"streetname":"2ND","streettype":"AVE","suffdir":null,"city":"Summerville","state_code":"PA","zip5":"15864","latitude":"41.1152331480000000","longitude":"-79.187486033000000","publicwifi":"Y","url":null,"broadband_type_id":6}
{"id":null,"anchorname":"REYNOLDSVILLE POLICE DEPARTMENT","address":"460 E MAIN ST","bldgnbr":"460","predir":"E","streetname":"MAIN","streettype":"ST","suffdir":null,"city":"REYNOLDSVILLE","state_code":"PA","zip5":"15851","latitude":"41.0961020010000000","longitude":"-78.888241000000000","publicwifi":"U","url":null,"broadband_type_id":4}
{"id":null,"anchorname":"REYNOLDSVILLE PUBLIC LIBRARY","address":"460 E MAIN ST  STE 3","bldgnbr":"460","predir":"E","streetname":"MAIN","streettype":"ST","suffdir":null,"city":"Reynoldsville","state_code":"PA","zip5":"15851","latitude":"41.0961606200000000","longitude":"-78.888221826000000","publicwifi":"Y","url":null,"broadband_type_id":6}
{"id":null,"anchorname":"WELLNESS HORIZONS, LLC","address":"239 FLORA DR SPRING CREEK, NV 89815","bldgnbr":"239","predir":null,"streetname":"FLORA DR","streettype":null,"suffdir":null,"city":"SPRING CREEK","state_code":"NV","zip5":"89815","latitude":"40.7474730000000000","longitude":"-115.60878500000000","publicwifi":"U","url":null,"broadband_type_id":6}
{"id":null,"anchorname":"PUNXSUTAWNEY AREA HS","address":"450 N FINDLEY STREET","bldgnbr":"450","predir":"N","streetname":"FINDLEY","streettype":"ST","suffdir":null,"city":"PUNXSUTAWNEY","state_code":"PA","zip5":"15767","latitude":"40.9513806400000000","longitude":"-78.978329479000000","publicwifi":"U","url":null,"broadband_type_id":6}
{"id":null,"anchorname":"WEST END EL SCH","address":"300 CENTER ST","bldgnbr":"300","predir":null,"streetname":"CENTER","streettype":"ST","suffdir":null,"city":"PUNXSUTAWNEY","state_code":"PA","zip5":"15767","latitude":"40.9466584640000000","longitude":"-78.990273849000000","publicwifi":"U","url":null,"broadband_type_id":6}
{"id":null,"anchorname":"MAPLEVIEW EL SCH","address":"9329 ROUTE 536","bldgnbr":"9329","predir":null,"streetname":"Route 536","streettype":null,"suffdir":null,"city":"PUNXSUTAWNEY","state_code":"PA","zip5":"15767","latitude":"40.9644511040000000","longitude":"-79.091802786000000","publicwifi":"U","url":"http://www.punxsy.k12.pa.us/Domain/252","broadband_type_id":null}
{"id":null,"anchorname":"EAST JUNIATA JSHS","address":"32944  ROUTE 35","bldgnbr":"32944","predir":null,"streetname":"ROUTE 35","streettype":null,"suffdir":null,"city":"MC ALISTERVILLE","state_code":"PA","zip5":"17049","latitude":"40.6583905650000000","longitude":"-77.216722778000000","publicwifi":"U","url":"http://www.jcsdk12.org/ejhs/site/default.asp","broadband_type_id":6}
{"id":null,"anchorname":"BELL TWP EL SCH","address":"662 AIRPORT RD","bldgnbr":"662","predir":null,"streetname":"Airport","streettype":"Rd","suffdir":null,"city":"PUNXSUTANEY","state_code":"PA","zip5":"15767","latitude":"40.9655226660000000","longitude":"-78.924262099000000","publicwifi":"U","url":null,"broadband_type_id":null}
{"id":null,"anchorname":"JUNIATA SHS","address":"3631 WILLIAM PENN HWY","bldgnbr":"3631","predir":null,"streetname":"William Penn","streettype":"HWY","suffdir":null,"city":"MIFFLINTOWN","state_code":"PA","zip5":"17059","latitude":"40.5816976290000000","longitude":"-77.363247759000000","publicwifi":"U","url":"http://www.jcsdk12.org/jhs/site/default.asp","broadband_type_id":6}
{"id":null,"anchorname":"TUSCARORA MS","address":"3873 WILLIAM PENN HWY","bldgnbr":"3873","predir":null,"streetname":"William Penn","streettype":"HWY","suffdir":null,"city":"MIFFLINTOWN","state_code":"PA","zip5":"17059","latitude":"40.5649065720000000","longitude":"-77.394969877000000","publicwifi":"U","url":"http://www.jcsdk12.org/tjhs/site/default.asp","broadband_type_id":6}
{"id":null,"anchorname":"MOUNTAIN VIEW EL SCH","address":"ROUTE 35 SOUTH","bldgnbr":"ROUTE 35","predir":null,"streetname":"Route 35","streettype":null,"suffdir":"South","city":"MIFFLIN","state_code":"PA","zip5":"17058","latitude":"40.5654066550000000","longitude":"-77.406723387000000","publicwifi":"U","url":"http://www.jcsdk12.org/mtnview","broadband_type_id":2}
{"id":null,"anchorname":"INDIANA UNIV/PUNXSUTAWNEY CMP","address":"1010 WINSLOW STREET","bldgnbr":"1010","predir":null,"streetname":"WINSLOW","streettype":"ST","suffdir":null,"city":"Punxsutawney","state_code":"PA","zip5":"15767","latitude":"40.9440609830000000","longitude":"-78.989043196000000","publicwifi":"U","url":null,"broadband_type_id":null}
{"id":null,"anchorname":"JENKS HILL EL SCH","address":"200 JENKS AVE","bldgnbr":"200","predir":null,"streetname":"JENKS","streettype":"AVE","suffdir":null,"city":"PUNXSUTAWNEY","state_code":"PA","zip5":"15767","latitude":"40.9491901810000000","longitude":"-78.968037018000000","publicwifi":"U","url":"http://www.punxsy.k12.pa.us/domain/274","broadband_type_id":null}
{"id":null,"anchorname":"FAYETTE TWP EL SCH","address":"145 SCHOOL ST","bldgnbr":"145","predir":null,"streetname":"SCHOOL","streettype":"ST","suffdir":null,"city":"MC ALISTERVILLE","state_code":"PA","zip5":"17049","latitude":"40.6372448680000000","longitude":"-77.277799136000000","publicwifi":"U","url":null,"broadband_type_id":null}
{"id":null,"anchorname":"FERMANAGH-MIFFLINTOWN EL SCH","address":"75 S 7TH ST","bldgnbr":"75","predir":"S","streetname":"7TH","streettype":"ST","suffdir":null,"city":"MIFFLINTOWN","state_code":"PA","zip5":"17059","latitude":"40.5727615830000000","longitude":"-77.378746688000000","publicwifi":"U","url":"http://www.jcsdk12.org/jstroup/site/default.asp","broadband_type_id":null}
{"id":null,"anchorname":"LACK-TUSCARORA EL SCH","address":"3044 MIDDLE RD","bldgnbr":"3044","predir":null,"streetname":"Middle","streettype":"RD","suffdir":null,"city":"HONEY GROVE","state_code":"PA","zip5":"17035","latitude":"40.4202214620000000","longitude":"-77.571557723000000","publicwifi":"U","url":"http://www.jcsdk12.org/1738208513298107/site/default.asp","broadband_type_id":null}
{"id":null,"anchorname":"TUSCARORA VALLEY EL SCH","address":"401 8TH ST","bldgnbr":"401","predir":null,"streetname":"8TH","streettype":"ST","suffdir":null,"city":"PORT ROYAL","state_code":"PA","zip5":"17082","latitude":"40.5333697570000000","longitude":"-77.391134674000000","publicwifi":"U","url":null,"broadband_type_id":null}
{"id":null,"anchorname":"THE MEADOWS PSYCHIATRIC CENTER","address":"14 INDUSTRIAL PARK CIR","bldgnbr":"14","predir":null,"streetname":"INDUSTRIAL PARK","streettype":"CIR","suffdir":null,"city":"MIFFLINTOWN","state_code":"PA","zip5":"17059","latitude":"40.5634280370000000","longitude":"-77.394086728000000","publicwifi":"U","url":null,"broadband_type_id":null}
{"id":null,"anchorname":"WALKER TWP EL SCH","address":"7864 WILLIAM PENN HWY E","bldgnbr":"7864","predir":null,"streetname":"William Penn","streettype":"HWY","suffdir":"E","city":"MIFFLINTOWN","state_code":"PA","zip5":"17059","latitude":"40.5368939310000000","longitude":"-77.333097391000000","publicwifi":"U","url":null,"broadband_type_id":null}
{"id":null,"anchorname":"THOMPSONTOWN-DELAWARE EL SCH","address":"6 SCHOOL ST","bldgnbr":"6","predir":null,"streetname":"SCHOOL","streettype":"ST","suffdir":null,"city":"THOMPSONTOWN","state_code":"PA","zip5":"17094","latitude":"40.5653845940000000","longitude":"-77.238346634000000","publicwifi":"U","url":null,"broadband_type_id":null}
{"id":null,"anchorname":"SUSQUEHANNA TWP EL SCH","address":"2024 TURKEY VALLEY RD","bldgnbr":"2024","predir":null,"streetname":"Turkey Valley","streettype":"RD","suffdir":null,"city":"LIVERPOOL","state_code":"PA","zip5":"17045","latitude":"40.6313005110000000","longitude":"-77.004991291000000","publicwifi":"U","url":null,"broadband_type_id":null}
{"id":null,"anchorname":"MONROE TWP EL SCH","address":"ROUTE 35 SOUTH","bldgnbr":"ROUTE 35","predir":null,"streetname":"Route 35","streettype":null,"suffdir":"South","city":"RICHFIELD","state_code":"PA","zip5":"17086","latitude":"40.6863516210000000","longitude":"-77.121286397000000","publicwifi":"U","url":"http://www.jcsdk12.org/monroe","broadband_type_id":null}
{"id":null,"anchorname":"SCRANTON COUNSELING CENTER","address":"326 ADAMS AVE","bldgnbr":"326","predir":null,"streetname":"ADAMS","streettype":"AVE","suffdir":null,"city":"SCRANTON","state_code":"PA","zip5":"18503","latitude":"41.4084792560000000","longitude":"-75.660558547000000","publicwifi":"U","url":null,"broadband_type_id":null}
{"id":null,"anchorname":"SCRANTON COUNSELING CENTER","address":"320 ADAMS AVE","bldgnbr":"320","predir":null,"streetname":"ADAMS","streettype":"AVE","suffdir":null,"city":"SCRANTON","state_code":"PA","zip5":"18503","latitude":"41.4084078270000000","longitude":"-75.660640910000000","publicwifi":"U","url":null,"broadband_type_id":null}
{"id":null,"anchorname":"SYKESVILLE PUBLIC LIBRARY","address":"21 EAST MAIN ST","bldgnbr":"21","predir":"E","streetname":"MAIN","streettype":"ST","suffdir":null,"city":"Sykesville","state_code":"PA","zip5":"15865","latitude":"41.0505258450000000","longitude":"-78.822048954000000","publicwifi":"N","url":null,"broadband_type_id":6}
{"id":null,"anchorname":"WESTERN PENNSYLVANIA SCHOOL OF TAXIDERMY","address":"3058 ROUTE 36","bldgnbr":"3058","predir":null,"streetname":"RT 36","streettype":null,"suffdir":null,"city":"Oliveburg","state_code":"PA","zip5":"15764","latitude":"40.9988392680000000","longitude":"-79.040677088000000","publicwifi":"U","url":null,"broadband_type_id":6}
{"id":null,"anchorname":"PARKVIEW EL SCH","address":"478 MAIN ST","bldgnbr":"478","predir":null,"streetname":"MAIN","streettype":"ST","suffdir":null,"city":"ANITA","state_code":"PA","zip5":"15711","latitude":"40.9999625810000000","longitude":"-78.963263091000000","publicwifi":"U","url":"http://www.punxsy.k12.pa.us/domain/277","broadband_type_id":2}
{"id":null,"anchorname":"PUNXSUTAWNEY AREA HOSPITAL INC","address":"81 HILLCREST DRIVE","bldgnbr":"81","predir":null,"streetname":"HILLCREST","streettype":"DR","suffdir":null,"city":"Punxsutawney","state_code":"PA","zip5":"15767","latitude":"40.9610460040000000","longitude":"-78.999666003000000","publicwifi":"U","url":null,"broadband_type_id":3}
{"id":null,"anchorname":"PA STATE POLICE TROOP C-PUNXSUTAWNEY","address":"485 N FINDLEY ST","bldgnbr":"485","predir":"N","streetname":"FINDLEY","streettype":"ST","suffdir":null,"city":"PUNXSUTAWNEY","state_code":"PA","zip5":"15767","latitude":"40.9496050010000000","longitude":"-78.978394000000000","publicwifi":"U","url":null,"broadband_type_id":4}
{"id":null,"anchorname":"JEFFERSON COUNTY HEALTH DEPARTMENT","address":"203 N MAIN ST","bldgnbr":"203","predir":"N","streetname":"MAIN","streettype":"ST","suffdir":null,"city":"PUNXSUTAWNEY","state_code":"PA","zip5":"15767","latitude":"40.9459880010000000","longitude":"-78.993637000000000","publicwifi":"U","url":"http://webserver.health.state.pa.us/health/comm/comm.asp?COUNTY=all","broadband_type_id":3}
{"id":null,"anchorname":"PUNXSUTAWNEY CHRISTIAN SCHOOL","address":"216 N JEFFERSON ST","bldgnbr":"216","predir":"N","streetname":"JEFFERSON","streettype":"ST","suffdir":null,"city":"PUNXSUTAWNEY","state_code":"PA","zip5":"15767","latitude":"40.9454766780000000","longitude":"-78.970533633000000","publicwifi":"U","url":null,"broadband_type_id":6}
{"id":null,"anchorname":"PUNXSUTAWNEY MEMORIAL LIBRARY","address":"301 EAST MAHONING ST  STE 4","bldgnbr":"301","predir":"E","streetname":"MAHONING","streettype":"ST","suffdir":null,"city":"Punxsutawney","state_code":"PA","zip5":"15767","latitude":"40.9442785910000000","longitude":"-78.968394436000000","publicwifi":"Y","url":null,"broadband_type_id":6}
{"id":null,"anchorname":"PUNXSUTAWNEY POLICE DEPARTMENT","address":"301 E MAHONING ST","bldgnbr":"301","predir":"E","streetname":"MAHONING","streettype":"ST","suffdir":null,"city":"PUNXSUTAWNEY","state_code":"PA","zip5":"15767","latitude":"40.9442390010000000","longitude":"-78.968365000000000","publicwifi":"U","url":null,"broadband_type_id":4}
{"id":null,"anchorname":"SS COSMAS \u0026 DAMIAN ELEMENTARY SCHOOL","address":"205 N CHESTNUT ST","bldgnbr":"205","predir":"N","streetname":"CHESTNUT","streettype":"ST","suffdir":null,"city":"PUNXSUTAWNEY","state_code":"PA","zip5":"15767","latitude":"40.9430480960000000","longitude":"-78.984817804000000","publicwifi":"U","url":null,"broadband_type_id":6}
{"id":null,"anchorname":"JUNIATA MENNONITE SCHOOL","address":"298 LEONARD HILL RD","bldgnbr":"298","predir":null,"streetname":"LEONARD HILL","streettype":"RD","suffdir":null,"city":"MC ALISTERVILLE","state_code":"PA","zip5":"17049","latitude":"40.6471017740000000","longitude":"-77.269291517000000","publicwifi":"U","url":null,"broadband_type_id":6}
{"id":null,"anchorname":"JUNIATA COUNTY LIBRARY","address":"498 JEFFERSON ST","bldgnbr":"498","predir":null,"streetname":"JEFFERSON","streettype":"ST","suffdir":null,"city":"Mifflintown","state_code":"PA","zip5":"17059","latitude":"40.5698688190000000","longitude":"-77.392871567000000","publicwifi":"Y","url":null,"broadband_type_id":6}
{"id":null,"anchorname":"JUNIATA COUNTY HEALTH DEPARTMENT","address":"809 MARKET ST","bldgnbr":"809","predir":null,"streetname":"MARKET","streettype":"ST","suffdir":null,"city":"PORT ROYAL","state_code":"PA","zip5":"17082","latitude":"40.5314330010000000","longitude":"-77.390858000000000","publicwifi":"U","url":"http://webserver.health.state.pa.us/health/comm/comm.asp?COUNTY=all","broadband_type_id":3}
{"id":null,"anchorname":"LACKAWANNA COUNTY CHILDREN'S LIBRARY","address":"520 VINE STREET","bldgnbr":"520","predir":null,"streetname":"VINE","streettype":"ST","suffdir":null,"city":"Scranton","state_code":"PA","zip5":"18509","latitude":"41.4111161130000000","longitude":"-75.659036768000000","publicwifi":"Y","url":null,"broadband_type_id":6}
{"id":null,"anchorname":"LACKAWANNA COLLEGE","address":"501 VINE STREET","bldgnbr":"501","predir":null,"streetname":"VINE","streettype":"ST","suffdir":null,"city":"Scranton","state_code":"PA","zip5":"18509","latitude":"41.4114657290000000","longitude":"-75.659691655000000","publicwifi":"U","url":"www.lackawanna.edu","broadband_type_id":6}
{"id":null,"anchorname":"SCRANTON PUBLIC LIBRARY","address":"ALBRIGHT MEM BLDG, 500 VINE ST","bldgnbr":"N/A","predir":null,"streetname":"VINE","streettype":"ST","suffdir":null,"city":"Scranton","state_code":"PA","zip5":"18509","latitude":"41.4114245810000000","longitude":"-75.659768243000000","publicwifi":"Y","url":null,"broadband_type_id":6}
{"id":null,"anchorname":"REHAB \u0026 INDUSTRIAL SERVICES","address":"925 NORTH WELLS AVENUE WEST WENDOVER, NV 89883","bldgnbr":"925","predir":null,"streetname":"NORTH WELLS AVENUE","streettype":null,"suffdir":null,"city":"WEST WENDOVER","state_code":"NV","zip5":"89883","latitude":"40.7397090000000000","longitude":"-114.07561000000000","publicwifi":"U","url":null,"broadband_type_id":6}
{"id":null,"anchorname":"BAIS YAAKOV OF SCRANTON","address":"1025 VINE ST","bldgnbr":"1025","predir":null,"streetname":"VINE","streettype":"ST","suffdir":null,"city":"SCRANTON","state_code":"PA","zip5":"18510","latitude":"41.4075051300000000","longitude":"-75.653311392000000","publicwifi":"U","url":null,"broadband_type_id":6}
{"id":null,"anchorname":"LUTHERAN ACADEMY - SCRANTON","address":"238 REESE ST","bldgnbr":"238","predir":null,"streetname":"REESE","streettype":"ST","suffdir":null,"city":"SCRANTON","state_code":"PA","zip5":"18508","latitude":"41.4478392650000000","longitude":"-75.645934283000000","publicwifi":"U","url":null,"broadband_type_id":6}
{"id":null,"anchorname":"WILLIAM PRESCOTT #38","address":"840 PRESCOTT AVE","bldgnbr":"840","predir":null,"streetname":"Prescott","streettype":"AVE","suffdir":null,"city":"SCRANTON","state_code":"PA","zip5":"18510","latitude":"41.4089464950000000","longitude":"-75.643084168000000","publicwifi":"U","url":null,"broadband_type_id":6}
{"id":null,"anchorname":"SCRANTON HS","address":"63 MUNCHAK WAY","bldgnbr":"63","predir":null,"streetname":"MUNCHAK","streettype":"WAY","suffdir":null,"city":"SCRANTON","state_code":"PA","zip5":"18508","latitude":"41.4141581390000000","longitude":"-75.655275066000000","publicwifi":"U","url":null,"broadband_type_id":6}
{"id":null,"anchorname":"ALL SAINTS ACADEMY","address":"1425 JACKSON ST","bldgnbr":"1425","predir":null,"streetname":"JACKSON","streettype":"ST","suffdir":null,"city":"SCRANTON","state_code":"PA","zip5":"18504","latitude":"41.4141736530000000","longitude":"-75.683806606000000","publicwifi":"U","url":null,"broadband_type_id":6}
{"id":null,"anchorname":"LOURDESMONT-GOOD SHEPARD YOUTH-FMLY SVCS","address":"721 ADAMS AVE","bldgnbr":"721","predir":null,"streetname":"ADAMS","streettype":"AVE","suffdir":null,"city":"SCRANTON","state_code":"PA","zip5":"18510","latitude":"41.4133618110000000","longitude":"-75.655686585000000","publicwifi":"U","url":null,"broadband_type_id":6}
{"id":null,"anchorname":"CTC OF LACKAWANNA COUNTY","address":"3201 ROCKWELL AVE","bldgnbr":"3201","predir":null,"streetname":"ROCKWELL","streettype":"AVE","suffdir":null,"city":"SCRANTON","state_code":"PA","zip5":"18508","latitude":"41.4533248390000000","longitude":"-75.652774968000000","publicwifi":"U","url":"ctclc.edu","broadband_type_id":1}
{"id":null,"anchorname":"NEIL ARMSTRONG #40","address":"1500 N LINCOLN AVE","bldgnbr":"1500","predir":"N","streetname":"Lincoln","streettype":"AVE","suffdir":null,"city":"SCRANTON","state_code":"PA","zip5":"18508","latitude":"41.4344545500000000","longitude":"-75.665663130000000","publicwifi":"U","url":null,"broadband_type_id":6}
{"id":null,"anchorname":"CHARLES SUMNER #18","address":"372 N SUMNER AVE","bldgnbr":"372","predir":"N","streetname":"Sumner","streettype":"AVE","suffdir":null,"city":"SCRANTON","state_code":"PA","zip5":"18504","latitude":"41.4183345020000000","longitude":"-75.679852158000000","publicwifi":"U","url":null,"broadband_type_id":6}
{"id":null,"anchorname":"ALLIED SERVICES INSTITUTE OF REHAB","address":"472 MORGAN HIGHWAY","bldgnbr":"472","predir":null,"streetname":"MORGAN","streettype":"HWY","suffdir":null,"city":"Scranton","state_code":"PA","zip5":"18508","latitude":"41.4543241540000000","longitude":"-75.678551912000000","publicwifi":"U","url":"http://www.allied-services.org/","broadband_type_id":6}
{"id":null,"anchorname":"LOURDESMONT-GOOD SHEPARD YOUTH-FMLY SVCS","address":"1201 LUZERNE ST","bldgnbr":"1201","predir":null,"streetname":"LUZERNE","streettype":"ST","suffdir":null,"city":"SCRANTON","state_code":"PA","zip5":"18504","latitude":"41.4094466750000000","longitude":"-75.687049955000000","publicwifi":"U","url":null,"broadband_type_id":6}
{"id":null,"anchorname":"WEST SCRANTON HS","address":"1201 LUZERNE ST","bldgnbr":"1201","predir":null,"streetname":"LUZERNE","streettype":"ST","suffdir":null,"city":"SCRANTON","state_code":"PA","zip5":"18504","latitude":"41.4093457320000000","longitude":"-75.688128494000000","publicwifi":"U","url":null,"broadband_type_id":6}
{"id":null,"anchorname":"NORTHEAST INTRMD SCH","address":"721 ADAMS AVE","bldgnbr":"721","predir":null,"streetname":"ADAMS","streettype":"AVE","suffdir":null,"city":"SCRANTON","state_code":"PA","zip5":"18510","latitude":"41.4131854650000000","longitude":"-75.655773172000000","publicwifi":"U","url":null,"broadband_type_id":null}
{"id":null,"anchorname":"WEST SCRANTON INTRMD SCH","address":"1401 FELLOWS ST","bldgnbr":"1401","predir":null,"streetname":"Fellows","streettype":"ST","suffdir":null,"city":"SCRANTON","state_code":"PA","zip5":"18504","latitude":"41.4086791350000000","longitude":"-75.691397585000000","publicwifi":"U","url":null,"broadband_type_id":6}
{"id":null,"anchorname":"FRANCES WILLARD #32","address":"1100 EYNON ST","bldgnbr":"1100","predir":null,"streetname":"EYNON","streettype":"ST","suffdir":null,"city":"SCRANTON","state_code":"PA","zip5":"18504","latitude":"41.4057105620000000","longitude":"-75.686000182000000","publicwifi":"U","url":null,"broadband_type_id":6}
{"id":null,"anchorname":"MARYWOOD / TONY DOMIANO EARLY CHILDHOOD CENTER","address":"2300 ADAMS AVE MARYWOOD UNIVERSITY","bldgnbr":"2300","predir":null,"streetname":"ADAMS AVE MARYWOOD UNIVERSITY","streettype":null,"suffdir":null,"city":"SCRANTON","state_code":"PA","zip5":"18509","latitude":"41.4338725510000000","longitude":"-75.636252747000000","publicwifi":"U","url":null,"broadband_type_id":null}
{"id":null,"anchorname":"GEORGE BANCROFT #34","address":"1002 ALBRIGHT AVE","bldgnbr":"1002","predir":null,"streetname":"ALBRIGHT","streettype":"AVE","suffdir":null,"city":"SCRANTON","state_code":"PA","zip5":"18508","latitude":"41.4236605460000000","longitude":"-75.663106184000000","publicwifi":"U","url":null,"broadband_type_id":null}
{"id":null,"anchorname":"LINCOLN-JACKSON #14","address":"ACADEMY ST AND HYDE PARK AVE","bldgnbr":"0","predir":null,"streetname":"ACADEMY","streettype":"ST","suffdir":null,"city":"SCRANTON","state_code":"PA","zip5":"18505","latitude":"41.4108099740000000","longitude":"-75.685141206000000","publicwifi":"U","url":null,"broadband_type_id":null}
{"id":null,"anchorname":"SCRANTON POLICE DEPARTMENT","address":"100 S WASHINGTON AVE","bldgnbr":"100","predir":"S","streetname":"WASHINGTON","streettype":"AVE","suffdir":null,"city":"SCRANTON","state_code":"PA","zip5":"18503","latitude":"41.4067310010000000","longitude":"-75.665025000000000","publicwifi":"U","url":null,"broadband_type_id":4}
{"id":null,"anchorname":"SCRANTON HEBREW DAY SCHOOL","address":"540 MONROE AVE","bldgnbr":"540","predir":null,"streetname":"MONROE","streettype":"AVE","suffdir":null,"city":"SCRANTON","state_code":"PA","zip5":"18510","latitude":"41.4090083950000000","longitude":"-75.654492634000000","publicwifi":"U","url":null,"broadband_type_id":6}
{"id":null,"anchorname":"University of Scranton","address":"900 Linden St, Scranton, PA 18510","bldgnbr":"900","predir":null,"streetname":"Linden","streettype":"St","suffdir":null,"city":"Scranton","state_code":"PA","zip5":"18510","latitude":"41.4050520000000000","longitude":"-75.656450000000000","publicwifi":"U","url":"www.scranton.edu","broadband_type_id":6}
{"id":null,"anchorname":"COMMUNITY MEDICAL CENTER","address":"1800 MULBERRY STREET","bldgnbr":"1800","predir":null,"streetname":"MULBERRY","streettype":"ST","suffdir":null,"city":"Scranton","state_code":"PA","zip5":"18510","latitude":"41.4002060000000000","longitude":"-75.646222999000000","publicwifi":"U","url":"http://cmccare.org/","broadband_type_id":3}
{"id":null,"anchorname":"MERCY HOSPITAL - SCRANTON","address":"746 JEFFERSON AVENUE","bldgnbr":"746","predir":null,"streetname":"JEFFERSON","streettype":"AVE","suffdir":null,"city":"Scranton","state_code":"PA","zip5":"18501","latitude":"41.4128076330000000","longitude":"-75.653973406000000","publicwifi":"U","url":null,"broadband_type_id":3}
{"id":null,"anchorname":"MOSES TAYLOR HOSPITAL","address":"700 QUINCY AVENUE","bldgnbr":"700","predir":null,"streetname":"QUINCY","streettype":"AVE","suffdir":null,"city":"Scranton","state_code":"PA","zip5":"18510","latitude":"41.4105879960000000","longitude":"-75.650378003000000","publicwifi":"U","url":null,"broadband_type_id":3}
{"id":null,"anchorname":"MOSES TAYLOR HOSPITAL-BEHAVIORAL HEALTH","address":"700 QUINCY AVE","bldgnbr":"700","predir":null,"streetname":"QUINCY","streettype":"AVE","suffdir":null,"city":"SCRANTON","state_code":"PA","zip5":"18510","latitude":"41.4100882660000000","longitude":"-75.651217395000000","publicwifi":"U","url":null,"broadband_type_id":3}
{"id":null,"anchorname":"SCRANTON PREPARATORY SCHOOL","address":"1000 WYOMING AVE","bldgnbr":"1000","predir":null,"streetname":"WYOMING","streettype":"AVE","suffdir":null,"city":"SCRANTON","state_code":"PA","zip5":"18509","latitude":"41.4182594660000000","longitude":"-75.654441285000000","publicwifi":"U","url":null,"broadband_type_id":6}
{"id":null,"anchorname":"ALLIED MEDICAL \u0026 TECHNICAL INSTITUTE","address":"517 ASH STREET SUITE 200","bldgnbr":"517","predir":null,"streetname":"ASH","streettype":"ST","suffdir":null,"city":"Scranton","state_code":"PA","zip5":"18509","latitude":"41.4169100640000000","longitude":"-75.652374884000000","publicwifi":"U","url":"http://www.fortis.edu/","broadband_type_id":3}
{"id":null,"anchorname":"ST PAUL SCHOOL","address":"1527 PENN AVE","bldgnbr":"1527","predir":null,"streetname":"PENN","streettype":"AVE","suffdir":null,"city":"SCRANTON","state_code":"PA","zip5":"18509","latitude":"41.4259010560000000","longitude":"-75.648849963000000","publicwifi":"U","url":null,"broadband_type_id":6}
{"id":null,"anchorname":"MARYWOOD UNIVERSITY","address":"2300 ADAMS AVENUE","bldgnbr":"2300","predir":null,"streetname":"ADAMS","streettype":"AVE","suffdir":null,"city":"Scranton","state_code":"PA","zip5":"18509","latitude":"41.4329013380000000","longitude":"-75.637138826000000","publicwifi":"U","url":"www.marywood.edu/","broadband_type_id":6}
{"id":null,"anchorname":"SCRANTON STATE SCHOOL FOR DEAF","address":"1800 N WASHINGTON AVE","bldgnbr":"1800","predir":"N","streetname":"WASHINGTON","streettype":"AVE","suffdir":null,"city":"SCRANTON","state_code":"PA","zip5":"18509","latitude":"41.4295105340000000","longitude":"-75.641840136000000","publicwifi":"U","url":null,"broadband_type_id":6}
{"id":null,"anchorname":"REVIVAL BAPTIST CHRISTIAN SCHOOL","address":"2020 N MAIN AVE","bldgnbr":"2020","predir":"N","streetname":"MAIN","streettype":"AVE","suffdir":null,"city":"SCRANTON","state_code":"PA","zip5":"18508","latitude":"41.4385954150000000","longitude":"-75.654093278000000","publicwifi":"U","url":null,"broadband_type_id":6}
{"id":null,"anchorname":"JOHNSON COLLEGE","address":"3427 NORTH MAIN AVENUE","bldgnbr":"3427","predir":"N","streetname":"MAIN","streettype":"AVE","suffdir":null,"city":"Scranton","state_code":"PA","zip5":"18508","latitude":"41.4490787340000000","longitude":"-75.639726290000000","publicwifi":"U","url":"http://www.johnson.edu/","broadband_type_id":6}
{"id":null,"anchorname":"PENN FOSTER CAREER SCHOOL","address":"925 OAK STREET","bldgnbr":"925","predir":null,"streetname":"OAK","streettype":"ST","suffdir":null,"city":"Scranton","state_code":"PA","zip5":"18515","latitude":"41.4472378290000000","longitude":"-75.669048487000000","publicwifi":"U","url":null,"broadband_type_id":3}
{"id":null,"anchorname":"LITTLE PEOPLE DAYCARE SCHOOL","address":"910 OAK ST","bldgnbr":"910","predir":null,"streetname":"OAK","streettype":"ST","suffdir":null,"city":"SCRANTON","state_code":"PA","zip5":"18508","latitude":"41.4468259620000000","longitude":"-75.666490955000000","publicwifi":"U","url":null,"broadband_type_id":3}
{"id":null,"anchorname":"DEPAUL SCHOOL","address":"475 MORGAN HWY","bldgnbr":"475","predir":null,"streetname":"MORGAN","streettype":"HWY","suffdir":null,"city":"SCRANTON","state_code":"PA","zip5":"18501","latitude":"41.4542751220000000","longitude":"-75.677639563000000","publicwifi":"U","url":null,"broadband_type_id":6}
{"id":null,"anchorname":"MARSHALL JOHN SCH","address":"4500 GRISCOM ST","bldgnbr":"4500","predir":null,"streetname":"GRISCOM","streettype":"ST","suffdir":null,"city":"PHILADELPHIA","state_code":"PA","zip5":"19124","latitude":"41.4229145210000000","longitude":"-75.677028627000000","publicwifi":"U","url":null,"broadband_type_id":1}
{"id":null,"anchorname":"JOHN MARSHALL #41","address":"1415 ORAM ST","bldgnbr":"1415","predir":null,"streetname":"ORAM","streettype":"ST","suffdir":null,"city":"SCRANTON","state_code":"PA","zip5":"18504","latitude":"41.4232061120000000","longitude":"-75.676464508000000","publicwifi":"U","url":null,"broadband_type_id":1}
{"id":null,"anchorname":"MARIAN CATHOLIC SCHOOL","address":"638 HEMLOCK ST","bldgnbr":"638","predir":null,"streetname":"HEMLOCK","streettype":"ST","suffdir":null,"city":"SCRANTON","state_code":"PA","zip5":"18505","latitude":"41.4007804360000000","longitude":"-75.658649395000000","publicwifi":"U","url":null,"broadband_type_id":6}
{"id":null,"anchorname":"JOHN G WHITTIER #2","address":"700 ORCHARD ST","bldgnbr":"700","predir":null,"streetname":"ORCHARD","streettype":"ST","suffdir":null,"city":"SCRANTON","state_code":"PA","zip5":"18505","latitude":"41.3994125300000000","longitude":"-75.658635215000000","publicwifi":"U","url":null,"broadband_type_id":null}
{"id":null,"anchorname":"SOUTH SCRANTON INTRMD SCH","address":"355 MAPLE ST","bldgnbr":"355","predir":null,"streetname":"MAPLE","streettype":"ST","suffdir":null,"city":"SCRANTON","state_code":"PA","zip5":"18505","latitude":"41.3977482260000000","longitude":"-75.670915459000000","publicwifi":"U","url":null,"broadband_type_id":null}
{"id":null,"anchorname":"ESMERALDA COUNTY AMBULANCE","address":"233 CROOK STREET GOLDFIELD, NV 89013","bldgnbr":"233","predir":null,"streetname":"CROOK STREET","streettype":null,"suffdir":null,"city":"GOLDFIELD","state_code":"NV","zip5":"89013","latitude":"37.7064030000000000","longitude":"-117.23018700000000","publicwifi":"U","url":null,"broadband_type_id":6}
{"id":null,"anchorname":"ST ROSE ACADEMY","address":"1300 OLD PLANK RD","bldgnbr":"1300","predir":null,"streetname":"PLANK","streettype":"RD","suffdir":null,"city":"MAYFIELD","state_code":"PA","zip5":"18433","latitude":"41.5429081680000000","longitude":"-75.537445602000000","publicwifi":"U","url":null,"broadband_type_id":6}
{"id":null,"anchorname":"FUEL ISLAND BUILDING-FORESTRY","address":"8105 CONSERVATION RD WINNEMUCCA, NV 89446","bldgnbr":"8105","predir":null,"streetname":"CONSERVATION RD","streettype":null,"suffdir":null,"city":"WINNEMUCCA","state_code":"NV","zip5":"89446","latitude":"40.9008530000000000","longitude":"-117.91961200000000","publicwifi":"U","url":null,"broadband_type_id":2}
{"id":null,"anchorname":"MCNICHOLS PLAZA","address":"1111 S IRVING AVE","bldgnbr":"1111","predir":"S","streetname":"IRVING","streettype":"AVE","suffdir":null,"city":"SCRANTON","state_code":"PA","zip5":"18505","latitude":"41.3910721920000000","longitude":"-75.664072325000000","publicwifi":"U","url":null,"broadband_type_id":null}
{"id":null,"anchorname":"KIDSPEACE","address":"930 MEADOW AVE STE 2C","bldgnbr":"930","predir":null,"streetname":"MEADOW","streettype":"AVE","suffdir":null,"city":"SCRANTON","state_code":"PA","zip5":"18505","latitude":"41.3898033920000000","longitude":"-75.657641965000000","publicwifi":"U","url":"http://www.kidspeace.org/locations.aspx?id=3200\u0026ekmensel=c584fa7b_80_0_3200_1","broadband_type_id":null}
{"id":null,"anchorname":"FRIENDSHIP HOUSE","address":"1615 E ELM ST","bldgnbr":"1615","predir":"E","streetname":"ELM","streettype":"ST","suffdir":null,"city":"SCRANTON","state_code":"PA","zip5":"18505","latitude":"41.3832799730000000","longitude":"-75.649612897000000","publicwifi":"U","url":"http://www.friendshiphousepa.org/index.html","broadband_type_id":null}
{"id":null,"anchorname":"HOWARD GARDNER MULTIPLE INTELLIGENCE CS","address":"1615 EAST ELM STREET","bldgnbr":"1615","predir":"E","streetname":"ELM","streettype":"ST","suffdir":null,"city":"SCRANTON","state_code":"PA","zip5":"18505","latitude":"41.3831318130000000","longitude":"-75.648158645000000","publicwifi":"U","url":null,"broadband_type_id":null}
{"id":null,"anchorname":"JOHN F. KENNEDY #7","address":"PROSPECT AVE AND SAGINAW ST","bldgnbr":"0","predir":null,"streetname":"PROSPECT","streettype":"AVE","suffdir":null,"city":"SCRANTON","state_code":"PA","zip5":"18505","latitude":"41.3836155350000000","longitude":"-75.679670496000000","publicwifi":"U","url":null,"broadband_type_id":null}
{"id":null,"anchorname":"LAKELAND JSHS","address":"1593 LAKELAND DR","bldgnbr":"1593","predir":null,"streetname":"LAKELAND","streettype":"DR","suffdir":null,"city":"JERMYN","state_code":"PA","zip5":"18433","latitude":"41.5594941900000000","longitude":"-75.604821177000000","publicwifi":"U","url":null,"broadband_type_id":6}
{"id":null,"anchorname":"FELL CS","address":"777 MAIN STREET","bldgnbr":"777","predir":null,"streetname":"MAIN","streettype":"ST","suffdir":null,"city":"SIMPSON","state_code":"PA","zip5":"18407","latitude":"41.6304524330000000","longitude":"-75.483510191000000","publicwifi":"U","url":null,"broadband_type_id":null}
{"id":null,"anchorname":"ABINGTON CHRISTIAN ACADEMY","address":"204 S ABINGTON RD","bldgnbr":"204","predir":"S","streetname":"ABINGTON","streettype":"RD","suffdir":null,"city":"CLARKS GREEN","state_code":"PA","zip5":"18411","latitude":"41.4971393790000000","longitude":"-75.695250655000000","publicwifi":"U","url":null,"broadband_type_id":6}
{"id":null,"anchorname":"LAKELAND EL SCH","address":"1569 LAKELAND DR","bldgnbr":"1569","predir":null,"streetname":"LAKELAND","streettype":"DR","suffdir":null,"city":"JERMYN","state_code":"PA","zip5":"18433","latitude":"41.5569511500000000","longitude":"-75.606150792000000","publicwifi":"U","url":null,"broadband_type_id":null}
{"id":null,"anchorname":"ABINGTON HEIGHTS HS","address":"222 NOBLE RD","bldgnbr":"222","predir":null,"streetname":"NOBLE","streettype":"RD","suffdir":null,"city":"SOUTH ABINGTON TWP","state_code":"PA","zip5":"18411","latitude":"41.4930469920000000","longitude":"-75.724163918000000","publicwifi":"U","url":"http://www.ahsd.org/hs/index2.htm","broadband_type_id":6}
{"id":null,"anchorname":"SUMMIT CHRISTIAN ACADEMY","address":"232 NOBLE RD","bldgnbr":"232","predir":null,"streetname":"NOBLE","streettype":"RD","suffdir":null,"city":"SOUTH ABINGTON TOWNSHI","state_code":"PA","zip5":"18411","latitude":"41.4932934570000000","longitude":"-75.720652777000000","publicwifi":"U","url":null,"broadband_type_id":6}
{"id":null,"anchorname":"BAPTIST BIBLE COL AND SEMINARY","address":"538 VENARD RD PO BOX 800","bldgnbr":"538","predir":null,"streetname":"VENARD","streettype":"RD","suffdir":null,"city":"Clarks Summit","state_code":"PA","zip5":"18411","latitude":"41.4974960150000000","longitude":"-75.684225523000000","publicwifi":"U","url":"www.bbc.edu","broadband_type_id":6}
{"id":null,"anchorname":"TRI-COUNTY HUMAN SERVICES CENTER INC","address":"185 FALLBROOK ST","bldgnbr":"185","predir":null,"streetname":"FALLBROOK","streettype":"ST","suffdir":null,"city":"CARBONDALE","state_code":"PA","zip5":"18407","latitude":"41.5818472800000000","longitude":"-75.511578762000000","publicwifi":"U","url":null,"broadband_type_id":6}
{"id":null,"anchorname":"ST GREGORY'S EARLY CHILDHOOD CENTER","address":"330 N ABINGTON RD","bldgnbr":"330","predir":"N","streetname":"ABINGTON","streettype":"RD","suffdir":null,"city":"CLARKS GREEN","state_code":"PA","zip5":"18411","latitude":"41.5039834160000000","longitude":"-75.697565964000000","publicwifi":"U","url":null,"broadband_type_id":null}
{"id":null,"anchorname":"WAVERLY SCH","address":"103 WAVERLY RD PO BOX J","bldgnbr":"103","predir":null,"streetname":"WAVERLY","streettype":"RD","suffdir":null,"city":"WAVERLY","state_code":"PA","zip5":"18471","latitude":"41.5259734960000000","longitude":"-75.706175888000000","publicwifi":"U","url":null,"broadband_type_id":null}
{"id":null,"anchorname":"SOUTH ABINGTON SCH","address":"640 NORTHERN BLVD","bldgnbr":"640","predir":null,"streetname":"NORTHERN","streettype":"BLVD","suffdir":null,"city":"CHINCHILLA","state_code":"PA","zip5":"18411","latitude":"41.4771240040000000","longitude":"-75.683721706000000","publicwifi":"U","url":"http://www.ahsd.org/sa/","broadband_type_id":null}
{"id":null,"anchorname":"CARBONDALE AREA JSHS","address":"101 BROOKLYN STREET","bldgnbr":"101","predir":null,"streetname":"BROOKLYN","streettype":"ST","suffdir":null,"city":"CARBONDALE","state_code":"PA","zip5":"18407","latitude":"41.5662064890000000","longitude":"-75.515110201000000","publicwifi":"U","url":null,"broadband_type_id":6}
{"id":null,"anchorname":"CLARKS SUMMIT EL SCH","address":"401 W GROVE ST","bldgnbr":"401","predir":"W","streetname":"GROVE","streettype":"ST","suffdir":null,"city":"CLARKS SUMMIT","state_code":"PA","zip5":"18411","latitude":"41.4888803530000000","longitude":"-75.703052705000000","publicwifi":"U","url":null,"broadband_type_id":null}
{"id":null,"anchorname":"MAYFIELD EL SCH","address":"501 LINDEN ST","bldgnbr":"501","predir":null,"streetname":"LINDEN","streettype":"ST","suffdir":null,"city":"MAYFIELD","state_code":"PA","zip5":"18433","latitude":"41.5434238440000000","longitude":"-75.533045183000000","publicwifi":"U","url":null,"broadband_type_id":null}
{"id":null,"anchorname":"CARBONDALE EL SCH","address":"103 BROOKLYN ST","bldgnbr":"103","predir":null,"streetname":"BROOKLYN","streettype":"ST","suffdir":null,"city":"CARBONDALE","state_code":"PA","zip5":"18407","latitude":"41.5682026820000000","longitude":"-75.515347354000000","publicwifi":"U","url":null,"broadband_type_id":null}
{"id":null,"anchorname":"MILTON EISNER YESHIVA HIGH SCHOOL","address":"930 HICKORY ST","bldgnbr":"930","predir":null,"streetname":"HICKORY","streettype":"ST","suffdir":null,"city":"SCRANTON","state_code":"PA","zip5":"18501","latitude":"41.3948618820000000","longitude":"-75.656130938000000","publicwifi":"U","url":null,"broadband_type_id":6}
{"id":null,"anchorname":"CARBONDALE TOWNSHIP POLICE DEPARTMENT","address":"729 MORSE AVE","bldgnbr":"729","predir":null,"streetname":"MORSE","streettype":"AVE","suffdir":null,"city":"CARBONDALE","state_code":"PA","zip5":"18407","latitude":"41.5870240010000000","longitude":"-75.477940000000000","publicwifi":"U","url":"http://www.usacops.com/pa/p18407ct/index.html","broadband_type_id":4}
{"id":null,"anchorname":"DALTON COMMUNITY LIBRARY","address":"113 EAST MAIN ST PO BOX 86","bldgnbr":"113","predir":"E","streetname":"MAIN","streettype":"ST","suffdir":null,"city":"Dalton","state_code":"PA","zip5":"18414","latitude":"41.5348692040000000","longitude":"-75.736971725000000","publicwifi":"Y","url":null,"broadband_type_id":6}
{"id":null,"anchorname":"DALTON BOROUGH POLICE DEPARTMENT","address":"109 S TURNPIKE RD","bldgnbr":"109","predir":"S","streetname":"TURNPIKE","streettype":"RD","suffdir":null,"city":"DALTON","state_code":"PA","zip5":"18414","latitude":"41.5323510010000000","longitude":"-75.735633000000000","publicwifi":"U","url":"http://daltonpa.com/contacts.htm","broadband_type_id":4}
{"id":null,"anchorname":"Dalton Community Library","address":"113 East Main Street","bldgnbr":"113","predir":"E","streetname":"Main","streettype":"St","suffdir":null,"city":"Dalton","state_code":"PA","zip5":"18414","latitude":"41.5340625140000000","longitude":"-75.735161844000000","publicwifi":"Y","url":null,"broadband_type_id":6}
{"id":null,"anchorname":"OUR LADY OF PEACE SCHOOL","address":"410 N ABINGTON RD","bldgnbr":"410","predir":"N","streetname":"ABINGTON","streettype":"RD","suffdir":null,"city":"CLARKS GREEN","state_code":"PA","zip5":"18411","latitude":"41.5049852340000000","longitude":"-75.697784393000000","publicwifi":"U","url":null,"broadband_type_id":6}
{"id":null,"anchorname":"SOUTH ABINGTON TOWNSHIP POLICE DEPT","address":"104 SHADY LN RD","bldgnbr":"104","predir":null,"streetname":"SHADY LN","streettype":"RD","suffdir":null,"city":"CHINCHILLA","state_code":"PA","zip5":"18410","latitude":"41.4956180010000000","longitude":"-75.704850000000000","publicwifi":"U","url":null,"broadband_type_id":4}
{"id":null,"anchorname":"ABINGTON TOWNSHIP POLICE DEPARTMENT","address":"8 LAKE HENRY DR","bldgnbr":"8","predir":null,"streetname":"LAKE HENRY","streettype":"DR","suffdir":null,"city":"WAVERLY","state_code":"PA","zip5":"18471","latitude":"41.4956180010000000","longitude":"-75.704850000000000","publicwifi":"U","url":null,"broadband_type_id":4}
{"id":null,"anchorname":"CLARKS SUMMIT POLICE DEPARTMENT","address":"304 S STATE ST","bldgnbr":"304","predir":"S","streetname":"STATE","streettype":"ST","suffdir":null,"city":"CLARKS SUMMIT","state_code":"PA","zip5":"18411","latitude":"41.4941930010000000","longitude":"-75.703005000000000","publicwifi":"U","url":null,"broadband_type_id":4}
{"id":null,"anchorname":"ABINGTON COMMUNITY LIBRARY","address":"1200 W GROVE ST","bldgnbr":"1200","predir":"W","streetname":"GROVE","streettype":"ST","suffdir":null,"city":"Clarks Summit","state_code":"PA","zip5":"18411","latitude":"41.4859873160000000","longitude":"-75.714845209000000","publicwifi":"Y","url":null,"broadband_type_id":6}
{"id":null,"anchorname":"MAYFIELD POLICE","address":"739 PENN AVENUE","bldgnbr":"739","predir":null,"streetname":"PENN","streettype":"AVE","suffdir":null,"city":"Mayfield","state_code":"PA","zip5":"18433","latitude":"41.5397677780000000","longitude":"-75.537447222000000","publicwifi":"U","url":null,"broadband_type_id":4}
{"id":null,"anchorname":"SACRED HEART ELEMENTARY SCHOOL","address":"27 FARVIEW ST 33","bldgnbr":"27","predir":null,"streetname":"FARVIEW ST 33","streettype":null,"suffdir":null,"city":"CARBONDALE","state_code":"PA","zip5":"18407","latitude":"41.5796384920000000","longitude":"-75.503845989000000","publicwifi":"U","url":null,"broadband_type_id":6}
{"id":null,"anchorname":"MARIAN COMMUNITY HOSPITAL","address":"100 LINCOLN AVENUE","bldgnbr":"100","predir":null,"streetname":"LINCOLN","streettype":"AVE","suffdir":null,"city":"Carbondale","state_code":"PA","zip5":"18407","latitude":"41.5717820050000000","longitude":"-75.496241999000000","publicwifi":"U","url":null,"broadband_type_id":3}
{"id":null,"anchorname":"CARBONDALE PUBLIC LIBRARY","address":"5 NORTH MAIN ST","bldgnbr":"5","predir":"N","streetname":"MAIN","streettype":"ST","suffdir":null,"city":"Carbondale","state_code":"PA","zip5":"18407","latitude":"41.5724255210000000","longitude":"-75.502833068000000","publicwifi":"Y","url":null,"broadband_type_id":6}
{"id":null,"anchorname":"CARBONDALE POLICE DEPARTMENT","address":"1 N MAIN ST","bldgnbr":"1","predir":"N","streetname":"MAIN","streettype":"ST","suffdir":null,"city":"CARBONDALE","state_code":"PA","zip5":"18407","latitude":"41.5721650010000000","longitude":"-75.502837000000000","publicwifi":"U","url":"http://www.usacops.com/pa/p18407/index.html","broadband_type_id":4}
{"id":null,"anchorname":"EUREKA COUNTY VOLUNTEER EMS","address":"10 S MAIN ST EUREKA, NV 89316","bldgnbr":"10","predir":null,"streetname":"S MAIN ST","streettype":null,"suffdir":null,"city":"EUREKA","state_code":"NV","zip5":"89316","latitude":"39.5088430000000000","longitude":"-115.96012100000000","publicwifi":"U","url":null,"broadband_type_id":6}
{"id":null,"anchorname":"LASALLE ACADEMY","address":"309 1ST AVE","bldgnbr":"309","predir":null,"streetname":"1ST","streettype":"AVE","suffdir":null,"city":"JESSUP","state_code":"PA","zip5":"18434","latitude":"41.4745508950000000","longitude":"-75.567162943000000","publicwifi":"U","url":null,"broadband_type_id":6}
{"id":null,"anchorname":"VALLEY VIEW INTRMD SCH","address":"3 COLUMBUS DR","bldgnbr":"3","predir":null,"streetname":"COLUMBUS","streettype":"DR","suffdir":null,"city":"ARCHBALD","state_code":"PA","zip5":"18403","latitude":"41.4978408900000000","longitude":"-75.560918471000000","publicwifi":"U","url":null,"broadband_type_id":null}
{"id":null,"anchorname":"ST GREGORYS ACADEMY","address":"100 GRIFFIN RD","bldgnbr":"100","predir":null,"streetname":"GRIFFIN","streettype":"RD","suffdir":null,"city":"MOSCOW","state_code":"PA","zip5":"18444","latitude":"41.3798840300000000","longitude":"-75.544495765000000","publicwifi":"U","url":null,"broadband_type_id":6}
{"id":null,"anchorname":"TRANS AMERICAN TECHNICAL INSTITUTE, INC.","address":"109 TRANS AMERICAN ROAD","bldgnbr":"109","predir":null,"streetname":"TRANS AMERICAN","streettype":"RD","suffdir":null,"city":"Jermyn","state_code":"PA","zip5":"18433","latitude":"41.4977423050000000","longitude":"-75.569647169000000","publicwifi":"U","url":null,"broadband_type_id":null}
{"id":null,"anchorname":"REHAB AND INDUSTRIAL SERVICES, LLP","address":"325 HANSON ST WINNEMUCCA, NV 89445","bldgnbr":"325","predir":null,"streetname":"HANSON ST","streettype":null,"suffdir":null,"city":"WINNEMUCCA","state_code":"NV","zip5":"89445","latitude":"40.9675210000000000","longitude":"-117.73965500000000","publicwifi":"U","url":null,"broadband_type_id":6}
{"id":null,"anchorname":"VALLEY VIEW MS","address":"1 COLUMBUS DR","bldgnbr":"1","predir":null,"streetname":"COLUMBUS","streettype":"DR","suffdir":null,"city":"ARCHBALD","state_code":"PA","zip5":"18403","latitude":"41.4931465340000000","longitude":"-75.559176227000000","publicwifi":"U","url":null,"broadband_type_id":6}
{"id":null,"anchorname":"NORTH POCONO MS","address":"701 CHURCH ST","bldgnbr":"701","predir":null,"streetname":"CHURCH","streettype":"ST","suffdir":null,"city":"MOSCOW","state_code":"PA","zip5":"18444","latitude":"41.3374473040000000","longitude":"-75.531466897000000","publicwifi":"U","url":null,"broadband_type_id":6}
{"id":null,"anchorname":"VALLEY VIEW EL CTR","address":"901 MAIN ST","bldgnbr":"901","predir":null,"streetname":"MAIN","streettype":"ST","suffdir":null,"city":"PECKVILLE","state_code":"PA","zip5":"18452","latitude":"41.4785675940000000","longitude":"-75.584954086000000","publicwifi":"U","url":"http://www.valleyviewsd.org/235120102812536213/site/default.asp?","broadband_type_id":null}
{"id":null,"anchorname":"ABINGTON HEIGHTS MS","address":"1555 NEWTON RANSOM BLVD","bldgnbr":"1555","predir":null,"streetname":"Newton Ransom","streettype":"BLVD","suffdir":null,"city":"CLARKS SUMMIT","state_code":"PA","zip5":"18411","latitude":"41.4747972600000000","longitude":"-75.751413695000000","publicwifi":"U","url":"http://ms.ahsd.org/","broadband_type_id":6}
{"id":null,"anchorname":"RIVERSIDE JSHS","address":"310 DAVIS ST","bldgnbr":"310","predir":null,"streetname":"DAVIS","streettype":"ST","suffdir":null,"city":"TAYLOR","state_code":"PA","zip5":"18517","latitude":"41.3813741880000000","longitude":"-75.719246023000000","publicwifi":"U","url":null,"broadband_type_id":6}
{"id":null,"anchorname":"RIVERSIDE EL SCH WEST","address":"300 DAVIS ST","bldgnbr":"300","predir":null,"streetname":"DAVIS","streettype":"ST","suffdir":null,"city":"TAYLOR","state_code":"PA","zip5":"18517","latitude":"41.3793524790000000","longitude":"-75.720168939000000","publicwifi":"U","url":null,"broadband_type_id":6}
{"id":null,"anchorname":"MID VALLEY SECONDARY CENTER","address":"52 UNDERWOOD RD","bldgnbr":"52","predir":null,"streetname":"UNDERWOOD","streettype":"RD","suffdir":null,"city":"THROOP","state_code":"PA","zip5":"18512","latitude":"41.4486007700000000","longitude":"-75.602203370000000","publicwifi":"U","url":null,"broadband_type_id":null}
{"id":null,"anchorname":"MID VALLEY EL CTR","address":"50 UNDERWOOD RD","bldgnbr":"50","predir":null,"streetname":"UNDERWOOD","streettype":"RD","suffdir":null,"city":"THROOP","state_code":"PA","zip5":"18512","latitude":"41.4470445510000000","longitude":"-75.603767038000000","publicwifi":"U","url":null,"broadband_type_id":null}
{"id":null,"anchorname":"JEFFERSON EL SCH","address":"825 LIONS RD","bldgnbr":"825","predir":null,"streetname":"Lions","streettype":"Rd","suffdir":null,"city":"LAKE ARIEL","state_code":"PA","zip5":"18436","latitude":"41.4143244990000000","longitude":"-75.501916302000000","publicwifi":"U","url":"http://www.npsd.org/index.php?option=com_content\u0026task=blogsection\u0026id=16\u0026Itemid=126","broadband_type_id":null}
{"id":null,"anchorname":"MOSCOW EL SCH","address":"851 CHURCH ST","bldgnbr":"851","predir":null,"streetname":"Church","streettype":"St","suffdir":null,"city":"MOSCOW","state_code":"PA","zip5":"18444","latitude":"41.3374880520000000","longitude":"-75.534389201000000","publicwifi":"U","url":"http://www.npsd.org/index.php?option=com_content\u0026task=blogsection\u0026id=13\u0026Itemid=123","broadband_type_id":null}
{"id":null,"anchorname":"NORTH POCONO INTMD SCH","address":"701 CHURCH ST","bldgnbr":"701","predir":null,"streetname":"Church","streettype":"St","suffdir":null,"city":"MOSCOW","state_code":"PA","zip5":"18444","latitude":"41.3369859220000000","longitude":"-75.531735088000000","publicwifi":"U","url":"http://www.npsd.org/index.php?option=com_content\u0026t","broadband_type_id":null}
{"id":null,"anchorname":"DUNMORE EL CTR","address":"300 W WARREN ST","bldgnbr":"300","predir":"W","streetname":"WARREN","streettype":"ST","suffdir":null,"city":"DUNMORE","state_code":"PA","zip5":"18512","latitude":"41.4277541040000000","longitude":"-75.635610447000000","publicwifi":"U","url":null,"broadband_type_id":null}
{"id":null,"anchorname":"ITT TECHNICAL INSTITUTE/DUNMORE","address":"1000 MEADE STREET","bldgnbr":"1000","predir":null,"streetname":"MEADE","streettype":"ST","suffdir":null,"city":"Dunmore","state_code":"PA","zip5":"18512","latitude":"41.4123668280000000","longitude":"-75.618302544000000","publicwifi":"U","url":"www.itt-tech.edu","broadband_type_id":null}
{"id":null,"anchorname":"NEWTON-RANSOM SCH","address":"1549 NEWTON-RANSON BLVD","bldgnbr":"1549","predir":null,"streetname":"Newton-Ranson","streettype":"BLVD","suffdir":null,"city":"CLARKS SUMMIT","state_code":"PA","zip5":"18411","latitude":"41.4733572530000000","longitude":"-75.748376926000000","publicwifi":"U","url":"http://www.ahsd.org/nr/","broadband_type_id":null}
{"id":null,"anchorname":"MID-VALLEY HOSPITAL","address":"1400 MAIN STREET","bldgnbr":"1400","predir":null,"streetname":"MAIN","streettype":"ST","suffdir":null,"city":"Peckville","state_code":"PA","zip5":"18452","latitude":"41.4808230000000000","longitude":"-75.596062996000000","publicwifi":"U","url":null,"broadband_type_id":3}
{"id":null,"anchorname":"BLAKELY BOROUGH POLICE DEPARTMENT","address":"1439 MAIN ST","bldgnbr":"1439","predir":null,"streetname":"MAIN","streettype":"ST","suffdir":null,"city":"PECKVILLE","state_code":"PA","zip5":"18452","latitude":"41.4801440010000000","longitude":"-75.596182000000000","publicwifi":"U","url":"http://www.usacops.com/pa/p18452/index.html","broadband_type_id":4}
{"id":null,"anchorname":"JESSUP POLICE DEPARTMENT","address":"395 LANE ST","bldgnbr":"395","predir":null,"streetname":"LANE","streettype":"ST","suffdir":null,"city":"JESSUP","state_code":"PA","zip5":"18434","latitude":"41.4720380010000000","longitude":"-75.567781000000000","publicwifi":"U","url":"http://www.usacops.com/pa/p18434/index.html","broadband_type_id":4}
{"id":null,"anchorname":"THE GENEVA SCHOOL","address":"133 RIVER ST","bldgnbr":"133","predir":null,"streetname":"River","streettype":"ST","suffdir":null,"city":"OLYPHANT","state_code":"PA","zip5":"18447","latitude":"41.4705821650000000","longitude":"-75.606071410000000","publicwifi":"U","url":null,"broadband_type_id":6}
{"id":null,"anchorname":"OLYPHANT BOROUGH POLICE DEPARTMENT","address":"604 PARK ST","bldgnbr":"604","predir":null,"streetname":"PARK","streettype":"ST","suffdir":null,"city":"OLYPHANT","state_code":"PA","zip5":"18447","latitude":"41.4674230010000000","longitude":"-75.597103000000000","publicwifi":"U","url":"http://www.usacops.com/pa/p18447/index.html","broadband_type_id":4}
{"id":null,"anchorname":"DICKSON CITY POLICE DEPARTMENT","address":"801 BOULEVARD AVE","bldgnbr":"801","predir":null,"streetname":"BOULEVARD","streettype":"AVE","suffdir":null,"city":"DICKSON CITY","state_code":"PA","zip5":"18519","latitude":"41.4581780010000000","longitude":"-75.623571000000000","publicwifi":"U","url":"http://www.usacops.com/pa/p18519/index.html","broadband_type_id":4}
{"id":null,"anchorname":"THROOP POLICE DEPARTMENT","address":"201 CHARLES ST","bldgnbr":"201","predir":null,"streetname":"CHARLES","streettype":"ST","suffdir":null,"city":"THROOP","state_code":"PA","zip5":"18512","latitude":"41.4455350010000000","longitude":"-75.621095000000000","publicwifi":"U","url":null,"broadband_type_id":4}
{"id":null,"anchorname":"JEFFERSON TOWNSHIP POLICE DEPARTMENT","address":"731 CLIFF DR","bldgnbr":"731","predir":null,"streetname":"CLIFF","streettype":"DR","suffdir":null,"city":"LAKE ARIEL","state_code":"PA","zip5":"18436","latitude":"41.4126030010000000","longitude":"-75.499207000000000","publicwifi":"U","url":"http://www.jefferson-twppa.com/11.html","broadband_type_id":4}
{"id":null,"anchorname":"ROARING BROOK TOWNSHIP POLICE DEPT","address":"430 BLUE SHUTTERS RD","bldgnbr":"430","predir":null,"streetname":"BLUE SHUTTERS","streettype":"RD","suffdir":null,"city":"ROARING BROOK TWP","state_code":"PA","zip5":"18444","latitude":"41.3602190010000000","longitude":"-75.555834000000000","publicwifi":"U","url":null,"broadband_type_id":4}
{"id":null,"anchorname":"MOSCOW BOROUGH POLICE DEPARTMENT","address":"123 VAN BRUNT ST","bldgnbr":"123","predir":null,"streetname":"VAN BRUNT","streettype":"ST","suffdir":null,"city":"MOSCOW","state_code":"PA","zip5":"18444","latitude":"41.3361300010000000","longitude":"-75.519169000000000","publicwifi":"U","url":null,"broadband_type_id":4}
{"id":null,"anchorname":"NORTH POCONO PUBLIC LIBRARY","address":"113 VAN BRUNT ST","bldgnbr":"113","predir":null,"streetname":"VAN BRUNT","streettype":"ST","suffdir":null,"city":"Moscow","state_code":"PA","zip5":"18444","latitude":"41.3362138510000000","longitude":"-75.518685936000000","publicwifi":"Y","url":null,"broadband_type_id":6}
{"id":null,"anchorname":"PENNSYLVANIA STATE POLICE TROOP R HDQTRS","address":"85 KEYSTONE INDUSTRIAL PARK","bldgnbr":"85","predir":null,"streetname":"KEYSTONE INDUSTRIAL","streettype":"PARK","suffdir":null,"city":"DUNMORE","state_code":"PA","zip5":"18512","latitude":"41.4362650010000000","longitude":"-75.617296000000000","publicwifi":"U","url":null,"broadband_type_id":4}
{"id":null,"anchorname":"HOLY CROSS HIGH SCHOOL","address":"501 E DRINKER ST","bldgnbr":"501","predir":"E","streetname":"DRINKER","streettype":"ST","suffdir":null,"city":"DUNMORE","state_code":"PA","zip5":"18512","latitude":"41.4203203560000000","longitude":"-75.622691716000000","publicwifi":"U","url":null,"broadband_type_id":6}
{"id":null,"anchorname":"ST MARY OF MT CARMEL SCHOOL","address":"325 CHESTNUT ST","bldgnbr":"325","predir":null,"streetname":"CHESTNUT","streettype":"ST","suffdir":null,"city":"DUNMORE","state_code":"PA","zip5":"18512","latitude":"41.4169667310000000","longitude":"-75.629093575000000","publicwifi":"U","url":null,"broadband_type_id":6}
{"id":null,"anchorname":"DUNMORE POLICE DEPARTMENT","address":"402 S BLAKELY ST","bldgnbr":"402","predir":"S","streetname":"BLAKELY","streettype":"ST","suffdir":null,"city":"DUNMORE","state_code":"PA","zip5":"18512","latitude":"41.4179170010000000","longitude":"-75.634742000000000","publicwifi":"U","url":"http://www.usacops.com/pa/p18512d/index.html","broadband_type_id":4}
{"id":null,"anchorname":"NEWTON TOWNSHIP POLICE DEPARTMENT","address":"1528 NEWTON RANSOM BLVD","bldgnbr":"1528","predir":null,"streetname":"NEWTON RANSOM","streettype":"BLVD","suffdir":null,"city":"CLARKS SUMMIT","state_code":"PA","zip5":"18411","latitude":"41.4801080010000000","longitude":"-75.744533000000000","publicwifi":"U","url":"http://newton-township.com/contact-us.html","broadband_type_id":4}
{"id":null,"anchorname":"CLARKS SUMMIT STATE HOSPITAL","address":"1451 HILLSIDE DRIVE","bldgnbr":"1451","predir":null,"streetname":"HILLSIDE","streettype":"DR","suffdir":null,"city":"Clarks Summit","state_code":"PA","zip5":"18411","latitude":"41.4804990050000000","longitude":"-75.737402001000000","publicwifi":"U","url":"http://www.dpw.state.pa.us/foradults/statehospitals/clarkssummitstatehospital/index.htm","broadband_type_id":3}
{"id":null,"anchorname":"TAYLOR POLICE DEPARTMENT","address":"122 UNION ST","bldgnbr":"122","predir":null,"streetname":"UNION","streettype":"ST","suffdir":null,"city":"TAYLOR","state_code":"PA","zip5":"18517","latitude":"41.3842030010000000","longitude":"-75.709798000000000","publicwifi":"U","url":null,"broadband_type_id":4}
{"id":null,"anchorname":"WINNEMUCCA DOMESTIC VIOLENCE SHELTER, INC.","address":"705 E. FOURTH ST. WINNEMUCCA, NV 89445","bldgnbr":"705","predir":null,"streetname":"E. FOURTH ST.","streettype":null,"suffdir":null,"city":"WINNEMUCCA","state_code":"NV","zip5":"89445","latitude":"40.9786320000000000","longitude":"-117.72688100000000","publicwifi":"U","url":null,"broadband_type_id":6}
{"id":null,"anchorname":"OLD FORGE EL SCH","address":"401 MELMORE ST","bldgnbr":"401","predir":null,"streetname":"MELMORE","streettype":"ST","suffdir":null,"city":"OLD FORGE","state_code":"PA","zip5":"18518","latitude":"41.3713743620000000","longitude":"-75.741492995000000","publicwifi":"U","url":null,"broadband_type_id":null}
{"id":null,"anchorname":"MCCASKEY CAMPUS","address":"445 N RESERVOIR ST","bldgnbr":"445","predir":"N","streetname":"RESERVOIR","streettype":"ST","suffdir":null,"city":"LANCASTER","state_code":"PA","zip5":"17602","latitude":"40.0482091040000000","longitude":"-76.290261654000000","publicwifi":"U","url":null,"broadband_type_id":6}
{"id":null,"anchorname":"AUSTIN SENIOR CENTER (SATELLITE OFFICE OF LANDER COUNTY SENIOR CENTER)","address":"501 MAIN STREET AUSTIN, NV 89310","bldgnbr":"501","predir":null,"streetname":"MAIN STREET","streettype":null,"suffdir":null,"city":"AUSTIN","state_code":"NV","zip5":"89310","latitude":"39.4909530000000000","longitude":"-117.06936400000000","publicwifi":"U","url":null,"broadband_type_id":1}
{"id":null,"anchorname":"RIVERSIDE EL SCH EAST","address":"900 SCHOOL ST","bldgnbr":"900","predir":null,"streetname":"School","streettype":"ST","suffdir":null,"city":"MOOSIC","state_code":"PA","zip5":"18507","latitude":"41.3663528410000000","longitude":"-75.705264456000000","publicwifi":"U","url":null,"broadband_type_id":null}
{"id":null,"anchorname":"TRIBORO CHRISTIAN ACADEMY","address":"100 S MAIN ST","bldgnbr":"100","predir":"S","streetname":"MAIN","streettype":"ST","suffdir":null,"city":"OLD FORGE","state_code":"PA","zip5":"18518","latitude":"41.3711602620000000","longitude":"-75.734743603000000","publicwifi":"U","url":null,"broadband_type_id":6}
{"id":null,"anchorname":"PENNSYLVANIA COLL ART \u0026 DESIGN","address":"204 NORTH PRINCE STREET PO BOX 59","bldgnbr":"204","predir":"N","streetname":"PRINCE","streettype":"ST","suffdir":null,"city":"Lancaster","state_code":"PA","zip5":"17608","latitude":"40.0410635600000000","longitude":"-76.308898992000000","publicwifi":"U","url":"www.pcad.edu","broadband_type_id":6}
{"id":null,"anchorname":"DAYSPRING CHRISTIAN ACADEMY","address":"1008 NEW HOLLAND AVE","bldgnbr":"1008","predir":null,"streetname":"NEW HOLLAND","streettype":"AVE","suffdir":null,"city":"LANCASTER","state_code":"PA","zip5":"17601","latitude":"40.0520516050000000","longitude":"-76.289175950000000","publicwifi":"U","url":null,"broadband_type_id":6}
{"id":null,"anchorname":"FULTON EL SCH","address":"225 W ORANGE ST","bldgnbr":"225","predir":"W","streetname":"ORANGE","streettype":"ST","suffdir":null,"city":"LANCASTER","state_code":"PA","zip5":"17603","latitude":"40.0394363210000000","longitude":"-76.310552742000000","publicwifi":"U","url":null,"broadband_type_id":null}
{"id":null,"anchorname":"OPTIONS-TEMPO-CONCEPTS","address":"790 NEW HOLLAND AVE","bldgnbr":"790","predir":null,"streetname":"NEW HOLLAND","streettype":"AVE","suffdir":null,"city":"LANCASTER","state_code":"PA","zip5":"17602","latitude":"40.0511320290000000","longitude":"-76.290102703000000","publicwifi":"U","url":"http://www.goldbamboo.com/yp-ype3576899.html","broadband_type_id":null}
{"id":null,"anchorname":"WICKERSHAM EL SCH","address":"401 N RESERVOIR ST","bldgnbr":"401","predir":"N","streetname":"RESERVOIR","streettype":"ST","suffdir":null,"city":"LANCASTER","state_code":"PA","zip5":"17602","latitude":"40.0463807840000000","longitude":"-76.289997113000000","publicwifi":"U","url":null,"broadband_type_id":null}
{"id":null,"anchorname":"BUEHRLE ALTERNATIVE ED SCH","address":"426 E CLAY ST","bldgnbr":"426","predir":"E","streetname":"CLAY","streettype":"ST","suffdir":null,"city":"LANCASTER","state_code":"PA","zip5":"17602","latitude":"40.0505563130000000","longitude":"-76.298159936000000","publicwifi":"U","url":null,"broadband_type_id":null}
