{"id":null,"anchorname":"MENTOR FIRE DEPARTMENT STATION 2","address":"5025 CORDUROY ROAD MENTOR, OH 44060","bldgnbr":"5025","predir":null,"streetname":"CORDUROY ROAD","streettype":null,"suffdir":null,"city":"MENTOR","state_code":"OH","zip5":"44060","latitude":"41.7338700000000000","longitude":"-81.311110000000000","publicwifi":"U","url":null,"broadband_type_id":5}
{"id":null,"anchorname":"BLACKBROOK CHILD CARE INC","address":"9220 LAKE SHORE BLVD MENTOR, OH 44060-1608","bldgnbr":"9220","predir":null,"streetname":"LAKE SHORE BLVD","streettype":null,"suffdir":null,"city":"MENTOR","state_code":"OH","zip5":"44060","latitude":"41.7235000000000000","longitude":"-81.308490000000000","publicwifi":"U","url":null,"broadband_type_id":3}
{"id":null,"anchorname":"ORCHARD HOLLOW ELEMENTARY SCHOOL","address":"8700 HENDRICKS RD MENTOR, OH 44060","bldgnbr":"8700","predir":null,"streetname":"HENDRICKS RD","streettype":null,"suffdir":null,"city":"MENTOR","state_code":"OH","zip5":"44060","latitude":"41.7036900000000000","longitude":"-81.327290000000000","publicwifi":"U","url":null,"broadband_type_id":6}
{"id":null,"anchorname":"CLEVELAND INSTITUTE OF DENTAL-MEDICAL ASSISTANTS","address":"5733 HOPKINS RD MENTOR, OH 44060-2035","bldgnbr":"5733","predir":null,"streetname":"HOPKINS RD","streettype":null,"suffdir":null,"city":"MENTOR","state_code":"OH","zip5":"44060","latitude":"41.7147760000000000","longitude":"-81.342173000000000","publicwifi":"U","url":null,"broadband_type_id":3}
{"id":null,"anchorname":"NEW DAY ACADEMY BOARDING \u0026 DAY SCHOOL","address":"8566 BARBARA DR MENTOR, OH 44060","bldgnbr":"8566","predir":null,"streetname":"BARBARA DR","streettype":null,"suffdir":null,"city":"MENTOR","state_code":"OH","zip5":"44060","latitude":"41.7122130000000000","longitude":"-81.332603000000000","publicwifi":"U","url":null,"broadband_type_id":6}
{"id":null,"anchorname":"SHORE MIDDLE SCHOOL","address":"5670 HOPKINS RD MENTOR, OH 44060","bldgnbr":"5670","predir":null,"streetname":"HOPKINS RD","streettype":null,"suffdir":null,"city":"MENTOR","state_code":"OH","zip5":"44060","latitude":"41.7170900000000000","longitude":"-81.345720000000000","publicwifi":"U","url":null,"broadband_type_id":6}
{"id":null,"anchorname":"FAIRFAX ELEMENTARY SCHOOL","address":"6465 CURTISS CT MENTOR, OH 44060","bldgnbr":"6465","predir":null,"streetname":"CURTISS CT","streettype":null,"suffdir":null,"city":"MENTOR","state_code":"OH","zip5":"44060","latitude":"41.6958700000000000","longitude":"-81.348880000000000","publicwifi":"U","url":null,"broadband_type_id":6}
{"id":null,"anchorname":"MENTOR POLICE DEPARMENT","address":"8500 CIVIC CENTER BLVD MENTOR, OH 44060-2418","bldgnbr":"8500","predir":null,"streetname":"CIVIC CENTER BLVD","streettype":null,"suffdir":null,"city":"MENTOR","state_code":"OH","zip5":"44060","latitude":"41.6978600000000000","longitude":"-81.335230000000000","publicwifi":"U","url":null,"broadband_type_id":4}
{"id":null,"anchorname":"MENTOR FIRE DEPARTMENT STATION 5","address":"8467 CIVIC CENTER BOULEVARD MENTOR, OH 44060","bldgnbr":"8467","predir":null,"streetname":"CIVIC CENTER BOULEVARD","streettype":null,"suffdir":null,"city":"MENTOR","state_code":"OH","zip5":"44060","latitude":"41.6982400000000000","longitude":"-81.336680000000000","publicwifi":"U","url":null,"broadband_type_id":5}
{"id":null,"anchorname":"MENTOR HIGH SCHOOL","address":"6477 CENTER ST MENTOR, OH 44060","bldgnbr":"6477","predir":null,"streetname":"CENTER ST","streettype":null,"suffdir":null,"city":"MENTOR","state_code":"OH","zip5":"44060","latitude":"41.6943300000000000","longitude":"-81.335460000000000","publicwifi":"U","url":null,"broadband_type_id":6}
{"id":null,"anchorname":"MENTOR FIRE DEPARTMENT STATION 4","address":"6900 REYNOLDS ROAD MENTOR, OH 44060","bldgnbr":"6900","predir":null,"streetname":"REYNOLDS ROAD","streettype":null,"suffdir":null,"city":"MENTOR","state_code":"OH","zip5":"44060","latitude":"41.6836800000000000","longitude":"-81.378260000000000","publicwifi":"U","url":null,"broadband_type_id":5}
{"id":null,"anchorname":"BELLFLOWER ELEMENTARY SCHOOL","address":"6655 REYNOLDS RD MENTOR, OH 44060","bldgnbr":"6655","predir":null,"streetname":"REYNOLDS RD","streettype":null,"suffdir":null,"city":"MENTOR","state_code":"OH","zip5":"44060","latitude":"41.6888500000000000","longitude":"-81.377740000000000","publicwifi":"U","url":null,"broadband_type_id":6}
{"id":null,"anchorname":"RICE ELEMENTARY SCHOOL","address":"7640 LAKE SHORE BLVD MENTOR, OH 44060","bldgnbr":"7640","predir":null,"streetname":"LAKE SHORE BLVD","streettype":null,"suffdir":null,"city":"MENTOR","state_code":"OH","zip5":"44060","latitude":"41.6983300000000000","longitude":"-81.366790000000000","publicwifi":"U","url":null,"broadband_type_id":6}
{"id":null,"anchorname":"RIDGE MIDDLE SCHOOL","address":"7860 JOHNNYCAKE RIDGE RD MENTOR, OH 44060","bldgnbr":"7860","predir":null,"streetname":"JOHNNYCAKE RIDGE RD","streettype":null,"suffdir":null,"city":"MENTOR","state_code":"OH","zip5":"44060","latitude":"41.6518300000000000","longitude":"-81.367300000000000","publicwifi":"U","url":null,"broadband_type_id":6}
{"id":null,"anchorname":"GARFIELD ELEMENTARY SCHOOL","address":"7090 HOPKINS RD MENTOR, OH 44060","bldgnbr":"7090","predir":null,"streetname":"HOPKINS RD","streettype":null,"suffdir":null,"city":"MENTOR","state_code":"OH","zip5":"44060","latitude":"41.6768100000000000","longitude":"-81.316970000000000","publicwifi":"U","url":null,"broadband_type_id":6}
{"id":null,"anchorname":"MENTOR WAY NURSING / REHAB CTR","address":"8881 SCHAEFFER ST MENTOR, OH 44060","bldgnbr":"8881","predir":null,"streetname":"SCHAEFFER ST","streettype":null,"suffdir":null,"city":"MENTOR","state_code":"OH","zip5":"44060","latitude":"41.6766600000000000","longitude":"-81.322250000000000","publicwifi":"U","url":null,"broadband_type_id":3}
{"id":null,"anchorname":"MEMORIAL MIDDLE SCHOOL","address":"8979 MENTOR AVE MENTOR, OH 44060","bldgnbr":"8979","predir":null,"streetname":"MENTOR AVE","streettype":null,"suffdir":null,"city":"MENTOR","state_code":"OH","zip5":"44060","latitude":"41.6766690000000000","longitude":"-81.318516000000000","publicwifi":"U","url":null,"broadband_type_id":6}
{"id":null,"anchorname":"MENTOR URGENT CARE","address":"9000 MENTOR AVE MENTOR, OH 44060-4496","bldgnbr":"9000","predir":null,"streetname":"MENTOR AVE","streettype":null,"suffdir":null,"city":"MENTOR","state_code":"OH","zip5":"44060","latitude":"41.6743100000000000","longitude":"-81.318930000000000","publicwifi":"U","url":null,"broadband_type_id":3}
{"id":null,"anchorname":"HOPKINS ELEMENTARY SCHOOL","address":"7565 HOPKINS RD MENTOR, OH 44060","bldgnbr":"7565","predir":null,"streetname":"HOPKINS RD","streettype":null,"suffdir":null,"city":"MENTOR","state_code":"OH","zip5":"44060","latitude":"41.6647800000000000","longitude":"-81.314130000000000","publicwifi":"U","url":null,"broadband_type_id":6}
{"id":null,"anchorname":"MENTOR FIRE DEPARTMENT STATION 1","address":"6929 HEISLEY ROAD MENTOR, OH 44060","bldgnbr":"6929","predir":null,"streetname":"HEISLEY ROAD","streettype":null,"suffdir":null,"city":"MENTOR","state_code":"OH","zip5":"44060","latitude":"41.6829000000000000","longitude":"-81.303430000000000","publicwifi":"U","url":null,"broadband_type_id":5}
{"id":null,"anchorname":"KIRTLAND ELEMENTARY SCHOOL","address":"9140 CHILLICOTHE RD KIRTLAND, OH 44094","bldgnbr":"9140","predir":null,"streetname":"CHILLICOTHE RD","streettype":null,"suffdir":null,"city":"KIRTLAND","state_code":"OH","zip5":"44094","latitude":"41.6199600000000000","longitude":"-81.358820000000000","publicwifi":"U","url":null,"broadband_type_id":6}
{"id":null,"anchorname":"KIRTLAND HIGH SCHOOL","address":"9150 CHILLICOTHE RD KIRTLAND, OH 44094","bldgnbr":"9150","predir":null,"streetname":"CHILLICOTHE RD","streettype":null,"suffdir":null,"city":"KIRTLAND","state_code":"OH","zip5":"44094","latitude":"41.6197100000000000","longitude":"-81.358670000000000","publicwifi":"U","url":null,"broadband_type_id":6}
{"id":null,"anchorname":"KIRTLAND HIGH SCHOOL","address":"9152 CHILLICOTHE RD KIRTLAND, OH 44094","bldgnbr":"9152","predir":null,"streetname":"CHILLICOTHE RD","streettype":null,"suffdir":null,"city":"KIRTLAND","state_code":"OH","zip5":"44094","latitude":"41.6196800000000000","longitude":"-81.358660000000000","publicwifi":"U","url":null,"broadband_type_id":6}
{"id":null,"anchorname":"KIRTLAND HILLS POLICE DEPARTMENT","address":"8026 CHILLICOTHE RD MENTOR, OH 44060-7800","bldgnbr":"8026","predir":null,"streetname":"CHILLICOTHE RD","streettype":null,"suffdir":null,"city":"MENTOR","state_code":"OH","zip5":"44060","latitude":"41.6527400000000000","longitude":"-81.324830000000000","publicwifi":"U","url":null,"broadband_type_id":4}
{"id":null,"anchorname":"GALLATIN REST HOME","address":"1221 W DURSTON RD","bldgnbr":"1221","predir":"West","streetname":"Durston","streettype":"Road","suffdir":null,"city":"Bozeman","state_code":"MT","zip5":"59715","latitude":"45.6857345500000000","longitude":"-111.05324456900000","publicwifi":"U","url":null,"broadband_type_id":6}
{"id":null,"anchorname":"LAKE CO COMM CENTER LAKE CO COMM CENTER","address":"8505 GARFIELD RD MENTOR, OH 44060-5961","bldgnbr":"8505","predir":null,"streetname":"GARFIELD RD","streettype":null,"suffdir":null,"city":"MENTOR","state_code":"OH","zip5":"44060","latitude":"41.6387900000000000","longitude":"-81.353880000000000","publicwifi":"U","url":null,"broadband_type_id":null}
{"id":null,"anchorname":"Garfield Co Dist HS","address":"324 Marguerite St","bldgnbr":"324","predir":null,"streetname":"Marguerite","streettype":"St","suffdir":null,"city":"Jordan","state_code":"MT","zip5":"59337","latitude":"47.3184989960000000","longitude":"-106.90674070100000","publicwifi":"U","url":"http://opi.mt.gov/Resources/Directory/Index.html","broadband_type_id":6}
{"id":null,"anchorname":"ADULT PAROLE AUTHORITY - PAINESVILLE","address":"84 N STATE ST PAINESVILLE, OH 44077","bldgnbr":"84","predir":null,"streetname":"N STATE ST","streettype":null,"suffdir":null,"city":"PAINESVILLE","state_code":"OH","zip5":"44077","latitude":"41.7278860000000000","longitude":"-81.241338000000000","publicwifi":"U","url":null,"broadband_type_id":6}
{"id":null,"anchorname":"AMERICAN RED CROSS LAKE COUNTY CHAPTER","address":"1016 BANK STREET PAINESVILLE, OH 44077","bldgnbr":"1016","predir":null,"streetname":"BANK STREET","streettype":null,"suffdir":null,"city":"PAINESVILLE","state_code":"OH","zip5":"44077","latitude":"41.7083700000000000","longitude":"-81.235430000000000","publicwifi":"U","url":null,"broadband_type_id":1}
{"id":null,"anchorname":"LAKE COUNTY COURT OF COMMON PLEAS GENERAL DIVISION","address":"47 N PARK PL PAINESVILLE, OH 44077-3416","bldgnbr":"47","predir":null,"streetname":"N PARK PL","streettype":null,"suffdir":null,"city":"PAINESVILLE","state_code":"OH","zip5":"44077","latitude":"41.7257700000000000","longitude":"-81.245090000000000","publicwifi":"U","url":null,"broadband_type_id":6}
{"id":null,"anchorname":"LAKE COUNTY COURT OF COMMON PLEAS, PROBATE DIVISION","address":"47 N PARK PL PAINESVILLE, OH 44077-3416","bldgnbr":"47","predir":null,"streetname":"N PARK PL","streettype":null,"suffdir":null,"city":"PAINESVILLE","state_code":"OH","zip5":"44077","latitude":"41.7257700000000000","longitude":"-81.245090000000000","publicwifi":"U","url":null,"broadband_type_id":6}
{"id":null,"anchorname":"OUR SHEPHERD EVANGEL LUTHERAN","address":"508  MENTOR AVE PAINESVILLE, OH 44077-2628","bldgnbr":"508","predir":null,"streetname":"MENTOR AVE","streettype":null,"suffdir":null,"city":"PAINESVILLE","state_code":"OH","zip5":"44077","latitude":"41.7177800000000000","longitude":"-81.255080000000000","publicwifi":"U","url":null,"broadband_type_id":null}
{"id":null,"anchorname":"UNITED LABOR CHILD DEV CTR","address":"776 MENTOR AVE PAINESVILLE, OH 44077-2516","bldgnbr":"776","predir":null,"streetname":"MENTOR AVE","streettype":null,"suffdir":null,"city":"PAINESVILLE","state_code":"OH","zip5":"44077","latitude":"41.7134100000000000","longitude":"-81.259880000000000","publicwifi":"U","url":null,"broadband_type_id":null}
{"id":null,"anchorname":"CALEY RECEIVING HOME","address":"33 MILL ST PAINESVILLE, OH 44077-3811","bldgnbr":"33","predir":null,"streetname":"MILL ST","streettype":null,"suffdir":null,"city":"PAINESVILLE","state_code":"OH","zip5":"44077","latitude":"41.7270900000000000","longitude":"-81.239150000000000","publicwifi":"U","url":null,"broadband_type_id":null}
{"id":null,"anchorname":"LAKE CO WELFARE DEPT","address":"33 MILL ST PAINESVILLE, OH 44077-3811","bldgnbr":"33","predir":null,"streetname":"MILL ST","streettype":null,"suffdir":null,"city":"PAINESVILLE","state_code":"OH","zip5":"44077","latitude":"41.7270900000000000","longitude":"-81.239150000000000","publicwifi":"U","url":null,"broadband_type_id":null}
{"id":null,"anchorname":"LAKE","address":"288 CUMMINGS DR PAINESVILLE, OH 44077-3768","bldgnbr":"288","predir":null,"streetname":"CUMMINGS DR","streettype":null,"suffdir":null,"city":"PAINESVILLE","state_code":"OH","zip5":"44077","latitude":"41.7122400000000000","longitude":"-81.233070000000000","publicwifi":"U","url":null,"broadband_type_id":null}
{"id":null,"anchorname":"ST CLAIR HEAD START","address":"280 N SAINT CLAIR ST PAINESVILLE, OH 44077-4060","bldgnbr":"280","predir":null,"streetname":"N SAINT CLAIR ST","streettype":null,"suffdir":null,"city":"PAINESVILLE","state_code":"OH","zip5":"44077","latitude":"41.7298700000000000","longitude":"-81.245420000000000","publicwifi":"U","url":null,"broadband_type_id":null}
{"id":null,"anchorname":"ANGEL CARE TWO INC","address":"9189 CHILLICOTHE RD KIRTLAND, OH 44094-9263","bldgnbr":"9189","predir":null,"streetname":"CHILLICOTHE RD","streettype":null,"suffdir":null,"city":"KIRTLAND","state_code":"OH","zip5":"44094","latitude":"41.6204700000000000","longitude":"-81.358710000000000","publicwifi":"U","url":null,"broadband_type_id":3}
{"id":null,"anchorname":"KIRTLAND PUBLIC LIBRARY","address":"9267 CHILLICOTHE RD KIRTLAND, OH 44094-8500","bldgnbr":"9267","predir":null,"streetname":"CHILLICOTHE RD","streettype":null,"suffdir":null,"city":"KIRTLAND","state_code":"OH","zip5":"44094","latitude":"41.6181400000000000","longitude":"-81.357370000000000","publicwifi":"Y","url":null,"broadband_type_id":6}
{"id":null,"anchorname":"WESTERN RESERVE HEALTHCARE","address":"9685 CHILLICOTHE RD KIRTLAND, OH 44094","bldgnbr":"9685","predir":null,"streetname":"CHILLICOTHE RD","streettype":null,"suffdir":null,"city":"KIRTLAND","state_code":"OH","zip5":"44094","latitude":"41.6078900000000000","longitude":"-81.351540000000000","publicwifi":"U","url":null,"broadband_type_id":3}
{"id":null,"anchorname":"KIRTLAND FIRE DEPARTMENT STATION 1","address":"8979 KIRTLAND-CHARDON ROAD KIRTLAND, OH 44094","bldgnbr":"8979","predir":null,"streetname":"KIRTLAND-CHARDON ROAD","streettype":null,"suffdir":null,"city":"KIRTLAND","state_code":"OH","zip5":"44094","latitude":"41.6066600000000000","longitude":"-81.320840000000000","publicwifi":"U","url":null,"broadband_type_id":5}
{"id":null,"anchorname":"HOLDEN ARBORETUM POLICE DEPARTMENT","address":"9500 SPERRY RD KIRTLAND, OH 44094-5149","bldgnbr":"9500","predir":null,"streetname":"SPERRY RD","streettype":null,"suffdir":null,"city":"KIRTLAND","state_code":"OH","zip5":"44094","latitude":"41.6153900000000000","longitude":"-81.298500000000000","publicwifi":"U","url":null,"broadband_type_id":4}
{"id":null,"anchorname":"CHESTNUT ELEMENTARY SCHOOL","address":"341 CHESTNUT ST PAINESVILLE, OH 44077","bldgnbr":"341","predir":null,"streetname":"CHESTNUT ST","streettype":null,"suffdir":null,"city":"PAINESVILLE","state_code":"OH","zip5":"44077","latitude":"41.7541390000000000","longitude":"-81.270659000000000","publicwifi":"U","url":null,"broadband_type_id":6}
{"id":null,"anchorname":"FAIRPORT HARDING HIGH SCHOOL","address":"329 VINE ST FAIRPORT HARBOR, OH 44077","bldgnbr":"329","predir":null,"streetname":"VINE ST","streettype":null,"suffdir":null,"city":"FAIRPORT HARBOR","state_code":"OH","zip5":"44077","latitude":"41.7546500000000000","longitude":"-81.272660000000000","publicwifi":"U","url":null,"broadband_type_id":6}
{"id":null,"anchorname":"FAIRPORT HARBOR PUBLIC LIBRARY","address":"335 VINE ST FAIRPORT HARBOR, OH 44077-5741","bldgnbr":"335","predir":null,"streetname":"VINE ST","streettype":null,"suffdir":null,"city":"FAIRPORT HARBOR","state_code":"OH","zip5":"44077","latitude":"41.7549300000000000","longitude":"-81.271990000000000","publicwifi":"Y","url":null,"broadband_type_id":6}
{"id":null,"anchorname":"FAIRPORT HARBOR DAY CARE","address":"308 3RD ST FAIRPORT HARBOR, OH 44077-5823","bldgnbr":"308","predir":null,"streetname":"3RD ST","streettype":null,"suffdir":null,"city":"FAIRPORT HARBOR","state_code":"OH","zip5":"44077","latitude":"41.7552800000000000","longitude":"-81.275070000000000","publicwifi":"U","url":null,"broadband_type_id":3}
{"id":null,"anchorname":"FAIRPORT HARBOR POLICE DEPARTMENT","address":"220 3RD ST FAIRPORT HARBOR, OH 44077-5822","bldgnbr":"220","predir":null,"streetname":"3RD ST","streettype":null,"suffdir":null,"city":"FAIRPORT HARBOR","state_code":"OH","zip5":"44077","latitude":"41.7554900000000000","longitude":"-81.276690000000000","publicwifi":"U","url":null,"broadband_type_id":4}
{"id":null,"anchorname":"FAIRPORT HARBOR FIRE DEPARTMENT","address":"220 THIRD STREET FAIRPORT HARBOR, OH 44077","bldgnbr":"220","predir":null,"streetname":"THIRD STREET","streettype":null,"suffdir":null,"city":"FAIRPORT HARBOR","state_code":"OH","zip5":"44077","latitude":"41.7554900000000000","longitude":"-81.276690000000000","publicwifi":"U","url":null,"broadband_type_id":5}
{"id":null,"anchorname":"MCKINLEY ELEMENTARY SCHOOL","address":"602 PLUM ST FAIRPORT HARBOR, OH 44077","bldgnbr":"602","predir":null,"streetname":"PLUM ST","streettype":null,"suffdir":null,"city":"FAIRPORT HARBOR","state_code":"OH","zip5":"44077","latitude":"41.7502100000000000","longitude":"-81.273310000000000","publicwifi":"U","url":null,"broadband_type_id":6}
{"id":null,"anchorname":"ELM STREET ELEMENTARY SCHOOL","address":"585 ELM ST PAINESVILLE, OH 44077","bldgnbr":"585","predir":null,"streetname":"ELM ST","streettype":null,"suffdir":null,"city":"PAINESVILLE","state_code":"OH","zip5":"44077","latitude":"41.7379250000000000","longitude":"-81.242148000000000","publicwifi":"U","url":null,"broadband_type_id":6}
{"id":null,"anchorname":"MAPLE ELEMENTARY SCHOOL","address":"560 W JACKSON ST PAINESVILLE, OH 44077","bldgnbr":"560","predir":null,"streetname":"W JACKSON ST","streettype":null,"suffdir":null,"city":"PAINESVILLE","state_code":"OH","zip5":"44077","latitude":"41.7171680000000000","longitude":"-81.258203000000000","publicwifi":"U","url":null,"broadband_type_id":6}
{"id":null,"anchorname":"LAKE ERIE COLLEGE","address":"391 W WASHINGTON ST PAINESVILLE, OH 44077-3309","bldgnbr":"391","predir":null,"streetname":"W WASHINGTON ST","streettype":null,"suffdir":null,"city":"PAINESVILLE","state_code":"OH","zip5":"44077","latitude":"41.7165200000000000","longitude":"-81.251540000000000","publicwifi":"U","url":null,"broadband_type_id":6}
{"id":null,"anchorname":"LAKE ERIE COLLEGE - SFP","address":"391 W WASHINGTON ST PAINESVILLE, OH 44077-3309","bldgnbr":"391","predir":null,"streetname":"W WASHINGTON ST","streettype":null,"suffdir":null,"city":"PAINESVILLE","state_code":"OH","zip5":"44077","latitude":"41.7165200000000000","longitude":"-81.251540000000000","publicwifi":"U","url":null,"broadband_type_id":6}
{"id":null,"anchorname":"RED RAIDER PRESCHOOL","address":"350 CEDARBROOK DR PAINESVILLE, OH 44077","bldgnbr":"350","predir":null,"streetname":"CEDARBROOK DR","streettype":null,"suffdir":null,"city":"PAINESVILLE","state_code":"OH","zip5":"44077","latitude":"41.7109940000000000","longitude":"-81.248630000000000","publicwifi":"U","url":null,"broadband_type_id":6}
{"id":null,"anchorname":"HERITAGE  MIDDLE SCHOOL","address":"135 CEDARBROOK DR PAINESVILLE, OH 44077","bldgnbr":"135","predir":null,"streetname":"CEDARBROOK DR","streettype":null,"suffdir":null,"city":"PAINESVILLE","state_code":"OH","zip5":"44077","latitude":"41.7101830000000000","longitude":"-81.243494000000000","publicwifi":"U","url":null,"broadband_type_id":6}
{"id":null,"anchorname":"SUMMIT ACADEMY COMMUNITY SCHOOL - PAINESVILLE","address":"268 N STATE ST PAINESVILLE, OH 44077","bldgnbr":"268","predir":null,"streetname":"N STATE ST","streettype":null,"suffdir":null,"city":"PAINESVILLE","state_code":"OH","zip5":"44077","latitude":"41.7307550000000000","longitude":"-81.244410000000000","publicwifi":"U","url":null,"broadband_type_id":6}
{"id":null,"anchorname":"MORLEY LIBRARY","address":"184 PHELPS ST PAINESVILLE, OH 44077-3927","bldgnbr":"184","predir":null,"streetname":"PHELPS ST","streettype":null,"suffdir":null,"city":"PAINESVILLE","state_code":"OH","zip5":"44077","latitude":"41.7273800000000000","longitude":"-81.243590000000000","publicwifi":"Y","url":null,"broadband_type_id":6}
{"id":null,"anchorname":"CHILD CARE ON THE SQUARE","address":"71 PARK RD PAINESVILLE, OH 44077-5012","bldgnbr":"71","predir":null,"streetname":"PARK RD","streettype":null,"suffdir":null,"city":"PAINESVILLE","state_code":"OH","zip5":"44077","latitude":"41.7255600000000000","longitude":"-81.244430000000000","publicwifi":"U","url":null,"broadband_type_id":3}
{"id":null,"anchorname":"BIRCHWOOD AT HILLCREST","address":"1201 HIGHLAND BLVD","bldgnbr":"1201","predir":null,"streetname":"Highland","streettype":"Boulevard","suffdir":null,"city":"Bozeman","state_code":"MT","zip5":"59715","latitude":"45.6679099870000000","longitude":"-111.02002361300000","publicwifi":"U","url":null,"broadband_type_id":6}
{"id":null,"anchorname":"Pablo Elementary","address":"421 Andrew Nw","bldgnbr":"421","predir":null,"streetname":"Andrew","streettype":null,"suffdir":"NW","city":"Ronan","state_code":"MT","zip5":"59864","latitude":"47.6015986350000000","longitude":"-114.11702012500000","publicwifi":"U","url":"http://opi.mt.gov/Resources/Directory/Index.html","broadband_type_id":6}
{"id":null,"anchorname":"JUVENILE JUSTICE CENTER","address":"53 E ERIE ST PAINESVILLE, OH 44077-3907","bldgnbr":"53","predir":null,"streetname":"E ERIE ST","streettype":null,"suffdir":null,"city":"PAINESVILLE","state_code":"OH","zip5":"44077","latitude":"41.7267500000000000","longitude":"-81.246010000000000","publicwifi":"U","url":null,"broadband_type_id":null}
{"id":null,"anchorname":"LAKE CO JUV JUSTICE CTR","address":"53 E ERIE ST PAINESVILLE, OH 44077-3907","bldgnbr":"53","predir":null,"streetname":"E ERIE ST","streettype":null,"suffdir":null,"city":"PAINESVILLE","state_code":"OH","zip5":"44077","latitude":"41.7267500000000000","longitude":"-81.246010000000000","publicwifi":"U","url":null,"broadband_type_id":null}
{"id":null,"anchorname":"LAKE CO EMPLOYMENT \u0026 TRAINING","address":"125 E ERIE ST PAINESVILLE, OH 44077-3948","bldgnbr":"125","predir":null,"streetname":"E ERIE ST","streettype":null,"suffdir":null,"city":"PAINESVILLE","state_code":"OH","zip5":"44077","latitude":"41.7267100000000000","longitude":"-81.245380000000000","publicwifi":"U","url":null,"broadband_type_id":null}
{"id":null,"anchorname":"LAKE GEAUGA UNITED HS INC","address":"153 E ERIE ST PAINESVILLE, OH 44077-3949","bldgnbr":"153","predir":null,"streetname":"E ERIE ST","streettype":null,"suffdir":null,"city":"PAINESVILLE","state_code":"OH","zip5":"44077","latitude":"41.7275100000000000","longitude":"-81.245260000000000","publicwifi":"U","url":null,"broadband_type_id":6}
{"id":null,"anchorname":"PAINESVILLE AREA EVENING","address":"167 W WASHINGTON ST PAINESVILLE, OH 44077-3328","bldgnbr":"167","predir":null,"streetname":"W WASHINGTON ST","streettype":null,"suffdir":null,"city":"PAINESVILLE","state_code":"OH","zip5":"44077","latitude":"41.7212100000000000","longitude":"-81.246460000000000","publicwifi":"U","url":null,"broadband_type_id":6}
{"id":null,"anchorname":"THE SALVATION ARMY","address":"69 PEARL ST PAINESVILLE, OH 44077-3519","bldgnbr":"69","predir":null,"streetname":"PEARL ST","streettype":null,"suffdir":null,"city":"PAINESVILLE","state_code":"OH","zip5":"44077","latitude":"41.7207000000000000","longitude":"-81.240270000000000","publicwifi":"U","url":null,"broadband_type_id":null}
{"id":null,"anchorname":"CITY OF PAINESVILLE-COMM DEV","address":"7 RICHMOND ST PAINESVILLE, OH 44077-3222","bldgnbr":"7","predir":null,"streetname":"RICHMOND ST","streettype":null,"suffdir":null,"city":"PAINESVILLE","state_code":"OH","zip5":"44077","latitude":"41.7241400000000000","longitude":"-81.245910000000000","publicwifi":"U","url":null,"broadband_type_id":6}
{"id":null,"anchorname":"ST JOHN'S HOME FOR GIRLS","address":"173 W HIGH ST PAINESVILLE, OH 44077-3333","bldgnbr":"173","predir":null,"streetname":"W HIGH ST","streettype":null,"suffdir":null,"city":"PAINESVILLE","state_code":"OH","zip5":"44077","latitude":"41.7204600000000000","longitude":"-81.245710000000000","publicwifi":"U","url":null,"broadband_type_id":null}
{"id":null,"anchorname":"PAINESVILLE MUNICIPAL COURT","address":"7 RICHMOND STREET PAINESVILLE, OH 44077-0601","bldgnbr":"7","predir":null,"streetname":"RICKMOND STREET","streettype":null,"suffdir":null,"city":"PAINESVILLE","state_code":"OH","zip5":"44077","latitude":"41.7242890000000000","longitude":"-81.245385000000000","publicwifi":"U","url":null,"broadband_type_id":6}
{"id":null,"anchorname":"PAINESVILLE CITY LOCAL","address":"58  JEFFERSON ST PAINESVILLE, OH 44077-3114","bldgnbr":"58","predir":null,"streetname":"JEFFERSON ST","streettype":null,"suffdir":null,"city":"PAINESVILLE","state_code":"OH","zip5":"44077","latitude":"41.7224600000000000","longitude":"-81.250220000000000","publicwifi":"U","url":null,"broadband_type_id":6}
{"id":null,"anchorname":"LAKE COUNTY MINIMUM SECURITY DETENTION","address":"2025 BLASE-NEMETH RD PAINESVILLE, OH 44077","bldgnbr":"2025","predir":null,"streetname":"BLASE-NEMETH RD","streettype":null,"suffdir":null,"city":"PAINESVILLE","state_code":"OH","zip5":"44077","latitude":"41.7564400000000000","longitude":"-81.197570000000000","publicwifi":"U","url":null,"broadband_type_id":1}
{"id":null,"anchorname":"THE LAKEMED NRSG REHAB CTR","address":"70 NORMANDY DR PAINESVILLE, OH 44077","bldgnbr":"70","predir":null,"streetname":"NORMANDY DR","streettype":null,"suffdir":null,"city":"PAINESVILLE","state_code":"OH","zip5":"44077","latitude":"41.6979500000000000","longitude":"-81.275910000000000","publicwifi":"U","url":null,"broadband_type_id":null}
{"id":null,"anchorname":"LAKE","address":"320 BARRINGTON RIDGE RD PAINESVILLE, OH 44077-1506","bldgnbr":"320","predir":null,"streetname":"BARRINGTON RIDGE RD","streettype":null,"suffdir":null,"city":"PAINESVILLE","state_code":"OH","zip5":"44077","latitude":"41.6888600000000000","longitude":"-81.276320000000000","publicwifi":"U","url":null,"broadband_type_id":null}
{"id":null,"anchorname":"LAKE","address":"30 PARK RD PAINESVILLE, OH 44077-5019","bldgnbr":"30","predir":null,"streetname":"PARK RD","streettype":null,"suffdir":null,"city":"PAINESVILLE","state_code":"OH","zip5":"44077","latitude":"41.7279000000000000","longitude":"-81.196050000000000","publicwifi":"U","url":null,"broadband_type_id":null}
{"id":null,"anchorname":"LAKE","address":"367 PARADISE RD PAINESVILLE, OH 44077-5153","bldgnbr":"367","predir":null,"streetname":"PARADISE RD","streettype":null,"suffdir":null,"city":"PAINESVILLE","state_code":"OH","zip5":"44077","latitude":"41.7145300000000000","longitude":"-81.192990000000000","publicwifi":"U","url":null,"broadband_type_id":null}
{"id":null,"anchorname":"ST. GABRIEL","address":"9935  JOHNNYCAKE RIDGE RD MENTOR, OH 44060-6727","bldgnbr":"9935","predir":null,"streetname":"JOHNNYCAKE RIDGE RD","streettype":null,"suffdir":null,"city":"MENTOR","state_code":"OH","zip5":"44060","latitude":"41.6797500000000000","longitude":"-81.283900000000000","publicwifi":"U","url":null,"broadband_type_id":null}
{"id":null,"anchorname":"JM FOUNDATION","address":"10280 HOOSE RD MENTOR, OH 44060-6847","bldgnbr":"10280","predir":null,"streetname":"HOOSE RD","streettype":null,"suffdir":null,"city":"MENTOR","state_code":"OH","zip5":"44060","latitude":"41.6681200000000000","longitude":"-81.270530000000000","publicwifi":"U","url":null,"broadband_type_id":null}
{"id":null,"anchorname":"LAKE COUNTY SHERIFFS OFFICE","address":"104 E ERIE ST PAINESVILLE, OH 44077-3910","bldgnbr":"104","predir":null,"streetname":"E ERIE ST","streettype":null,"suffdir":null,"city":"PAINESVILLE","state_code":"OH","zip5":"44077","latitude":"41.7263400000000000","longitude":"-81.245250000000000","publicwifi":"U","url":null,"broadband_type_id":4}
{"id":null,"anchorname":"LAKE EAST HOSPITAL-SNF","address":"10 E WASHINGTON ST PAINESVILLE, OH 44077","bldgnbr":"10","predir":null,"streetname":"E WASHINGTON ST","streettype":null,"suffdir":null,"city":"PAINESVILLE","state_code":"OH","zip5":"44077","latitude":"41.7226200000000000","longitude":"-81.243560000000000","publicwifi":"U","url":null,"broadband_type_id":3}
{"id":null,"anchorname":"LAKE EAST HOSPITAL","address":"10 EAST WASHINGTON STREET PAINESVILLE, OH 44077","bldgnbr":"10","predir":null,"streetname":"EAST WASHINGTON STREET","streettype":null,"suffdir":null,"city":"PAINESVILLE","state_code":"OH","zip5":"44077","latitude":"41.7226200000000000","longitude":"-81.243560000000000","publicwifi":"U","url":null,"broadband_type_id":3}
{"id":null,"anchorname":"HOMESTEAD NURSING HOME I","address":"164 LIBERTY ST PAINESVILLE, OH 44077","bldgnbr":"164","predir":null,"streetname":"LIBERTY ST","streettype":null,"suffdir":null,"city":"PAINESVILLE","state_code":"OH","zip5":"44077","latitude":"41.7213600000000000","longitude":"-81.243410000000000","publicwifi":"U","url":null,"broadband_type_id":3}
{"id":null,"anchorname":"HARVEY HIGH SCHOOL","address":"200 W WALNUT AVE PAINESVILLE, OH 44077","bldgnbr":"200","predir":null,"streetname":"W WALNUT AVE","streettype":null,"suffdir":null,"city":"PAINESVILLE","state_code":"OH","zip5":"44077","latitude":"41.7212100000000000","longitude":"-81.246460000000000","publicwifi":"U","url":null,"broadband_type_id":6}
{"id":null,"anchorname":"IVY HOUSE RESIDENTIAL CARE/NURSING HOME","address":"308 S STATE ST PAINESVILLE, OH 44077","bldgnbr":"308","predir":null,"streetname":"S STATE ST","streettype":null,"suffdir":null,"city":"PAINESVILLE","state_code":"OH","zip5":"44077","latitude":"41.7209400000000000","longitude":"-81.237560000000000","publicwifi":"U","url":null,"broadband_type_id":3}
{"id":null,"anchorname":"PAINESVILLE POLICE DEPARTMENT","address":"28 MENTOR AVE PAINESVILLE, OH 44077-3202","bldgnbr":"28","predir":null,"streetname":"MENTOR AVE","streettype":null,"suffdir":null,"city":"PAINESVILLE","state_code":"OH","zip5":"44077","latitude":"41.7238900000000000","longitude":"-81.246010000000000","publicwifi":"U","url":null,"broadband_type_id":4}
{"id":null,"anchorname":"PAINESVILLE CITY FIRE DEPARTMENT","address":"28 MENTOR AVENUE PAINESVILLE, OH 44077","bldgnbr":"28","predir":null,"streetname":"MENTOR AVENUE","streettype":null,"suffdir":null,"city":"PAINESVILLE","state_code":"OH","zip5":"44077","latitude":"41.7238900000000000","longitude":"-81.246010000000000","publicwifi":"U","url":null,"broadband_type_id":5}
{"id":null,"anchorname":"HOMESTEAD NURSING HOME II","address":"60 WOOD ST PAINESVILLE, OH 44077","bldgnbr":"60","predir":null,"streetname":"WOOD ST","streettype":null,"suffdir":null,"city":"PAINESVILLE","state_code":"OH","zip5":"44077","latitude":"41.7213700000000000","longitude":"-81.247550000000000","publicwifi":"U","url":null,"broadband_type_id":3}
{"id":null,"anchorname":"BUCKEYE ELEMENTARY SCHOOL","address":"175 BUCKEYE RD PAINESVILLE, OH 44077","bldgnbr":"175","predir":null,"streetname":"BUCKEYE RD","streettype":null,"suffdir":null,"city":"PAINESVILLE","state_code":"OH","zip5":"44077","latitude":"41.7009200000000000","longitude":"-81.262900000000000","publicwifi":"U","url":null,"broadband_type_id":6}
{"id":null,"anchorname":"CLYDE C HADDEN ELEMENTARY SCHOOL","address":"1800 MENTOR AVE PAINESVILLE, OH 44077","bldgnbr":"1800","predir":null,"streetname":"MENTOR AVE","streettype":null,"suffdir":null,"city":"PAINESVILLE","state_code":"OH","zip5":"44077","latitude":"41.6952300000000000","longitude":"-81.285070000000000","publicwifi":"U","url":null,"broadband_type_id":6}
{"id":null,"anchorname":"HALE ROAD ELEMENTARY SCHOOL","address":"56 HALE RD PAINESVILLE, OH 44077","bldgnbr":"56","predir":null,"streetname":"HALE RD","streettype":null,"suffdir":null,"city":"PAINESVILLE","state_code":"OH","zip5":"44077","latitude":"41.7506500000000000","longitude":"-81.203770000000000","publicwifi":"U","url":null,"broadband_type_id":6}
{"id":null,"anchorname":"MADISON AVENUE ELEMENTARY SCHOOL","address":"845 MADISON AVE PAINESVILLE, OH 44077","bldgnbr":"845","predir":null,"streetname":"MADISON AVE","streettype":null,"suffdir":null,"city":"PAINESVILLE","state_code":"OH","zip5":"44077","latitude":"41.7280200000000000","longitude":"-81.221080000000000","publicwifi":"U","url":null,"broadband_type_id":6}
{"id":null,"anchorname":"PAINESVILLE TOWNSHIP FIRE DEPARTMENT STATION 2","address":"141 BOWHALL ROAD PAINESVILLE TOWNSHIP, OH 44077","bldgnbr":"141","predir":null,"streetname":"BOWHALL ROAD","streettype":null,"suffdir":null,"city":"PAINESVILLE TOWNSHIP","state_code":"OH","zip5":"44077","latitude":"41.7309200000000000","longitude":"-81.206880000000000","publicwifi":"U","url":null,"broadband_type_id":5}
{"id":null,"anchorname":"RIVERSIDE JR/SR HIGH SCHOOL","address":"585 RIVERSIDE DR PAINESVILLE, OH 44077","bldgnbr":"585","predir":null,"streetname":"RIVERSIDE DR","streettype":null,"suffdir":null,"city":"PAINESVILLE","state_code":"OH","zip5":"44077","latitude":"41.7129400000000000","longitude":"-81.217290000000000","publicwifi":"U","url":null,"broadband_type_id":6}
{"id":null,"anchorname":"CONCORD TOWNSHIP FIRE DEPARTMENT STATION 2","address":"10154 PROUTY ROAD CONCORD TOWNSHIP, OH 44077","bldgnbr":"10154","predir":null,"streetname":"PROUTY ROAD","streettype":null,"suffdir":null,"city":"CONCORD TOWNSHIP","state_code":"OH","zip5":"44077","latitude":"41.6815600000000000","longitude":"-81.275090000000000","publicwifi":"U","url":null,"broadband_type_id":5}
{"id":null,"anchorname":"Suny Col Of Environmental Science And Forestry","address":"1 Forestry Drive","bldgnbr":"1","predir":null,"streetname":"Forestry","streettype":"Drive","suffdir":null,"city":"Syracuse","state_code":"NY","zip5":"13244","latitude":"43.0346489010000000","longitude":"-76.134686160000000","publicwifi":"N","url":null,"broadband_type_id":2}
{"id":null,"anchorname":"LAKE-GEAUGA COMPUTER ASSOCIATION","address":"8140 AUBURN RD PAINESVILLE, OH 44077-9179","bldgnbr":"8140","predir":null,"streetname":"AUBURN RD","streettype":null,"suffdir":null,"city":"PAINESVILLE","state_code":"OH","zip5":"44077","latitude":"41.6493900000000000","longitude":"-81.244140000000000","publicwifi":"U","url":null,"broadband_type_id":1}
{"id":null,"anchorname":"LUV LEARN-N-LAUGHTER","address":"2603 RIVERSIDE DR PAINESVILLE, OH 44077","bldgnbr":"2603","predir":null,"streetname":"RIVERSIDE DR","streettype":null,"suffdir":null,"city":"PAINESVILLE","state_code":"OH","zip5":"44077","latitude":"41.7259400000000000","longitude":"-81.188550000000000","publicwifi":"U","url":null,"broadband_type_id":6}
{"id":null,"anchorname":"AKERS OF KIDS INC-LUV LEARN-N-LAUGHTER","address":"2603 RIVERSIDE DR PAINESVILLE, OH 44077-6310","bldgnbr":"2603","predir":null,"streetname":"RIVERSIDE DR","streettype":null,"suffdir":null,"city":"PAINESVILLE","state_code":"OH","zip5":"44077","latitude":"41.7259400000000000","longitude":"-81.188550000000000","publicwifi":"U","url":null,"broadband_type_id":6}
{"id":null,"anchorname":"TARBUCK LEARNING CENTER","address":"4325 MANCHESTER AVE PERRY, OH 44081-9413","bldgnbr":"4325","predir":null,"streetname":"MANCHESTER AVE","streettype":null,"suffdir":null,"city":"PERRY","state_code":"OH","zip5":"44081","latitude":"41.7705000000000000","longitude":"-81.133030000000000","publicwifi":"U","url":null,"broadband_type_id":6}
{"id":null,"anchorname":"CHURCH OF BRETHREN-COLERIDGE","address":"90 BUCKEYE RD PAINESVILLE, OH 44077-1912","bldgnbr":"90","predir":null,"streetname":"BUCKEYE RD","streettype":null,"suffdir":null,"city":"PAINESVILLE","state_code":"OH","zip5":"44077","latitude":"41.6992300000000000","longitude":"-81.265600000000000","publicwifi":"U","url":null,"broadband_type_id":null}
{"id":null,"anchorname":"CHURCH OF BRETHREN","address":"10410 BUCKEYE RD PAINESVILLE, OH 44077-1913","bldgnbr":"10410","predir":null,"streetname":"BUCKEYE RD","streettype":null,"suffdir":null,"city":"PAINESVILLE","state_code":"OH","zip5":"44077","latitude":"41.6992500000000000","longitude":"-81.264900000000000","publicwifi":"U","url":null,"broadband_type_id":null}
{"id":null,"anchorname":"CENTER ROAD ELEMENTARY BLDG","address":"3843 MAIN ST PERRY, OH 44081-8502","bldgnbr":"3843","predir":null,"streetname":"MAIN ST","streettype":null,"suffdir":null,"city":"PERRY","state_code":"OH","zip5":"44081","latitude":"41.7642400000000000","longitude":"-81.147730000000000","publicwifi":"U","url":null,"broadband_type_id":6}
{"id":null,"anchorname":"MADISON PRE-K","address":"1956 RED BIRD RD MADISON, OH 44057","bldgnbr":"1956","predir":null,"streetname":"RED BIRD RD","streettype":null,"suffdir":null,"city":"MADISON","state_code":"OH","zip5":"44057","latitude":"41.8212640000000000","longitude":"-81.062718000000000","publicwifi":"U","url":null,"broadband_type_id":6}
{"id":null,"anchorname":"AUBURN VOCATIONAL","address":"8140 AUBURN RD PAINESVILLE, OH 44077","bldgnbr":"8140","predir":null,"streetname":"AUBURN RD","streettype":null,"suffdir":null,"city":"PAINESVILLE","state_code":"OH","zip5":"44077","latitude":"41.6493910000000000","longitude":"-81.244151000000000","publicwifi":"U","url":null,"broadband_type_id":null}
{"id":null,"anchorname":"AUBURN VOCATIONAL","address":"8140 AUBURN RD PAINESVILLE, OH 44077-9179","bldgnbr":"8140","predir":null,"streetname":"AUBURN RD","streettype":null,"suffdir":null,"city":"PAINESVILLE","state_code":"OH","zip5":"44077","latitude":"41.6493900000000000","longitude":"-81.244140000000000","publicwifi":"U","url":null,"broadband_type_id":null}
{"id":null,"anchorname":"BSA CAMP STIGWANDISH","address":"7497 ROSS RD MADISON, OH 44057-9578","bldgnbr":"7497","predir":null,"streetname":"ROSS RD","streettype":null,"suffdir":null,"city":"MADISON","state_code":"OH","zip5":"44057","latitude":"41.7265900000000000","longitude":"-81.014060000000000","publicwifi":"U","url":null,"broadband_type_id":6}
{"id":null,"anchorname":"LAKE","address":"5475 CANYON RIDGE DR PAINESVILLE, OH 44077-5188","bldgnbr":"5475","predir":null,"streetname":"CANYON RIDGE DR","streettype":null,"suffdir":null,"city":"PAINESVILLE","state_code":"OH","zip5":"44077","latitude":"41.7237600000000000","longitude":"-81.189430000000000","publicwifi":"U","url":null,"broadband_type_id":null}
{"id":null,"anchorname":"LAKE","address":"5306 FORD RD MADISON, OH 44057-9593","bldgnbr":"5306","predir":null,"streetname":"FORD RD","streettype":null,"suffdir":null,"city":"MADISON","state_code":"OH","zip5":"44057","latitude":"41.7215700000000000","longitude":"-81.098680000000000","publicwifi":"U","url":null,"broadband_type_id":null}
{"id":null,"anchorname":"LAKE METROPARKS POLICE DEPARTMENT","address":"11189 SPEAR RD PAINESVILLE, OH 44077-9542","bldgnbr":"11189","predir":null,"streetname":"SPEAR RD","streettype":null,"suffdir":null,"city":"PAINESVILLE","state_code":"OH","zip5":"44077","latitude":"41.6762500000000000","longitude":"-81.239530000000000","publicwifi":"U","url":null,"broadband_type_id":4}
{"id":null,"anchorname":"HENRY F LAMUTH MIDDLE SCHOOL","address":"6700 AUBURN RD PAINESVILLE, OH 44077","bldgnbr":"6700","predir":null,"streetname":"AUBURN RD","streettype":null,"suffdir":null,"city":"PAINESVILLE","state_code":"OH","zip5":"44077","latitude":"41.6902500000000000","longitude":"-81.248720000000000","publicwifi":"U","url":null,"broadband_type_id":6}
{"id":null,"anchorname":"PAINESVILLE PRESCHOOL K","address":"6235 CHESTNUT ST PAINESVILLE, OH 44077-2438","bldgnbr":"6235","predir":null,"streetname":"CHESTNUT ST","streettype":null,"suffdir":null,"city":"PAINESVILLE","state_code":"OH","zip5":"44077","latitude":"41.7009100000000000","longitude":"-81.257970000000000","publicwifi":"U","url":null,"broadband_type_id":6}
{"id":null,"anchorname":"CONCORD TOWNSHIP FIRE DEPARTMENT STATION 1","address":"11600 CONCORD-HAMBDEN ROAD CONCORD TOWNSHIP, OH 44077","bldgnbr":"11600","predir":null,"streetname":"CONCORD-HAMBDEN ROAD","streettype":null,"suffdir":null,"city":"CONCORD TOWNSHIP","state_code":"OH","zip5":"44077","latitude":"41.6738400000000000","longitude":"-81.222180000000000","publicwifi":"U","url":null,"broadband_type_id":5}
{"id":null,"anchorname":"AUBURN CAREER CENTER","address":"8140 AUBURN RD CONCORD TWP, OH 44077","bldgnbr":"8140","predir":null,"streetname":"AUBURN RD","streettype":null,"suffdir":null,"city":"CONCORD TWP","state_code":"OH","zip5":"44077","latitude":"41.6500630000000000","longitude":"-81.243394000000000","publicwifi":"U","url":null,"broadband_type_id":3}
{"id":null,"anchorname":"LEROY TOWNSHIP FIRE DEPARTMENT","address":"13028 LEROY CENTER ROAD PAINESVILLE, OH 44077","bldgnbr":"13028","predir":null,"streetname":"LEROY CENTER ROAD","streettype":null,"suffdir":null,"city":"PAINESVILLE","state_code":"OH","zip5":"44077","latitude":"41.6863400000000000","longitude":"-81.169870000000000","publicwifi":"U","url":null,"broadband_type_id":5}
{"id":null,"anchorname":"PERRY JOINT FIRE DISTRICT STATION 2","address":"3870 SOUTH RIDGE ROAD PERRY, OH 44081","bldgnbr":"3870","predir":null,"streetname":"SOUTH RIDGE ROAD","streettype":null,"suffdir":null,"city":"PERRY","state_code":"OH","zip5":"44081","latitude":"41.7441600000000000","longitude":"-81.147540000000000","publicwifi":"U","url":null,"broadband_type_id":5}
{"id":null,"anchorname":"PERRY ELEMENTARY SCHOOL","address":"1 LEARNING LN PERRY, OH 44081","bldgnbr":"1","predir":null,"streetname":"LEARNING LN","streettype":null,"suffdir":null,"city":"PERRY","state_code":"OH","zip5":"44081","latitude":"41.7713980000000000","longitude":"-81.135749000000000","publicwifi":"U","url":null,"broadband_type_id":6}
{"id":null,"anchorname":"PERRY MIDDLE SCHOOL","address":"2 LEARNING LN PERRY, OH 44081","bldgnbr":"2","predir":null,"streetname":"LEARNING LN","streettype":null,"suffdir":null,"city":"PERRY","state_code":"OH","zip5":"44081","latitude":"41.7714440000000000","longitude":"-81.133808000000000","publicwifi":"U","url":null,"broadband_type_id":6}
{"id":null,"anchorname":"PERRY HIGH SCHOOL","address":"1 SUCCESS BLVD PERRY, OH 44081","bldgnbr":"1","predir":null,"streetname":"SUCCESS BLVD","streettype":null,"suffdir":null,"city":"PERRY","state_code":"OH","zip5":"44081","latitude":"41.7719660000000000","longitude":"-81.141500000000000","publicwifi":"U","url":null,"broadband_type_id":6}
{"id":null,"anchorname":"PERRY POLICE DEPARTMENT","address":"3758 CENTER ROAD PERRY, OH 44081-0100","bldgnbr":"3758","predir":null,"streetname":"CENTER ROAD","streettype":null,"suffdir":null,"city":"PERRY","state_code":"OH","zip5":"44081","latitude":"41.7718000000000000","longitude":"-81.143700000000000","publicwifi":"U","url":null,"broadband_type_id":4}
{"id":null,"anchorname":"PERRY SCHOOL DISTRICT","address":"4325  MANCHESTER AVE PERRY, OH 44081-9413","bldgnbr":"4325","predir":null,"streetname":"MANCHESTER AVE","streettype":null,"suffdir":null,"city":"PERRY","state_code":"OH","zip5":"44081","latitude":"41.7705000000000000","longitude":"-81.133030000000000","publicwifi":"U","url":null,"broadband_type_id":6}
{"id":null,"anchorname":"MANCHESTER ELEMENTARY SCHOOL","address":"130 WAYNE FRYE DR MANCHESTER, OH 45144","bldgnbr":"130","predir":null,"streetname":"WAYNE FRYE DR","streettype":null,"suffdir":null,"city":"MANCHESTER","state_code":"OH","zip5":"45144","latitude":"41.7705000000000000","longitude":"-81.133030000000000","publicwifi":"U","url":null,"broadband_type_id":6}
{"id":null,"anchorname":"PERRY JOINT FIRE DISTRICT STATION 1 - HEADQUARTERS","address":"3742 CENTER ROAD PERRY, OH 44081","bldgnbr":"3742","predir":null,"streetname":"CENTER ROAD","streettype":null,"suffdir":null,"city":"PERRY","state_code":"OH","zip5":"44081","latitude":"41.7715700000000000","longitude":"-81.146900000000000","publicwifi":"U","url":null,"broadband_type_id":5}
{"id":null,"anchorname":"PERRY PUBLIC LIBRARY","address":"3753 MAIN ST PERRY, OH 44081-8501","bldgnbr":"3753","predir":null,"streetname":"MAIN ST","streettype":null,"suffdir":null,"city":"PERRY","state_code":"OH","zip5":"44081","latitude":"41.7647700000000000","longitude":"-81.152020000000000","publicwifi":"Y","url":null,"broadband_type_id":6}
{"id":null,"anchorname":"MADISON WALK-IN CARE","address":"6270 N RIDGE RD MADISON, OH 44057-2567","bldgnbr":"6270","predir":null,"streetname":"N RIDGE RD","streettype":null,"suffdir":null,"city":"MADISON","state_code":"OH","zip5":"44057","latitude":"41.8028900000000000","longitude":"-81.064360000000000","publicwifi":"U","url":null,"broadband_type_id":3}
{"id":null,"anchorname":"MADISON MIDDLE SCHOOL","address":"6079 MIDDLE RIDGE RD MADISON, OH 44057","bldgnbr":"6079","predir":null,"streetname":"MIDDLE RIDGE RD","streettype":null,"suffdir":null,"city":"MADISON","state_code":"OH","zip5":"44057","latitude":"41.7915770000000000","longitude":"-81.072399000000000","publicwifi":"U","url":null,"broadband_type_id":6}
{"id":null,"anchorname":"MADISON PUBLIC LIBRARY","address":"6111 MIDDLE RIDGE RD MADISON, OH 44057-2808","bldgnbr":"6111","predir":null,"streetname":"MIDDLE RIDGE RD","streettype":null,"suffdir":null,"city":"MADISON","state_code":"OH","zip5":"44057","latitude":"41.7889800000000000","longitude":"-81.069740000000000","publicwifi":"Y","url":null,"broadband_type_id":6}
{"id":null,"anchorname":"MADISON HIGH SCHOOL","address":"3100 BURNS RD MADISON, OH 44057","bldgnbr":"3100","predir":null,"streetname":"BURNS RD","streettype":null,"suffdir":null,"city":"MADISON","state_code":"OH","zip5":"44057","latitude":"41.7896600000000000","longitude":"-81.066210000000000","publicwifi":"U","url":null,"broadband_type_id":6}
{"id":null,"anchorname":"NORTH ELEMENTARY SCHOOL","address":"1941 RED BIRD RD MADISON, OH 44057","bldgnbr":"1941","predir":null,"streetname":"RED BIRD RD","streettype":null,"suffdir":null,"city":"MADISON","state_code":"OH","zip5":"44057","latitude":"41.8202710000000000","longitude":"-81.060661000000000","publicwifi":"U","url":null,"broadband_type_id":6}
{"id":null,"anchorname":"MADISON HEALTH CARE","address":"7600 S RIDGE RD MADISON, OH 44057","bldgnbr":"7600","predir":null,"streetname":"S RIDGE RD","streettype":null,"suffdir":null,"city":"MADISON","state_code":"OH","zip5":"44057","latitude":"41.7781600000000000","longitude":"-81.014370000000000","publicwifi":"U","url":null,"broadband_type_id":3}
{"id":null,"anchorname":"MADISON FIRE DISTRICT STATION 3","address":"6630 ROSS ROAD MADISON, OH 44057","bldgnbr":"6630","predir":null,"streetname":"ROSS ROAD","streettype":null,"suffdir":null,"city":"MADISON","state_code":"OH","zip5":"44057","latitude":"41.7250000000000000","longitude":"-81.048550000000000","publicwifi":"U","url":null,"broadband_type_id":5}
{"id":null,"anchorname":"Middle Creek Montessori","address":"1572 Cobb Hill Road","bldgnbr":"1572","predir":null,"streetname":"Cobb Hill","streettype":"Road","suffdir":null,"city":"Bozeman","state_code":"MT","zip5":"59718","latitude":"45.6677795960000000","longitude":"-111.16486079100000","publicwifi":"U","url":"http://opi.mt.gov/Resources/Directory/Index.html","broadband_type_id":6}
{"id":null,"anchorname":"LAKE COUNTY ESC","address":"382 BLACKBROOK RD PAINESVILLE, OH 44077","bldgnbr":"382","predir":null,"streetname":"BLACKBROOK RD","streettype":null,"suffdir":null,"city":"PAINESVILLE","state_code":"OH","zip5":"44077","latitude":"41.7239810000000000","longitude":"-81.282184000000000","publicwifi":"U","url":null,"broadband_type_id":6}
{"id":null,"anchorname":"OHIO UNIV SOUTHERN CAMPUS-NYSP","address":"1804 LIBERTY AVE IRONTON, OH 45638-2279","bldgnbr":"1804","predir":null,"streetname":"LIBERTY AVE","streettype":null,"suffdir":null,"city":"IRONTON","state_code":"OH","zip5":"45638","latitude":"38.5254100000000000","longitude":"-82.665590000000000","publicwifi":"U","url":null,"broadband_type_id":6}
{"id":null,"anchorname":"OHIO BUREAU OF MOTOR VEHICLES","address":"2736 N RIDGE RD STE 6 PAINESVILLE, OH 44077-6013","bldgnbr":"2736","predir":null,"streetname":"N RIDGE RD STE 6","streettype":null,"suffdir":null,"city":"PAINESVILLE","state_code":"OH","zip5":"44077","latitude":"41.7645920000000000","longitude":"-81.182691000000000","publicwifi":"U","url":null,"broadband_type_id":6}
{"id":null,"anchorname":"MISS KIMBERLY'S D C CTR INC","address":"7464 TYLER BLVD MENTOR, OH 44060-5402","bldgnbr":"7464","predir":null,"streetname":"TYLER BLVD","streettype":null,"suffdir":null,"city":"MENTOR","state_code":"OH","zip5":"44060","latitude":"41.6593400000000000","longitude":"-81.374330000000000","publicwifi":"U","url":null,"broadband_type_id":6}
{"id":null,"anchorname":"LAKE EDUCATION ASSISTANCE FOUN","address":"7519 MENTOR AVE MENTOR, OH 44060-5434","bldgnbr":"7519","predir":null,"streetname":"MENTOR AVE","streettype":null,"suffdir":null,"city":"MENTOR","state_code":"OH","zip5":"44060","latitude":"41.6556000000000000","longitude":"-81.373080000000000","publicwifi":"U","url":null,"broadband_type_id":6}
{"id":null,"anchorname":"OHIO BUREAU OF MOTOR VEHICLES","address":"2717 S 3RD ST IRONTON, OH 45638-2760","bldgnbr":"2717","predir":null,"streetname":"S 3RD ST","streettype":null,"suffdir":null,"city":"IRONTON","state_code":"OH","zip5":"45638","latitude":"38.5120240000000000","longitude":"-82.666373000000000","publicwifi":"U","url":null,"broadband_type_id":6}
{"id":null,"anchorname":"CAMP SUE OSBORN INC","address":"7900 CHARDON RD KIRTLAND, OH 44094-9017","bldgnbr":"7900","predir":null,"streetname":"CHARDON RD","streettype":null,"suffdir":null,"city":"KIRTLAND","state_code":"OH","zip5":"44094","latitude":"41.5823200000000000","longitude":"-81.360970000000000","publicwifi":"U","url":null,"broadband_type_id":null}
{"id":null,"anchorname":"EAST SHORE SERRC","address":"7900 CHARDON RD KIRTLAND, OH 44094-9017","bldgnbr":"7900","predir":null,"streetname":"CHARDON RD","streettype":null,"suffdir":null,"city":"KIRTLAND","state_code":"OH","zip5":"44094","latitude":"41.5823200000000000","longitude":"-81.360970000000000","publicwifi":"U","url":null,"broadband_type_id":null}
{"id":null,"anchorname":"SUMMERVILLE AT MENTOR","address":"5700 EMERALD CT MENTOR, OH 44060","bldgnbr":"5700","predir":null,"streetname":"EMERALD CT","streettype":null,"suffdir":null,"city":"MENTOR","state_code":"OH","zip5":"44060","latitude":"41.7162000000000000","longitude":"-81.298420000000000","publicwifi":"U","url":null,"broadband_type_id":null}
{"id":null,"anchorname":"CARDINAL HOME HC-CARDINAL KIDS","address":"7501 MENTOR AVE MENTOR, OH 44060-5449","bldgnbr":"7501","predir":null,"streetname":"MENTOR AVE","streettype":null,"suffdir":null,"city":"MENTOR","state_code":"OH","zip5":"44060","latitude":"41.6553500000000000","longitude":"-81.373500000000000","publicwifi":"U","url":null,"broadband_type_id":null}
{"id":null,"anchorname":"BROADFIELD MANOR NURSING / CONV HOME","address":"7927 MIDDLE RIDGE RD MADISON, OH 44057","bldgnbr":"7927","predir":null,"streetname":"MIDDLE RIDGE RD","streettype":null,"suffdir":null,"city":"MADISON","state_code":"OH","zip5":"44057","latitude":"41.7896600000000000","longitude":"-81.003370000000000","publicwifi":"U","url":null,"broadband_type_id":3}
{"id":null,"anchorname":"STEPPING STONES PRESCHOOL","address":"2471 HUBBARD RD MADISON, OH 44057-3400","bldgnbr":"2471","predir":null,"streetname":"HUBBARD RD","streettype":null,"suffdir":null,"city":"MADISON","state_code":"OH","zip5":"44057","latitude":"41.8077800000000000","longitude":"-81.048350000000000","publicwifi":"U","url":null,"broadband_type_id":6}
{"id":null,"anchorname":"MADISON TOWNSHIP POLICE DEPARTMENT","address":"2065 HUBBARD RD MADISON, OH 44057-2565","bldgnbr":"2065","predir":null,"streetname":"HUBBARD RD","streettype":null,"suffdir":null,"city":"MADISON","state_code":"OH","zip5":"44057","latitude":"41.8179100000000000","longitude":"-81.047160000000000","publicwifi":"U","url":null,"broadband_type_id":4}
{"id":null,"anchorname":"LAKE MEDICAL CENTER","address":"2041 HUBBARD RD MADISON, OH 44057-2565","bldgnbr":"2041","predir":null,"streetname":"HUBBARD RD","streettype":null,"suffdir":null,"city":"MADISON","state_code":"OH","zip5":"44057","latitude":"41.8187000000000000","longitude":"-81.047160000000000","publicwifi":"U","url":null,"broadband_type_id":3}
{"id":null,"anchorname":"GABLES NURSING HOME","address":"731 N LAKE ST MADISON, OH 44057","bldgnbr":"731","predir":null,"streetname":"N LAKE ST","streettype":null,"suffdir":null,"city":"MADISON","state_code":"OH","zip5":"44057","latitude":"41.7847700000000000","longitude":"-81.047950000000000","publicwifi":"U","url":null,"broadband_type_id":3}
{"id":null,"anchorname":"SOUTH  ELEMENTARY SCHOOL","address":"92 E MAIN ST MADISON, OH 44057","bldgnbr":"92","predir":null,"streetname":"E MAIN ST","streettype":null,"suffdir":null,"city":"MADISON","state_code":"OH","zip5":"44057","latitude":"41.7692380000000000","longitude":"-81.043576000000000","publicwifi":"U","url":null,"broadband_type_id":6}
{"id":null,"anchorname":"MADISON LOCAL PRESCHOOL PROGRAM","address":"92 E MAIN ST MADISON, OH 44057-3224","bldgnbr":"92","predir":null,"streetname":"E MAIN ST","streettype":null,"suffdir":null,"city":"MADISON","state_code":"OH","zip5":"44057","latitude":"41.7700400000000000","longitude":"-81.044860000000000","publicwifi":"U","url":null,"broadband_type_id":6}
{"id":null,"anchorname":"MEMORIAL COMPLEX SCHOOLS","address":"92 E MAIN ST MADISON, OH 44057-3224","bldgnbr":"92","predir":null,"streetname":"E MAIN ST","streettype":null,"suffdir":null,"city":"MADISON","state_code":"OH","zip5":"44057","latitude":"41.7700400000000000","longitude":"-81.044860000000000","publicwifi":"U","url":null,"broadband_type_id":6}
{"id":null,"anchorname":"MADISON POLICE DEPARTMENT","address":"126 W MAIN ST MADISON, OH 44057-3128","bldgnbr":"126","predir":null,"streetname":"W MAIN ST","streettype":null,"suffdir":null,"city":"MADISON","state_code":"OH","zip5":"44057","latitude":"41.7714700000000000","longitude":"-81.050120000000000","publicwifi":"U","url":null,"broadband_type_id":4}
{"id":null,"anchorname":"MADISON FIRE DISTRICT STATION 1","address":"33 NORTH LAKE STREET MADISON, OH 44057","bldgnbr":"33","predir":null,"streetname":"NORTH LAKE STREET","streettype":null,"suffdir":null,"city":"MADISON","state_code":"OH","zip5":"44057","latitude":"41.7723100000000000","longitude":"-81.047380000000000","publicwifi":"U","url":null,"broadband_type_id":5}
{"id":null,"anchorname":"GRAND RIVER FIRE DEPARTMENT","address":"205 SINGER AVENUE GRAND RIVER, OH 44045","bldgnbr":"205","predir":null,"streetname":"SINGER AVENUE","streettype":null,"suffdir":null,"city":"GRAND RIVER","state_code":"OH","zip5":"44045","latitude":"41.7361000000000000","longitude":"-81.281300000000000","publicwifi":"U","url":null,"broadband_type_id":5}
{"id":null,"anchorname":"GRAND RIVER POLICE DEPARTMENT","address":"205 SINGER AVENUE GRAND RIVER, OH 44045-0216","bldgnbr":"205","predir":null,"streetname":"SINGER AVENUE","streettype":null,"suffdir":null,"city":"GRAND RIVER","state_code":"OH","zip5":"44045","latitude":"41.7364720000000000","longitude":"-81.279784000000000","publicwifi":"U","url":null,"broadband_type_id":4}
{"id":null,"anchorname":"NORTH PERRY POLICE DEPARTMENT","address":"4449 LOCKWOOD RD PERRY, OH 44081-9720","bldgnbr":"4449","predir":null,"streetname":"LOCKWOOD RD","streettype":null,"suffdir":null,"city":"PERRY","state_code":"OH","zip5":"44081","latitude":"41.8085200000000000","longitude":"-81.129990000000000","publicwifi":"U","url":null,"broadband_type_id":4}
{"id":null,"anchorname":"KIRTLAND FIRE DEPARTMENT STATION 2","address":"10282 CHILLICOTHE ROAD KIRTLAND, OH 44094","bldgnbr":"10282","predir":null,"streetname":"CHILLICOTHE ROAD","streettype":null,"suffdir":null,"city":"KIRTLAND","state_code":"OH","zip5":"44094","latitude":"41.5916900000000000","longitude":"-81.349190000000000","publicwifi":"U","url":null,"broadband_type_id":5}
{"id":null,"anchorname":"MENTOR POLICE DEPARTMENT","address":"85000 CIVIC CENTER BOULEVARD MENTOR, OH 44060","bldgnbr":"85000","predir":null,"streetname":"CIVIC CENTER BOULEVARD","streettype":null,"suffdir":null,"city":"MENTOR","state_code":"OH","zip5":"44060","latitude":"41.6836000000000000","longitude":"-81.333500000000000","publicwifi":"U","url":null,"broadband_type_id":4}
{"id":null,"anchorname":"LAKE HOSPITAL","address":"7956 TYLER BLVD MENTOR, OH 44060-4806","bldgnbr":"7956","predir":null,"streetname":"TYLER BLVD","streettype":null,"suffdir":null,"city":"MENTOR","state_code":"OH","zip5":"44060","latitude":"41.6789700000000000","longitude":"-81.357000000000000","publicwifi":"U","url":null,"broadband_type_id":3}
{"id":null,"anchorname":"MENTOR PUBLIC LIBRARY","address":"8215 MENTOR AVE MENTOR, OH 44060-5730","bldgnbr":"8215","predir":null,"streetname":"MENTOR AVE","streettype":null,"suffdir":null,"city":"MENTOR","state_code":"OH","zip5":"44060","latitude":"41.6652300000000000","longitude":"-81.346520000000000","publicwifi":"Y","url":null,"broadband_type_id":6}
{"id":null,"anchorname":"MENTOR FIRE DEPARTMENT STATION 3","address":"7957 MENTOR AVENUE MENTOR, OH 44060","bldgnbr":"7957","predir":null,"streetname":"MENTOR AVENUE","streettype":null,"suffdir":null,"city":"MENTOR","state_code":"OH","zip5":"44060","latitude":"41.6627600000000000","longitude":"-81.356210000000000","publicwifi":"U","url":null,"broadband_type_id":5}
{"id":null,"anchorname":"LAKELINE POLICE DEPARTMENT","address":"1002 E 331ST ST WILLOUGHBY, OH 44095-2804","bldgnbr":"1002","predir":null,"streetname":"E 331ST ST","streettype":null,"suffdir":null,"city":"WILLOUGHBY","state_code":"OH","zip5":"44095","latitude":"41.6476900000000000","longitude":"-81.455290000000000","publicwifi":"U","url":null,"broadband_type_id":4}
{"id":null,"anchorname":"LONGFELLOW ELEMENTARY SCHOOL","address":"35200 STEVENS BLVD EASTLAKE, OH 44095","bldgnbr":"35200","predir":null,"streetname":"STEVENS BLVD","streettype":null,"suffdir":null,"city":"EASTLAKE","state_code":"OH","zip5":"44095","latitude":"41.6482480000000000","longitude":"-81.439822000000000","publicwifi":"U","url":null,"broadband_type_id":6}
{"id":null,"anchorname":"PATRIOT EMERGENCY MEDICAL SERVICES - IRONTON STATION","address":"2914 SOUTH 4TH STREET IRONTON, OH 45638","bldgnbr":"2914","predir":null,"streetname":"SOUTH 4TH STREET","streettype":null,"suffdir":null,"city":"IRONTON","state_code":"OH","zip5":"45638","latitude":"38.5102000000000000","longitude":"-82.663910000000000","publicwifi":"U","url":null,"broadband_type_id":3}
{"id":null,"anchorname":"BRYANT HEALTH CARE CENTER","address":"2932 SOUTH 5TH STREET IRONTON, OH 45638","bldgnbr":"2932","predir":null,"streetname":"SOUTH 5TH STREET","streettype":null,"suffdir":null,"city":"IRONTON","state_code":"OH","zip5":"45638","latitude":"38.5099300000000000","longitude":"-82.662060000000000","publicwifi":"U","url":null,"broadband_type_id":3}
{"id":null,"anchorname":"JO LIN HEALTH CENTER","address":"1050 CLINTON ST IRONTON, OH 45638","bldgnbr":"1050","predir":null,"streetname":"CLINTON ST","streettype":null,"suffdir":null,"city":"IRONTON","state_code":"OH","zip5":"45638","latitude":"38.5128500000000000","longitude":"-82.656380000000000","publicwifi":"U","url":null,"broadband_type_id":3}
{"id":null,"anchorname":"OPEN DOOR SCHOOL","address":"421 LORAIN ST IRONTON, OH 45638-2838","bldgnbr":"421","predir":null,"streetname":"LORAIN ST","streettype":null,"suffdir":null,"city":"IRONTON","state_code":"OH","zip5":"45638","latitude":"38.5086300000000000","longitude":"-82.662000000000000","publicwifi":"U","url":null,"broadband_type_id":6}
{"id":null,"anchorname":"OHIO UNIVERSITY-SOUTHERN CAMPUS","address":"1804 LIBERTY AVE IRONTON, OH 45638","bldgnbr":"1804","predir":null,"streetname":"LIBERTY AVE","streettype":null,"suffdir":null,"city":"IRONTON","state_code":"OH","zip5":"45638","latitude":"38.5255210000000000","longitude":"-82.665574000000000","publicwifi":"U","url":null,"broadband_type_id":6}
{"id":null,"anchorname":"BLACKFEET FAMILY WELLNESS CENTER","address":"210 US HWY 89 WEST","bldgnbr":"210","predir":null,"streetname":"89","streettype":null,"suffdir":"West","city":"Browning","state_code":"MT","zip5":"59417","latitude":"48.5560557180000000","longitude":"-113.06706941900000","publicwifi":"U","url":null,"broadband_type_id":6}
{"id":null,"anchorname":"LAWRENCE COUNTY EMERGENCY MANAGEMENT AGENCY","address":"515 PARK AVENUE IRONTON, OH 45638","bldgnbr":"515","predir":null,"streetname":"PARK AVENUE","streettype":null,"suffdir":null,"city":"IRONTON","state_code":"OH","zip5":"45638","latitude":"38.5359600000000000","longitude":"-82.682940000000000","publicwifi":"U","url":null,"broadband_type_id":1}
{"id":null,"anchorname":"IRONTON CITY","address":"105  S 5TH ST IRONTON, OH 45638-1426","bldgnbr":"105","predir":null,"streetname":"S 5TH ST","streettype":null,"suffdir":null,"city":"IRONTON","state_code":"OH","zip5":"45638","latitude":"38.5368800000000000","longitude":"-82.683770000000000","publicwifi":"U","url":null,"broadband_type_id":1}
{"id":null,"anchorname":"IRONTON HEAD START","address":"1616 S 6TH ST IRONTON, OH 45638-2263","bldgnbr":"1616","predir":null,"streetname":"S 6TH ST","streettype":null,"suffdir":null,"city":"IRONTON","state_code":"OH","zip5":"45638","latitude":"38.5240400000000000","longitude":"-82.672310000000000","publicwifi":"U","url":null,"broadband_type_id":null}
{"id":null,"anchorname":"LAWRENCE COUNTY COURT OF COMMON PLEAS PROBATE AND JUVENILE DIVISIONS","address":"1 VETERANS SQUARE IRONTON, OH 45638-1585","bldgnbr":"1","predir":null,"streetname":"VETERANS SQUARE","streettype":null,"suffdir":null,"city":"IRONTON","state_code":"OH","zip5":"45638","latitude":"38.5359000000000000","longitude":"-82.684400000000000","publicwifi":"U","url":null,"broadband_type_id":6}
{"id":null,"anchorname":"LAWRENCE CO CHILD SVS BD","address":"912 VERNON ST IRONTON, OH 45638-1646","bldgnbr":"912","predir":null,"streetname":"VERNON ST","streettype":null,"suffdir":null,"city":"IRONTON","state_code":"OH","zip5":"45638","latitude":"38.5370000000000000","longitude":"-82.677910000000000","publicwifi":"U","url":null,"broadband_type_id":null}
{"id":null,"anchorname":"IRONTON MUNICIPAL COURT","address":"301 SOUTH THIRD STREET IRONTON, OH 45638-0237","bldgnbr":"301","predir":null,"streetname":"SOUTH THIRD STREET","streettype":null,"suffdir":null,"city":"IRONTON","state_code":"OH","zip5":"45638","latitude":"38.5338320000000000","longitude":"-82.684453000000000","publicwifi":"U","url":null,"broadband_type_id":1}
{"id":null,"anchorname":"IRONTON LAWRENCE COUNTY AREA CAO","address":"305 N 5TH ST IRONTON, OH 45638-1429","bldgnbr":"305","predir":null,"streetname":"N 5TH ST","streettype":null,"suffdir":null,"city":"IRONTON","state_code":"OH","zip5":"45638","latitude":"38.5385000000000000","longitude":"-82.685090000000000","publicwifi":"U","url":null,"broadband_type_id":1}
{"id":null,"anchorname":"ANDIS HEAD START","address":"2204 STATE ROUTE 217 KITTS HILL, OH 45645-8602","bldgnbr":"2204","predir":null,"streetname":"STATE ROUTE 217","streettype":null,"suffdir":null,"city":"KITTS HILL","state_code":"OH","zip5":"45645","latitude":"38.5509100000000000","longitude":"-82.523680000000000","publicwifi":"U","url":null,"broadband_type_id":6}
{"id":null,"anchorname":"LAWRENCE EDUC SRV CTR","address":"111  SOUTH 4TH STREET 3RD FLOOR IRONTON, OH 45638","bldgnbr":"111","predir":null,"streetname":"SOUTH 4TH STREET 3RD FLOOR","streettype":null,"suffdir":null,"city":"IRONTON","state_code":"OH","zip5":"45638","latitude":"38.5360240000000000","longitude":"-82.684293000000000","publicwifi":"U","url":null,"broadband_type_id":null}
{"id":null,"anchorname":"LAWRENCE","address":"111 S 4TH ST IRONTON, OH 45638-1522","bldgnbr":"111","predir":null,"streetname":"S 4TH ST","streettype":null,"suffdir":null,"city":"IRONTON","state_code":"OH","zip5":"45638","latitude":"38.5359700000000000","longitude":"-82.684430000000000","publicwifi":"U","url":null,"broadband_type_id":null}
{"id":null,"anchorname":"MENDED REEDS INC","address":"215 S 4TH ST IRONTON, OH 45638-1611","bldgnbr":"215","predir":null,"streetname":"S 4TH ST","streettype":null,"suffdir":null,"city":"IRONTON","state_code":"OH","zip5":"45638","latitude":"38.5351200000000000","longitude":"-82.683740000000000","publicwifi":"U","url":null,"broadband_type_id":null}
{"id":null,"anchorname":"ROCK HILL CHILD DEVLOPMENT CENTER","address":"2325 COUNTY ROAD 26 IRONTON, OH 45638-8385","bldgnbr":"2325","predir":null,"streetname":"COUNTY ROAD 26","streettype":null,"suffdir":null,"city":"IRONTON","state_code":"OH","zip5":"45638","latitude":"38.6082300000000000","longitude":"-82.650170000000000","publicwifi":"U","url":null,"broadband_type_id":null}
{"id":null,"anchorname":"SOUTHEAST OHIO EMERGENCY MEDICAL SERVICES STATION 11 - IRONTON","address":"2324 SOUTH 8TH STREET IRONTON, OH 45638","bldgnbr":"2324","predir":null,"streetname":"SOUTH 8TH STREET","streettype":null,"suffdir":null,"city":"IRONTON","state_code":"OH","zip5":"45638","latitude":"38.5194200000000000","longitude":"-82.665640000000000","publicwifi":"U","url":null,"broadband_type_id":3}
{"id":null,"anchorname":"CHRISTIAN DAY CARE CENTER INC","address":"1541 S 7TH ST IRONTON, OH 45638-2175","bldgnbr":"1541","predir":null,"streetname":"S 7TH ST","streettype":null,"suffdir":null,"city":"IRONTON","state_code":"OH","zip5":"45638","latitude":"38.5255300000000000","longitude":"-82.671630000000000","publicwifi":"U","url":null,"broadband_type_id":3}
{"id":null,"anchorname":"IRONTON HIGH SCHOOL","address":"1701 S 7TH ST IRONTON, OH 45638","bldgnbr":"1701","predir":null,"streetname":"S 7TH ST","streettype":null,"suffdir":null,"city":"IRONTON","state_code":"OH","zip5":"45638","latitude":"38.5239800000000000","longitude":"-82.670380000000000","publicwifi":"U","url":null,"broadband_type_id":6}
{"id":null,"anchorname":"LAWRENCE COUNTY JAIL-SHERIFF DEPARTMENT","address":"115 S 5TH ST IRONTON, OH 45638","bldgnbr":"115","predir":null,"streetname":"S 5TH ST","streettype":null,"suffdir":null,"city":"IRONTON","state_code":"OH","zip5":"45638","latitude":"38.5368400000000000","longitude":"-82.683740000000000","publicwifi":"U","url":null,"broadband_type_id":4}
{"id":null,"anchorname":"LAWRENCE COUNTY SHERIFFS OFFICE","address":"115 S 5TH ST IRONTON, OH 45638-1426","bldgnbr":"115","predir":null,"streetname":"S 5TH ST","streettype":null,"suffdir":null,"city":"IRONTON","state_code":"OH","zip5":"45638","latitude":"38.5368400000000000","longitude":"-82.683740000000000","publicwifi":"U","url":null,"broadband_type_id":4}
{"id":null,"anchorname":"ONE STOP HEAD START \u0026 DAY CARE","address":"120 N 3RD ST IRONTON, OH 45638-1460","bldgnbr":"120","predir":null,"streetname":"N 3RD ST","streettype":null,"suffdir":null,"city":"IRONTON","state_code":"OH","zip5":"45638","latitude":"38.5355600000000000","longitude":"-82.686300000000000","publicwifi":"U","url":null,"broadband_type_id":3}
{"id":null,"anchorname":"BRIGGS LAWRENCE COUNTY PUBLIC LIBRARY","address":"321 S 4TH ST IRONTON, OH 45638-1698","bldgnbr":"321","predir":null,"streetname":"S 4TH ST","streettype":null,"suffdir":null,"city":"IRONTON","state_code":"OH","zip5":"45638","latitude":"38.5343200000000000","longitude":"-82.683090000000000","publicwifi":"Y","url":null,"broadband_type_id":6}
{"id":null,"anchorname":"IRONTON POLICE DEPARTMENT","address":"301 SOUTH 3RD STREET IRONTON, OH 45638","bldgnbr":"301","predir":null,"streetname":"SOUTH 3RD STREET","streettype":null,"suffdir":null,"city":"IRONTON","state_code":"OH","zip5":"45638","latitude":"38.5338000000000000","longitude":"-82.684470000000000","publicwifi":"U","url":null,"broadband_type_id":4}
{"id":null,"anchorname":"IRONTON ELEMENTARY SCHOOL","address":"302 DELAWARE ST IRONTON, OH 45638","bldgnbr":"302","predir":null,"streetname":"DELAWARE ST","streettype":null,"suffdir":null,"city":"IRONTON","state_code":"OH","zip5":"45638","latitude":"38.5506640000000000","longitude":"-82.706103000000000","publicwifi":"U","url":null,"broadband_type_id":6}
{"id":null,"anchorname":"IRONTON MIDDLE SCHOOL","address":"302 DELAWARE ST IRONTON, OH 45638","bldgnbr":"302","predir":null,"streetname":"DELAWARE ST","streettype":null,"suffdir":null,"city":"IRONTON","state_code":"OH","zip5":"45638","latitude":"38.5509000000000000","longitude":"-82.705950000000000","publicwifi":"U","url":null,"broadband_type_id":6}
{"id":null,"anchorname":"SYMMES VALLEY HIGH SCHOOL","address":"14778 STATE ROUTE 141 WILLOW WOOD, OH 45696","bldgnbr":"14778","predir":null,"streetname":"STATE ROUTE 141","streettype":null,"suffdir":null,"city":"WILLOW WOOD","state_code":"OH","zip5":"45696","latitude":"38.6078300000000000","longitude":"-82.484850000000000","publicwifi":"U","url":null,"broadband_type_id":6}
{"id":null,"anchorname":"SYMMES VALLEY ELEMENTARY SCHOOL","address":"14860 STATE ROUTE 141 WILLOW WOOD, OH 45696","bldgnbr":"14860","predir":null,"streetname":"STATE ROUTE 141","streettype":null,"suffdir":null,"city":"WILLOW WOOD","state_code":"OH","zip5":"45696","latitude":"38.6079540000000000","longitude":"-82.483659000000000","publicwifi":"U","url":null,"broadband_type_id":6}
{"id":null,"anchorname":"SOUTHEAST OHIO EMERGENCY MEDICAL SERVICES STATION 15 - WILLOW WOOD","address":"14110 STATE HIGHWAY 141 WILLOW WOOD, OH 45696","bldgnbr":"14110","predir":null,"streetname":"STATE HIGHWAY 141","streettype":null,"suffdir":null,"city":"WILLOW WOOD","state_code":"OH","zip5":"45696","latitude":"38.5911000000000000","longitude":"-82.454500000000000","publicwifi":"U","url":null,"broadband_type_id":3}
{"id":null,"anchorname":"AID TOWNSHIP VOLUNTEER FIRE DEPARTMENT INCORPORATED","address":"14112 STATE HIGHWAY 141 WILLOW WOOD, OH 45696","bldgnbr":"14112","predir":null,"streetname":"STATE HIGHWAY 141","streettype":null,"suffdir":null,"city":"WILLOW WOOD","state_code":"OH","zip5":"45696","latitude":"38.5911000000000000","longitude":"-82.454500000000000","publicwifi":"U","url":null,"broadband_type_id":5}
{"id":null,"anchorname":"WINDSOR TOWNSHIP VOLUNTEER FIRE DEPARTMENT","address":"8064 COUNTY ROAD 2 WILLOW WOOD, OH 45696","bldgnbr":"8064","predir":null,"streetname":"COUNTY ROAD 2","streettype":null,"suffdir":null,"city":"WILLOW WOOD","state_code":"OH","zip5":"45696","latitude":"38.5527100000000000","longitude":"-82.426570000000000","publicwifi":"U","url":null,"broadband_type_id":5}
{"id":null,"anchorname":"LAWRENCE TOWNSHIP FIRE DEPARTMENT STATION 2","address":"5216 COUNTY ROAD 6 KITTS HILL, OH 45645","bldgnbr":"5216","predir":null,"streetname":"COUNTY ROAD 6","streettype":null,"suffdir":null,"city":"KITTS HILL","state_code":"OH","zip5":"45645","latitude":"38.5490800000000000","longitude":"-82.523430000000000","publicwifi":"U","url":null,"broadband_type_id":5}
{"id":null,"anchorname":"LAWRENCE TOWNSHIP VOLUNTEER FIRE DEPARTMENT STATION 1 - HEADQUARTERS","address":"7484 STATE HIGHWAY 141 KITTS HILL, OH 45645","bldgnbr":"7484","predir":null,"streetname":"STATE HIGHWAY 141","streettype":null,"suffdir":null,"city":"KITTS HILL","state_code":"OH","zip5":"45645","latitude":"38.5616000000000000","longitude":"-82.541800000000000","publicwifi":"U","url":null,"broadband_type_id":5}
{"id":null,"anchorname":"DECATUR TOWNSHIP VOLUNTEER FIRE DEPARTMENT INCORPORATED","address":"16492 STATE HIGHWAY 93 PEDRO, OH 45659","bldgnbr":"16492","predir":null,"streetname":"STATE HIGHWAY 93","streettype":null,"suffdir":null,"city":"PEDRO","state_code":"OH","zip5":"45659","latitude":"38.6617000000000000","longitude":"-82.632400000000000","publicwifi":"U","url":null,"broadband_type_id":5}
{"id":null,"anchorname":"ELIZABETH TOWNSHIP VOLUNTEER FIRE DEPARTMENT STATION 1 - HEADQUARTERS","address":"127 TOWNSHIP ROAD 113 PEDRO, OH 45659","bldgnbr":"127","predir":null,"streetname":"TOWNSHIP ROAD 113","streettype":null,"suffdir":null,"city":"PEDRO","state_code":"OH","zip5":"45659","latitude":"38.6280800000000000","longitude":"-82.666440000000000","publicwifi":"U","url":null,"broadband_type_id":5}
{"id":null,"anchorname":"ROCK HILL ELEMENTARY SCHOOL","address":"2676 COUNTY ROAD 26 IRONTON, OH 45638","bldgnbr":"2676","predir":null,"streetname":"COUNTY ROAD 26","streettype":null,"suffdir":null,"city":"IRONTON","state_code":"OH","zip5":"45638","latitude":"38.6128790000000000","longitude":"-82.658179000000000","publicwifi":"U","url":null,"broadband_type_id":6}
{"id":null,"anchorname":"ROCK HILL MIDDLE SCHOOL","address":"2171 COUNTY ROAD 26 IRONTON, OH 45638","bldgnbr":"2171","predir":null,"streetname":"COUNTY ROAD 26","streettype":null,"suffdir":null,"city":"IRONTON","state_code":"OH","zip5":"45638","latitude":"38.6096100000000000","longitude":"-82.653440000000000","publicwifi":"U","url":null,"broadband_type_id":6}
{"id":null,"anchorname":"Horizon Elementary","address":"101 3rd Avenue SE","bldgnbr":"101","predir":null,"streetname":"3rd","streettype":"Ave","suffdir":"Southeast","city":"Cut Bank","state_code":"MT","zip5":"59427","latitude":"48.6324696340000000","longitude":"-112.33123097000000","publicwifi":"U","url":"http://opi.mt.gov/Resources/Directory/Index.html","broadband_type_id":6}
{"id":null,"anchorname":"Hill County Emergency Operations Center","address":"1450 2Nd Street West","bldgnbr":"1450","predir":null,"streetname":"2Nd","streettype":"St","suffdir":"W","city":"Havre","state_code":"MT","zip5":"59501","latitude":"48.5529509860000000","longitude":"-109.70736552100000","publicwifi":"U","url":"http://pssb.mt.gov/default.mcpx","broadband_type_id":1}
{"id":null,"anchorname":"KIDS ARE OUR FUTURE DC \u0026 PRESC","address":"47 TOWNSHIP ROAD 509 SOUTH POINT, OH 45680-7475","bldgnbr":"47","predir":null,"streetname":"TOWNSHIP ROAD 509","streettype":null,"suffdir":null,"city":"SOUTH POINT","state_code":"OH","zip5":"45680","latitude":"38.4465500000000000","longitude":"-82.586920000000000","publicwifi":"U","url":null,"broadband_type_id":6}
{"id":null,"anchorname":"LAWRENCE","address":"3420 STATE ROUTE 93 IRONTON, OH 45638-8497","bldgnbr":"3420","predir":null,"streetname":"STATE ROUTE 93","streettype":null,"suffdir":null,"city":"IRONTON","state_code":"OH","zip5":"45638","latitude":"38.5708000000000000","longitude":"-82.634790000000000","publicwifi":"U","url":null,"broadband_type_id":null}
{"id":null,"anchorname":"LAWRENCE","address":"894 COUNTY ROAD 24 IRONTON, OH 45638-2986","bldgnbr":"894","predir":null,"streetname":"COUNTY ROAD 24","streettype":null,"suffdir":null,"city":"IRONTON","state_code":"OH","zip5":"45638","latitude":"38.5154900000000000","longitude":"-82.650280000000000","publicwifi":"U","url":null,"broadband_type_id":null}
{"id":null,"anchorname":"OHIO STATE HIGHWAY PATROL","address":"141 TOWNSHIP RD 161 SOUTH POINT, OH 45680","bldgnbr":"141","predir":null,"streetname":"TOWNSHIP RD 161","streettype":null,"suffdir":null,"city":"SOUTH POINT","state_code":"OH","zip5":"45680","latitude":"38.4378760000000000","longitude":"-82.577458000000000","publicwifi":"U","url":null,"broadband_type_id":4}
{"id":null,"anchorname":"DAWSON-BRYANT","address":"222  LANE ST COAL GROVE, OH 45638-2947","bldgnbr":"222","predir":null,"streetname":"LANE ST","streettype":null,"suffdir":null,"city":"COAL GROVE","state_code":"OH","zip5":"45638","latitude":"38.4937500000000000","longitude":"-82.643190000000000","publicwifi":"U","url":null,"broadband_type_id":null}
{"id":null,"anchorname":"LAWRENCE CO EARLY CHILDHOOD CT","address":"1749 COUNTY ROAD 1 SOUTH POINT, OH 45680-8850","bldgnbr":"1749","predir":null,"streetname":"COUNTY ROAD 1","streettype":null,"suffdir":null,"city":"SOUTH POINT","state_code":"OH","zip5":"45680","latitude":"38.4533800000000000","longitude":"-82.594740000000000","publicwifi":"U","url":null,"broadband_type_id":null}
{"id":null,"anchorname":"SOUTH POINT HEAD START","address":"1749 COUNTY ROAD 1 SOUTH POINT, OH 45680-8850","bldgnbr":"1749","predir":null,"streetname":"COUNTY ROAD 1","streettype":null,"suffdir":null,"city":"SOUTH POINT","state_code":"OH","zip5":"45680","latitude":"38.4533800000000000","longitude":"-82.594740000000000","publicwifi":"U","url":null,"broadband_type_id":null}
{"id":null,"anchorname":"SYBENE HEAD START","address":"8978 COUNTY ROAD 1 SOUTH POINT, OH 45680-8980","bldgnbr":"8978","predir":null,"streetname":"COUNTY ROAD 1","streettype":null,"suffdir":null,"city":"SOUTH POINT","state_code":"OH","zip5":"45680","latitude":"38.4144100000000000","longitude":"-82.505790000000000","publicwifi":"U","url":null,"broadband_type_id":null}
{"id":null,"anchorname":"IRONTON OSHP","address":"126 PRIVATE ROAD CR 60 SOUTH POINT, OH 45680","bldgnbr":"126","predir":null,"streetname":"PRIVATE ROAD CR 60","streettype":null,"suffdir":null,"city":"SOUTH POINT","state_code":"OH","zip5":"45680","latitude":"38.4343000000000000","longitude":"-82.553400000000000","publicwifi":"U","url":null,"broadband_type_id":null}
{"id":null,"anchorname":"HANGING ROCK POLICE DEPARTMENT","address":"100 SCIOTO AVE HANGING ROCK, OH 45638-9013","bldgnbr":"100","predir":null,"streetname":"SCIOTO AVE","streettype":null,"suffdir":null,"city":"HANGING ROCK","state_code":"OH","zip5":"45638","latitude":"38.5607400000000000","longitude":"-82.725100000000000","publicwifi":"U","url":null,"broadband_type_id":4}
{"id":null,"anchorname":"HAMILTON TOWNSHIP VOLUNTEER FIRE DEPARTMENT","address":"1671 COUNTY ROAD 1A IRONTON, OH 45638","bldgnbr":"1671","predir":null,"streetname":"COUNTY ROAD 1A","streettype":null,"suffdir":null,"city":"IRONTON","state_code":"OH","zip5":"45638","latitude":"38.5680200000000000","longitude":"-82.783800000000000","publicwifi":"U","url":null,"broadband_type_id":5}
{"id":null,"anchorname":"PERRY TOWNSHIP VOLUNTEER FIRE DEPARTMENT STATION 1 - HEADQUARTERS - DEERING","address":"4633 STATE HIGHWAY 243 IRONTON, OH 45638","bldgnbr":"4633","predir":null,"streetname":"STATE HIGHWAY 243","streettype":null,"suffdir":null,"city":"IRONTON","state_code":"OH","zip5":"45638","latitude":"38.5383000000000000","longitude":"-82.670600000000000","publicwifi":"U","url":null,"broadband_type_id":5}
{"id":null,"anchorname":"SUNSET NURSING CENTER","address":"813 1/2 MARION PIKE IRONTON, OH 45638","bldgnbr":"813 1/2","predir":null,"streetname":"MARION PIKE","streettype":null,"suffdir":null,"city":"IRONTON","state_code":"OH","zip5":"45638","latitude":"38.4993600000000000","longitude":"-82.637800000000000","publicwifi":"U","url":null,"broadband_type_id":3}
{"id":null,"anchorname":"COAL GROVE FIRE DEPARTMENT","address":"513 CARLTON DAVIDSON LANE COAL GROVE, OH 45638","bldgnbr":"513","predir":null,"streetname":"CARLTON DAVIDSON LANE","streettype":null,"suffdir":null,"city":"COAL GROVE","state_code":"OH","zip5":"45638","latitude":"38.5083700000000000","longitude":"-82.648730000000000","publicwifi":"U","url":null,"broadband_type_id":5}
{"id":null,"anchorname":"DAWSON-BRYANT MIDDLE SCHOOL","address":"1 HORNET LN COAL GROVE, OH 45638","bldgnbr":"1","predir":null,"streetname":"HORNET LN","streettype":null,"suffdir":null,"city":"COAL GROVE","state_code":"OH","zip5":"45638","latitude":"38.5017200000000000","longitude":"-82.644400000000000","publicwifi":"U","url":null,"broadband_type_id":6}
{"id":null,"anchorname":"SOUTH POINT POLICE DEPARTMENT","address":"408 2ND ST W SOUTH POINT, OH 45680-9165","bldgnbr":"408","predir":null,"streetname":"2ND ST W","streettype":null,"suffdir":null,"city":"SOUTH POINT","state_code":"OH","zip5":"45680","latitude":"38.4226700000000000","longitude":"-82.592110000000000","publicwifi":"U","url":null,"broadband_type_id":4}
{"id":null,"anchorname":"SOUTH POINT VOLUNTEER FIRE DEPARTMENT","address":"104 EISENHOWER STREET SOUTH POINT, OH 45680","bldgnbr":"104","predir":null,"streetname":"EISENHOWER STREET","streettype":null,"suffdir":null,"city":"SOUTH POINT","state_code":"OH","zip5":"45680","latitude":"38.4220000000000000","longitude":"-82.589910000000000","publicwifi":"U","url":null,"broadband_type_id":5}
{"id":null,"anchorname":"SOUTH POINT ELEMENTARY SCHOOL","address":"501 WASHINGTON ST SOUTH POINT, OH 45680","bldgnbr":"501","predir":null,"streetname":"WASHINGTON ST","streettype":null,"suffdir":null,"city":"SOUTH POINT","state_code":"OH","zip5":"45680","latitude":"38.4243200000000000","longitude":"-82.580290000000000","publicwifi":"U","url":null,"broadband_type_id":6}
{"id":null,"anchorname":"TRI-STATE BIBLE COLLEGE","address":"506 MARGARET ST SOUTH POINT, OH 45680","bldgnbr":"506","predir":null,"streetname":"MARGARET ST","streettype":null,"suffdir":null,"city":"SOUTH POINT","state_code":"OH","zip5":"45680","latitude":"38.4260640000000000","longitude":"-82.579819000000000","publicwifi":"U","url":null,"broadband_type_id":6}
{"id":null,"anchorname":"SOUTHERN BRANCH LIBRARY","address":"317 SOLIDA RD. SOUTH POINT, OH 45680-9431","bldgnbr":"317","predir":null,"streetname":"SOLIDA RD.","streettype":null,"suffdir":null,"city":"SOUTH POINT","state_code":"OH","zip5":"45680","latitude":"38.4204600000000000","longitude":"-82.580319000000000","publicwifi":"Y","url":null,"broadband_type_id":6}
{"id":null,"anchorname":"SOUTHEAST OHIO EMERGENCY MEDICAL SERVICES STATION 12 - SOUTH POINT","address":"206 6TH STREET SOUTH POINT, OH 45680","bldgnbr":"206","predir":null,"streetname":"6TH STREET","streettype":null,"suffdir":null,"city":"SOUTH POINT","state_code":"OH","zip5":"45680","latitude":"38.4226200000000000","longitude":"-82.587360000000000","publicwifi":"U","url":null,"broadband_type_id":3}
{"id":null,"anchorname":"SOUTH POINT HIGH SCHOOL","address":"983 COUNTY ROAD 60 SOUTH POINT, OH 45680","bldgnbr":"983","predir":null,"streetname":"COUNTY ROAD 60","streettype":null,"suffdir":null,"city":"SOUTH POINT","state_code":"OH","zip5":"45680","latitude":"38.4235100000000000","longitude":"-82.582580000000000","publicwifi":"U","url":null,"broadband_type_id":6}
{"id":null,"anchorname":"SOUTH POINT MIDDLE SCHOOL","address":"983 COUNTY ROAD 60 SOUTH POINT, OH 45680","bldgnbr":"983","predir":null,"streetname":"COUNTY ROAD 60","streettype":null,"suffdir":null,"city":"SOUTH POINT","state_code":"OH","zip5":"45680","latitude":"38.4224900000000000","longitude":"-82.583710000000000","publicwifi":"U","url":null,"broadband_type_id":6}
{"id":null,"anchorname":"A TIME TO GROW CHILD CARE","address":"311 HIGH ST SOUTH POINT, OH 45680-9636","bldgnbr":"311","predir":null,"streetname":"HIGH ST","streettype":null,"suffdir":null,"city":"SOUTH POINT","state_code":"OH","zip5":"45680","latitude":"38.4234000000000000","longitude":"-82.582240000000000","publicwifi":"U","url":null,"broadband_type_id":3}
{"id":null,"anchorname":"DAWSON-BRYANT ELEMENTARY SCHOOL","address":"4503 STATE ROUTE 243 IRONTON, OH 45638","bldgnbr":"4503","predir":null,"streetname":"STATE ROUTE 243","streettype":null,"suffdir":null,"city":"IRONTON","state_code":"OH","zip5":"45638","latitude":"38.5029600000000000","longitude":"-82.580570000000000","publicwifi":"U","url":null,"broadband_type_id":6}
{"id":null,"anchorname":"PERRY TOWNSHIP VOLUNTEER FIRE DEPARTMENT STATION 2 - SHERIDAN","address":"649 COUNTY ROAD 1 SOUTH POINT, OH 45680","bldgnbr":"649","predir":null,"streetname":"COUNTY ROAD 1","streettype":null,"suffdir":null,"city":"SOUTH POINT","state_code":"OH","zip5":"45680","latitude":"38.4654400000000000","longitude":"-82.602230000000000","publicwifi":"U","url":null,"broadband_type_id":5}
{"id":null,"anchorname":"HEARTLAND OF RIVERVIEW NURSING HOME","address":"7743 COUNTY ROAD 1 SOUTH POINT, OH 45680","bldgnbr":"7743","predir":null,"streetname":"COUNTY ROAD 1","streettype":null,"suffdir":null,"city":"SOUTH POINT","state_code":"OH","zip5":"45680","latitude":"38.4080500000000000","longitude":"-82.527180000000000","publicwifi":"U","url":null,"broadband_type_id":3}
{"id":null,"anchorname":"BURLINGTON-FAYETTE TOWNSHIP FIRE DISTRICT 1","address":"7681 COUNTY ROAD 1 SOUTH POINT, OH 45680","bldgnbr":"7681","predir":null,"streetname":"COUNTY ROAD 1","streettype":null,"suffdir":null,"city":"SOUTH POINT","state_code":"OH","zip5":"45680","latitude":"38.4077600000000000","longitude":"-82.528370000000000","publicwifi":"U","url":null,"broadband_type_id":5}
{"id":null,"anchorname":"RIVERS BEND HEALTH CARE LLC","address":"335 TOWNSHIP ROAD 1026 SOUTH POINT, OH 45680","bldgnbr":"335","predir":null,"streetname":"TOWNSHIP ROAD 1026","streettype":null,"suffdir":null,"city":"SOUTH POINT","state_code":"OH","zip5":"45680","latitude":"38.4084100000000000","longitude":"-82.536790000000000","publicwifi":"U","url":null,"broadband_type_id":3}
{"id":null,"anchorname":"BURLINGTON ELEMENTARY SCHOOL","address":"8781 COUNTY ROAD 1 SOUTH POINT, OH 45680","bldgnbr":"8781","predir":null,"streetname":"COUNTY ROAD 1","streettype":null,"suffdir":null,"city":"SOUTH POINT","state_code":"OH","zip5":"45680","latitude":"38.4151770000000000","longitude":"-82.506182000000000","publicwifi":"U","url":null,"broadband_type_id":6}
{"id":null,"anchorname":"PULLEY NURSING HOME","address":"8384 COUNTY ROAD 1 SOUTH POINT, OH 45680","bldgnbr":"8384","predir":null,"streetname":"COUNTY ROAD 1","streettype":null,"suffdir":null,"city":"SOUTH POINT","state_code":"OH","zip5":"45680","latitude":"38.4113700000000000","longitude":"-82.516150000000000","publicwifi":"U","url":null,"broadband_type_id":3}
{"id":null,"anchorname":"BURLINGTON-FAYETTE TOWNSHIP FIRE DISTRICT 2","address":"51 TOWNSHIP ROAD 93 NORTH SOUTH POINT, OH 45680","bldgnbr":"51","predir":null,"streetname":"TOWNSHIP ROAD 93 NORTH","streettype":null,"suffdir":null,"city":"SOUTH POINT","state_code":"OH","zip5":"45680","latitude":"38.4825000000000000","longitude":"-82.540820000000000","publicwifi":"U","url":null,"broadband_type_id":5}
{"id":null,"anchorname":"Zenith Elementary","address":"101 3rd Avenue SE","bldgnbr":"101","predir":null,"streetname":"3rd","streettype":"Ave","suffdir":"Southeast","city":"Cut Bank","state_code":"MT","zip5":"59427","latitude":"48.6324696340000000","longitude":"-112.33123097000000","publicwifi":"U","url":"http://opi.mt.gov/Resources/Directory/Index.html","broadband_type_id":6}
{"id":null,"anchorname":"Montana City Middle Schl","address":"11 McClellan Creek Road","bldgnbr":"11","predir":null,"streetname":"Mcclellan Creek","streettype":"Road","suffdir":null,"city":"Clancy","state_code":"MT","zip5":"59634","latitude":"46.5382835870000000","longitude":"-111.93495604600000","publicwifi":"U","url":"http://opi.mt.gov/Resources/Directory/Index.html","broadband_type_id":6}
{"id":null,"anchorname":"THREE GABLES SURGERY CENTER","address":"5897 STATE ROUTE 7 PROCTORVILLE, OH 45669","bldgnbr":"5897","predir":null,"streetname":"STATE ROUTE 7","streettype":null,"suffdir":null,"city":"PROCTORVILLE","state_code":"OH","zip5":"45669","latitude":"38.4394600000000000","longitude":"-82.388700000000000","publicwifi":"U","url":null,"broadband_type_id":6}
{"id":null,"anchorname":"LAWRENCE COUNTY","address":"11627 STATE ROUTE 243 CHESAPEAKE, OH 45619","bldgnbr":"11627","predir":null,"streetname":"STATE ROUTE 243","streettype":null,"suffdir":null,"city":"CHESAPEAKE","state_code":"OH","zip5":"45619","latitude":"38.4928300000000000","longitude":"-82.476740000000000","publicwifi":"U","url":null,"broadband_type_id":1}
{"id":null,"anchorname":"LICKING COUNTY ESC","address":"145 N QUENTIN RD NEWARK, OH 43055","bldgnbr":"145","predir":null,"streetname":"N QUENTIN RD","streettype":null,"suffdir":null,"city":"NEWARK","state_code":"OH","zip5":"43055","latitude":"40.0751110000000000","longitude":"-82.415928000000000","publicwifi":"U","url":null,"broadband_type_id":6}
{"id":null,"anchorname":"LICKING AREA COMPUTER ASSOCIATION","address":"195 UNION ST NEWARK, OH 43055-3919","bldgnbr":"195","predir":null,"streetname":"UNION ST","streettype":null,"suffdir":null,"city":"NEWARK","state_code":"OH","zip5":"43055","latitude":"40.0487900000000000","longitude":"-82.420730000000000","publicwifi":"U","url":null,"broadband_type_id":1}
{"id":null,"anchorname":"PAR EXCELLENCE ACADEMY","address":"96 MAHOLM ST NEWARK, OH 43055","bldgnbr":"96","predir":null,"streetname":"MAHOLM ST","streettype":null,"suffdir":null,"city":"NEWARK","state_code":"OH","zip5":"43055","latitude":"40.0515890000000000","longitude":"-82.423733000000000","publicwifi":"U","url":null,"broadband_type_id":6}
{"id":null,"anchorname":"NEWARK DIGITAL ACADEMY","address":"255 WOODS AVE NEWARK, OH 43055","bldgnbr":"255","predir":null,"streetname":"WOODS AVE","streettype":null,"suffdir":null,"city":"NEWARK","state_code":"OH","zip5":"43055","latitude":"40.0640610000000000","longitude":"-82.416224000000000","publicwifi":"U","url":null,"broadband_type_id":6}
{"id":null,"anchorname":"EASTERN BRANCH - BRIGGS","address":"410 ELIZABETH STREET PROCTORVILLE, OH 45669","bldgnbr":"410","predir":null,"streetname":"ELIZABETH STREET","streettype":null,"suffdir":null,"city":"PROCTORVILLE","state_code":"OH","zip5":"45669","latitude":"38.4371500000000000","longitude":"-82.377810000000000","publicwifi":"Y","url":null,"broadband_type_id":null}
{"id":null,"anchorname":"GETAWAY HEAD START","address":"11627 STATE ROUTE 243 CHESAPEAKE, OH 45619-7962","bldgnbr":"11627","predir":null,"streetname":"STATE ROUTE 243","streettype":null,"suffdir":null,"city":"CHESAPEAKE","state_code":"OH","zip5":"45619","latitude":"38.4928300000000000","longitude":"-82.476740000000000","publicwifi":"U","url":null,"broadband_type_id":null}
{"id":null,"anchorname":"FAIRLAND","address":"228  PRIVATE DRIVE 10010 PROCTORVILLE, OH 45669-8600","bldgnbr":"228","predir":null,"streetname":"PRIVATE DRIVE 10010","streettype":null,"suffdir":null,"city":"PROCTORVILLE","state_code":"OH","zip5":"45669","latitude":"38.4532600000000000","longitude":"-82.323100000000000","publicwifi":"U","url":null,"broadband_type_id":null}
{"id":null,"anchorname":"PROCTORVILLE HEAD START","address":"384 TOWNSHIP ROAD 1053 PROCTORVILLE, OH 45669-8731","bldgnbr":"384","predir":null,"streetname":"TOWNSHIP ROAD 1053","streettype":null,"suffdir":null,"city":"PROCTORVILLE","state_code":"OH","zip5":"45669","latitude":"38.4481200000000000","longitude":"-82.337160000000000","publicwifi":"U","url":null,"broadband_type_id":null}
{"id":null,"anchorname":"LAWRENCE","address":"6052 COUNTY ROAD 12 PROCTORVILLE, OH 45669-8324","bldgnbr":"6052","predir":null,"streetname":"COUNTY ROAD 12","streettype":null,"suffdir":null,"city":"PROCTORVILLE","state_code":"OH","zip5":"45669","latitude":"38.5294600000000000","longitude":"-82.335590000000000","publicwifi":"U","url":null,"broadband_type_id":null}
{"id":null,"anchorname":"CHESAPEAKE BRANCH LIBRARY","address":"11054 C R 1 CHESAPEAKE, OH 45619-7019","bldgnbr":"11054","predir":null,"streetname":"CR 1","streettype":null,"suffdir":null,"city":"CHESAPEAKE","state_code":"OH","zip5":"45619","latitude":"38.4249500000000000","longitude":"-82.470400000000000","publicwifi":"Y","url":null,"broadband_type_id":6}
{"id":null,"anchorname":"SOUTHEAST OHIO EMERGENCY MEDICAL SERVICES STATION 13 - CHESAPEAKE","address":"11024 COUNTY ROAD 1 CHESAPEAKE, OH 45619","bldgnbr":"11024","predir":null,"streetname":"COUNTY ROAD 1","streettype":null,"suffdir":null,"city":"CHESAPEAKE","state_code":"OH","zip5":"45619","latitude":"38.4247300000000000","longitude":"-82.471070000000000","publicwifi":"U","url":null,"broadband_type_id":3}
{"id":null,"anchorname":"CHESAPEAKE ELEMENTARY SCHOOL","address":"11359 COUNTY ROAD 1 CHESAPEAKE, OH 45619","bldgnbr":"11359","predir":null,"streetname":"COUNTY ROAD 1","streettype":null,"suffdir":null,"city":"CHESAPEAKE","state_code":"OH","zip5":"45619","latitude":"38.4224700000000000","longitude":"-82.484130000000000","publicwifi":"U","url":null,"broadband_type_id":6}
{"id":null,"anchorname":"CHESAPEAKE HIGH SCHOOL","address":"10181 COUNTY ROAD 1 CHESAPEAKE, OH 45619","bldgnbr":"10181","predir":null,"streetname":"COUNTY ROAD 1","streettype":null,"suffdir":null,"city":"CHESAPEAKE","state_code":"OH","zip5":"45619","latitude":"38.4223300000000000","longitude":"-82.485270000000000","publicwifi":"U","url":null,"broadband_type_id":6}
{"id":null,"anchorname":"CHESAPEAKE MIDDLE SCHOOL","address":"10335 COUNTY ROAD 1 CHESAPEAKE, OH 45619","bldgnbr":"10335","predir":null,"streetname":"COUNTY ROAD 1","streettype":null,"suffdir":null,"city":"CHESAPEAKE","state_code":"OH","zip5":"45619","latitude":"38.4226400000000000","longitude":"-82.482560000000000","publicwifi":"U","url":null,"broadband_type_id":6}
{"id":null,"anchorname":"CHESAPEAKE-UNION TOWNSHIP FIRE DEPARTMENT","address":"400 WINTERS ROAD CHESAPEAKE, OH 45619","bldgnbr":"400","predir":null,"streetname":"WINTERS ROAD","streettype":null,"suffdir":null,"city":"CHESAPEAKE","state_code":"OH","zip5":"45619","latitude":"38.4296300000000000","longitude":"-82.457030000000000","publicwifi":"U","url":null,"broadband_type_id":5}
{"id":null,"anchorname":"FAIRLAND EAST ELEMENTARY SCHOOL","address":"10732 STATE ROUTE 7 PROCTORVILLE, OH 45669","bldgnbr":"10732","predir":null,"streetname":"STATE ROUTE 7","streettype":null,"suffdir":null,"city":"PROCTORVILLE","state_code":"OH","zip5":"45669","latitude":"38.4566700000000000","longitude":"-82.323220000000000","publicwifi":"U","url":null,"broadband_type_id":6}
{"id":null,"anchorname":"FAIRLAND HIGH SCHOOL","address":"812 COUNTY ROAD 411 PROCTORVILLE, OH 45669","bldgnbr":"812","predir":null,"streetname":"COUNTY ROAD 411","streettype":null,"suffdir":null,"city":"PROCTORVILLE","state_code":"OH","zip5":"45669","latitude":"38.4538920000000000","longitude":"-82.343543000000000","publicwifi":"U","url":null,"broadband_type_id":6}
{"id":null,"anchorname":"FAIRLAND WEST ELEMENTARY SCHOOL","address":"110 TOWNSHIP ROAD 1125 PROCTORVILLE, OH 45669","bldgnbr":"110","predir":null,"streetname":"TOWNSHIP ROAD 1125","streettype":null,"suffdir":null,"city":"PROCTORVILLE","state_code":"OH","zip5":"45669","latitude":"38.4456030000000000","longitude":"-82.358701000000000","publicwifi":"U","url":null,"broadband_type_id":6}
{"id":null,"anchorname":"FOREST ELEMENTARY SCHOOL","address":"413 E CANAL ST TROY, OH 45373","bldgnbr":"413","predir":null,"streetname":"E CANAL ST","streettype":null,"suffdir":null,"city":"TROY","state_code":"OH","zip5":"45373","latitude":"38.4412810000000000","longitude":"-82.353622000000000","publicwifi":"U","url":null,"broadband_type_id":6}
{"id":null,"anchorname":"FAIRLAND MIDDLE SCHOOL","address":"7875 COUNTY ROAD 107 PROCTORVILLE, OH 45669","bldgnbr":"7875","predir":null,"streetname":"COUNTY ROAD 107","streettype":null,"suffdir":null,"city":"PROCTORVILLE","state_code":"OH","zip5":"45669","latitude":"38.4412810000000000","longitude":"-82.353622000000000","publicwifi":"U","url":null,"broadband_type_id":6}
{"id":null,"anchorname":"UNION TOWNSHIP POLICE DEPT","address":"26 TOWNSHIP ROAD 1105 PROCTORVILLE, OH 45669-8596","bldgnbr":"26","predir":null,"streetname":"TOWNSHIP ROAD 1105","streettype":null,"suffdir":null,"city":"PROCTORVILLE","state_code":"OH","zip5":"45669","latitude":"38.4417700000000000","longitude":"-82.353340000000000","publicwifi":"U","url":null,"broadband_type_id":4}
{"id":null,"anchorname":"ROME VOLUNTEER FIRE DEPARTMENT STATION 1 - HEADQUARTERS","address":"9666 STATE HIGHWAY 7 PROCTORVILLE, OH 45669","bldgnbr":"9666","predir":null,"streetname":"STATE HIGHWAY 7","streettype":null,"suffdir":null,"city":"PROCTORVILLE","state_code":"OH","zip5":"45669","latitude":"38.4697000000000000","longitude":"-82.357100000000000","publicwifi":"U","url":null,"broadband_type_id":5}
{"id":null,"anchorname":"SOUTHEAST OHIO EMERGENCY MEDICAL SERVICES STATION 14 - ROME","address":"267 TOWNSHIP ROAD 1060 PROCTORVILLE, OH 45669","bldgnbr":"267","predir":null,"streetname":"TOWNSHIP ROAD 1060","streettype":null,"suffdir":null,"city":"PROCTORVILLE","state_code":"OH","zip5":"45669","latitude":"38.4444500000000000","longitude":"-82.367120000000000","publicwifi":"U","url":null,"broadband_type_id":3}
{"id":null,"anchorname":"HANNAN TRACE ELEMENTARY SCHOOL","address":"9345 STATE ROUTE 218 CROWN CITY, OH 45623","bldgnbr":"9345","predir":null,"streetname":"STATE ROUTE 218","streettype":null,"suffdir":null,"city":"CROWN CITY","state_code":"OH","zip5":"45623","latitude":"38.5363900000000000","longitude":"-82.298125000000000","publicwifi":"U","url":null,"broadband_type_id":6}
{"id":null,"anchorname":"PROCTORVILLE COMMUNITY VOLUNTEER FIRE AND RESCUE INCORPORATED","address":"220 STATE STREET PROCTORVILLE, OH 45669","bldgnbr":"220","predir":null,"streetname":"STATE STREET","streettype":null,"suffdir":null,"city":"PROCTORVILLE","state_code":"OH","zip5":"45669","latitude":"38.5165800000000000","longitude":"-82.305670000000000","publicwifi":"U","url":null,"broadband_type_id":5}
{"id":null,"anchorname":"ATHALIA POLICE DEPARTMENT","address":"14407 STATE ROUTE 7 PROCTORVILLE, OH 45669-8289","bldgnbr":"14407","predir":null,"streetname":"STATE ROUTE 7","streettype":null,"suffdir":null,"city":"PROCTORVILLE","state_code":"OH","zip5":"45669","latitude":"38.5084000000000000","longitude":"-82.307550000000000","publicwifi":"U","url":null,"broadband_type_id":4}
{"id":null,"anchorname":"FLYING COLORS PRESCHOOL","address":"119 UNION ST NEWARK, OH 43055-3937","bldgnbr":"119","predir":null,"streetname":"UNION ST","streettype":null,"suffdir":null,"city":"NEWARK","state_code":"OH","zip5":"43055","latitude":"40.0508500000000000","longitude":"-82.420190000000000","publicwifi":"U","url":null,"broadband_type_id":6}
{"id":null,"anchorname":"AUTUMN HEALTHCARE","address":"17 FORRY ST NEWARK, OH 43055","bldgnbr":"17","predir":null,"streetname":"FORRY ST","streettype":null,"suffdir":null,"city":"NEWARK","state_code":"OH","zip5":"43055","latitude":"40.0470100000000000","longitude":"-82.420630000000000","publicwifi":"U","url":null,"broadband_type_id":3}
{"id":null,"anchorname":"NEWARK HIGH SCHOOL","address":"314 GRANVILLE ST NEWARK, OH 43055","bldgnbr":"314","predir":null,"streetname":"GRANVILLE ST","streettype":null,"suffdir":null,"city":"NEWARK","state_code":"OH","zip5":"43055","latitude":"40.0629300000000000","longitude":"-82.418600000000000","publicwifi":"U","url":null,"broadband_type_id":6}
{"id":null,"anchorname":"JOHN CLEM ELEMENTARY SCHOOL","address":"475 JEFFERSON RD NEWARK, OH 43055","bldgnbr":"475","predir":null,"streetname":"JEFFERSON RD","streettype":null,"suffdir":null,"city":"NEWARK","state_code":"OH","zip5":"43055","latitude":"40.0722400000000000","longitude":"-82.426330000000000","publicwifi":"U","url":null,"broadband_type_id":6}
{"id":null,"anchorname":"Jefferson County Disaster And Emergency Services Emergency Operation Center","address":"110 South Washington Street","bldgnbr":"110","predir":"S","streetname":"Washington","streettype":"St","suffdir":null,"city":"Boulder","state_code":"MT","zip5":"59623","latitude":"46.2365582410000000","longitude":"-112.12093001100000","publicwifi":"U","url":"http://pssb.mt.gov/default.mcpx","broadband_type_id":6}
{"id":null,"anchorname":"OHIO BUREAU OF MOTOR VEHICLES","address":"877 E MAIN ST NEWARK, OH 43055-6936","bldgnbr":"877","predir":null,"streetname":"E MAIN ST","streettype":null,"suffdir":null,"city":"NEWARK","state_code":"OH","zip5":"43055","latitude":"40.0606180000000000","longitude":"-82.366468000000000","publicwifi":"U","url":null,"broadband_type_id":6}
{"id":null,"anchorname":"CAMP O'BANNON","address":"9688 BUTLER RD NEWARK, OH 43055-9701","bldgnbr":"9688","predir":null,"streetname":"BUTLER RD","streettype":null,"suffdir":null,"city":"NEWARK","state_code":"OH","zip5":"43055","latitude":"40.0747400000000000","longitude":"-82.361830000000000","publicwifi":"U","url":null,"broadband_type_id":null}
{"id":null,"anchorname":"LICKING COUNTY OFFICE OF HOMELAND SECURITY \u0026 EMERGENCY MANAGEMENT","address":"155 EAST MAIN STREET NEWARK, OH 43055","bldgnbr":"155","predir":null,"streetname":"EAST MAIN STREET","streettype":null,"suffdir":null,"city":"NEWARK","state_code":"OH","zip5":"43055","latitude":"40.0592800000000000","longitude":"-82.395420000000000","publicwifi":"U","url":null,"broadband_type_id":1}
