{"id":null,"anchorname":"TRADITIONAL CARE EMS INC","address":"9001 AIRPORT BLVD STE 109 HOUSTON, TX 77061","bldgnbr":"9001","predir":null,"streetname":"AIRPORT BLVD STE 109","streettype":null,"suffdir":null,"city":"HOUSTON","state_code":"TX","zip5":"77061","latitude":"29.6523200000000000","longitude":"-95.258036000000000","publicwifi":"U","url":null,"broadband_type_id":3}
{"id":null,"anchorname":"RICK SCHNEIDER MIDDLE SCHOOL","address":"8420 EASTHAVEN HOUSTON, TX 77075","bldgnbr":"8420","predir":null,"streetname":"EASTHAVEN","streettype":null,"suffdir":null,"city":"HOUSTON","state_code":"TX","zip5":"77075","latitude":"29.6473460000000000","longitude":"-95.249095000000000","publicwifi":"U","url":null,"broadband_type_id":6}
{"id":null,"anchorname":"STIMLEY-BLUE RIDGE BRANCH LIBRARY","address":"7007 WEST FUQUA HOUSTON, TX 77489","bldgnbr":"7007","predir":null,"streetname":"WEST FUQUA","streettype":null,"suffdir":null,"city":"HOUSTON","state_code":"TX","zip5":"77489","latitude":"29.6111300000000000","longitude":"-95.261782000000000","publicwifi":"U","url":null,"broadband_type_id":6}
{"id":null,"anchorname":"BRACEWELL BRANCH LIBRARY","address":"10115 KLECKLEY HOUSTON, TX 77075-3409","bldgnbr":"10115","predir":null,"streetname":"KLECKLEY","streettype":null,"suffdir":null,"city":"HOUSTON","state_code":"TX","zip5":"77075","latitude":"29.6223580000000000","longitude":"-95.229103000000000","publicwifi":"U","url":null,"broadband_type_id":6}
{"id":null,"anchorname":"AMBASSADOR CHRISTIAN DAYCARE AND SCHOOL","address":"10100 KLECKLEY HOUSTON, TX 77075","bldgnbr":"10100","predir":null,"streetname":"KLECKLEY","streettype":null,"suffdir":null,"city":"HOUSTON","state_code":"TX","zip5":"77075","latitude":"29.6218630000000000","longitude":"-95.230241000000000","publicwifi":"U","url":null,"broadband_type_id":3}
{"id":null,"anchorname":"MORRIS MIDDLE SCHOOL","address":"10415 FUQUA HOUSTON, TX 77089","bldgnbr":"10415","predir":null,"streetname":"FUQUA","streettype":null,"suffdir":null,"city":"HOUSTON","state_code":"TX","zip5":"77089","latitude":"29.6114490000000000","longitude":"-95.229831000000000","publicwifi":"U","url":null,"broadband_type_id":6}
{"id":null,"anchorname":"CHALLENGER MIDDLE SCHOOL","address":"11111 BEAAMER HOUSTON, TX 77089","bldgnbr":"11111","predir":null,"streetname":"BEAAMER","streettype":null,"suffdir":null,"city":"HOUSTON","state_code":"TX","zip5":"77089","latitude":"29.6070780000000000","longitude":"-95.225898000000000","publicwifi":"U","url":null,"broadband_type_id":6}
{"id":null,"anchorname":"CARE PLUS EMS INC","address":"9033 KNIGHT RD HOUSTON, TX 77054","bldgnbr":"9033","predir":null,"streetname":"KNIGHT RD","streettype":null,"suffdir":null,"city":"HOUSTON","state_code":"TX","zip5":"77054","latitude":"29.6748720000000000","longitude":"-95.399779000000000","publicwifi":"U","url":null,"broadband_type_id":3}
{"id":null,"anchorname":"HARMONY SCHOOL OF FINE ARTS AND TECHNOLOGY","address":"9185 KIRBY DR HOUSTON, TX 77054","bldgnbr":"9115","predir":null,"streetname":"KIRBY DR","streettype":null,"suffdir":null,"city":"HOUSTON","state_code":"TX","zip5":"77054","latitude":"29.6711510000000000","longitude":"-95.412222000000000","publicwifi":"U","url":null,"broadband_type_id":6}
{"id":null,"anchorname":"MADISON HIGH SCHOOL","address":"13719 WHITEHEATHER HOUSTON, TX 77045-4421","bldgnbr":"13719","predir":null,"streetname":"WHITEHEATHER","streettype":null,"suffdir":null,"city":"HOUSTON","state_code":"TX","zip5":"77045","latitude":"29.6293950000000000","longitude":"-95.436182000000000","publicwifi":"U","url":null,"broadband_type_id":6}
{"id":null,"anchorname":"DUCARE EMS INC","address":"3003 LOOP WEST STE 415B HOUSTON, TX 77054","bldgnbr":"3003","predir":null,"streetname":"LOOP WEST STE 415B","streettype":null,"suffdir":null,"city":"HOUSTON","state_code":"TX","zip5":"77054","latitude":"29.6770630000000000","longitude":"-95.424669000000000","publicwifi":"U","url":null,"broadband_type_id":3}
{"id":null,"anchorname":"EEKOHN HEALTHCARE SERVICES INC","address":"950 FM 1959 #1217 HOUSTON, TX 77034","bldgnbr":"950","predir":null,"streetname":"FM 1959 #1217","streettype":null,"suffdir":null,"city":"HOUSTON","state_code":"TX","zip5":"77034","latitude":"29.5899600000000000","longitude":"-95.182331000000000","publicwifi":"U","url":null,"broadband_type_id":3}
{"id":null,"anchorname":"ST CLARE OF ASSISI CATHOLIC SCHOOL","address":"3131 EL DORADO BLVD HOUSTON, TX 77059","bldgnbr":"3131","predir":null,"streetname":"EL DORADO BLVD","streettype":null,"suffdir":null,"city":"HOUSTON","state_code":"TX","zip5":"77059","latitude":"29.5911600000000000","longitude":"-95.119103000000000","publicwifi":"U","url":null,"broadband_type_id":6}
{"id":null,"anchorname":"MOUNT CARMEL ACADEMY","address":"7155 ASHBURN ST HOUSTON, TX 77061-2611","bldgnbr":"7155","predir":null,"streetname":"ASHBURN ST","streettype":null,"suffdir":null,"city":"HOUSTON","state_code":"TX","zip5":"77061","latitude":"29.6606950000000000","longitude":"-95.301666000000000","publicwifi":"U","url":null,"broadband_type_id":6}
{"id":null,"anchorname":"CARDIOLOGY ASSOCIATES","address":"593 Cranbury Road,East Brunswick NJ 08816","bldgnbr":"593","predir":null,"streetname":"Cranbury Road","streettype":null,"suffdir":null,"city":"East Brunswick","state_code":"NJ","zip5":"08816","latitude":"40.4095460000000000","longitude":"-74.420265000000000","publicwifi":"U","url":null,"broadband_type_id":6}
{"id":null,"anchorname":"Village of South Nyack","address":"282 South Broadway","bldgnbr":"282","predir":"South","streetname":"Broadway","streettype":null,"suffdir":null,"city":"South Nyack","state_code":"NY","zip5":"10960","latitude":"41.0798175590000000","longitude":"-73.921242917000000","publicwifi":"U","url":null,"broadband_type_id":1}
{"id":null,"anchorname":"FALCON PASS ELEMENTARY","address":"2465 FALCON PASS DR HOUSTON, TX 77062","bldgnbr":"2465","predir":null,"streetname":"FALCON PASS DR","streettype":null,"suffdir":null,"city":"HOUSTON","state_code":"TX","zip5":"77062","latitude":"29.5764020000000000","longitude":"-95.111657000000000","publicwifi":"U","url":null,"broadband_type_id":6}
{"id":null,"anchorname":"CLEAR LAKE INT","address":"15545 EL CAMINO REAL HOUSTON, TX 77062-4034","bldgnbr":"15545","predir":null,"streetname":"EL CAMINO REAL","streettype":null,"suffdir":null,"city":"HOUSTON","state_code":"TX","zip5":"77062","latitude":"29.5685970000000000","longitude":"-95.133038000000000","publicwifi":"U","url":null,"broadband_type_id":null}
{"id":null,"anchorname":"ST LUKES AMBULANCE SERVICE INC","address":"15614 TORRY PINES HOUSTON, TX 77062","bldgnbr":"15614","predir":null,"streetname":"TORRY PINES","streettype":null,"suffdir":null,"city":"HOUSTON","state_code":"TX","zip5":"77062","latitude":"29.5702910000000000","longitude":"-95.127314000000000","publicwifi":"U","url":null,"broadband_type_id":6}
{"id":null,"anchorname":"G H WHITCOMB ELEMENTARY","address":"900 RESEDA DR HOUSTON, TX 77062-5107","bldgnbr":"900","predir":null,"streetname":"RESEDA DR","streettype":null,"suffdir":null,"city":"HOUSTON","state_code":"TX","zip5":"77062","latitude":"29.5596110000000000","longitude":"-95.131536000000000","publicwifi":"U","url":null,"broadband_type_id":6}
{"id":null,"anchorname":"JOHN F WARD ELEMENTARY","address":"1440 BOULDERCREST DR HOUSTON, TX 77062-2247","bldgnbr":"1440","predir":null,"streetname":"BOULDERCREST DR","streettype":null,"suffdir":null,"city":"HOUSTON","state_code":"TX","zip5":"77062","latitude":"29.5828020000000000","longitude":"-95.136106000000000","publicwifi":"U","url":null,"broadband_type_id":6}
{"id":null,"anchorname":"BAY AREA MONTESSORI HOUSE","address":"17222 MERCURY DR HOUSTON, TX 77058","bldgnbr":"17222","predir":null,"streetname":"MERCURY DR","streettype":null,"suffdir":null,"city":"HOUSTON","state_code":"TX","zip5":"77058","latitude":"29.5503480000000000","longitude":"-95.116855000000000","publicwifi":"U","url":null,"broadband_type_id":6}
{"id":null,"anchorname":"HOUSTON LEARNING ACADEMY","address":"17926 HWY 3 STE 103 WEBSTER, TX 77598","bldgnbr":"17926","predir":null,"streetname":"HWY 3 STE 103","streettype":null,"suffdir":null,"city":"WEBSTER","state_code":"TX","zip5":"77598","latitude":"29.5373850000000000","longitude":"-95.117992000000000","publicwifi":"U","url":null,"broadband_type_id":6}
{"id":null,"anchorname":"MARGARET S MCWHIRTER ELEMENTARY","address":"300 PENNSYLVANIA WEBSTER, TX 77598-5146","bldgnbr":"300","predir":null,"streetname":"PENNSYLVANIA","streettype":null,"suffdir":null,"city":"WEBSTER","state_code":"TX","zip5":"77598","latitude":"29.5342140000000000","longitude":"-95.117987000000000","publicwifi":"U","url":null,"broadband_type_id":6}
{"id":null,"anchorname":"CLEAR VIEW EDUCATION CENTER","address":"400 S WALNUT WEBSTER, TX 77598","bldgnbr":"400","predir":null,"streetname":"S WALNUT","streettype":null,"suffdir":null,"city":"WEBSTER","state_code":"TX","zip5":"77598","latitude":"29.5312380000000000","longitude":"-95.120497000000000","publicwifi":"U","url":null,"broadband_type_id":6}
{"id":null,"anchorname":"ITT TECHNICAL INSTITUTE-WEBSTER","address":"1001 MAGNOLIA AVE WEBSTER, TX 77598","bldgnbr":"1001","predir":null,"streetname":"MAGNOLIA AVE","streettype":null,"suffdir":null,"city":"WEBSTER","state_code":"TX","zip5":"77598","latitude":"29.5256920000000000","longitude":"-95.121548000000000","publicwifi":"U","url":null,"broadband_type_id":null}
{"id":null,"anchorname":"CITY OF NASSAU BAY EMS","address":"18295 UPPER BAY ROAD NASSAU BAY, TX 77058","bldgnbr":"18295","predir":null,"streetname":"UPPER BAY ROAD","streettype":null,"suffdir":null,"city":"NASSAU BAY","state_code":"TX","zip5":"77058","latitude":"29.5475270000000000","longitude":"-95.088109000000000","publicwifi":"U","url":null,"broadband_type_id":6}
{"id":null,"anchorname":"DATHAN ASHER INC","address":"2004 SAN SEBASTIAN CT #2239 HOUSTON, TX 77058","bldgnbr":"2004","predir":null,"streetname":"SAN SEBASTIAN CT #2239","streettype":null,"suffdir":null,"city":"HOUSTON","state_code":"TX","zip5":"77058","latitude":"29.5470070000000000","longitude":"-95.086350000000000","publicwifi":"U","url":null,"broadband_type_id":null}
{"id":null,"anchorname":"GLORIA DEI EARLY CHILDHOOD MINISTRIES","address":"18220 UPPER BAY RD HOUSTON, TX 77058","bldgnbr":"18220","predir":null,"streetname":"UPPER BAY RD","streettype":null,"suffdir":null,"city":"HOUSTON","state_code":"TX","zip5":"77058","latitude":"29.5468320000000000","longitude":"-95.090208000000000","publicwifi":"U","url":null,"broadband_type_id":6}
{"id":null,"anchorname":"TAYLOR LAKE CHRISTIAN DAY","address":"1730 OLD KIRBY RD SEABROOK, TX 77586","bldgnbr":"1730","predir":null,"streetname":"OLD KIRBY RD","streettype":null,"suffdir":null,"city":"SEABROOK","state_code":"TX","zip5":"77586","latitude":"29.5877150000000000","longitude":"-95.048533000000000","publicwifi":"U","url":null,"broadband_type_id":6}
{"id":null,"anchorname":"THE PREPARATORY ACADEMY OF HOUSTON","address":"17300 EL CAMINO REAL STE 107A HOUSTON, TX 77058","bldgnbr":"17300","predir":null,"streetname":"EL CAMINO REAL STE 107A","streettype":null,"suffdir":null,"city":"HOUSTON","state_code":"TX","zip5":"77058","latitude":"29.5508880000000000","longitude":"-95.114265000000000","publicwifi":"U","url":null,"broadband_type_id":6}
{"id":null,"anchorname":"SPACE CENTER INT","address":"17400 SATURN LN HOUSTON, TX 77058","bldgnbr":"17400","predir":null,"streetname":"SATURN LN","streettype":null,"suffdir":null,"city":"HOUSTON","state_code":"TX","zip5":"77058","latitude":"29.5575020000000000","longitude":"-95.107286000000000","publicwifi":"U","url":null,"broadband_type_id":null}
{"id":null,"anchorname":"CLEAR LAKE MONTESSORI SCHOOL","address":"2486 FALCON PASS HOUSTON, TX 77062","bldgnbr":"2486","predir":null,"streetname":"FALCON PASS","streettype":null,"suffdir":null,"city":"HOUSTON","state_code":"TX","zip5":"77062","latitude":"29.5745310000000000","longitude":"-95.110703000000000","publicwifi":"U","url":null,"broadband_type_id":6}
{"id":null,"anchorname":"CLEAR LAKE CHRISTIAN SCHOOL","address":"14325 CRESCENT LANDING DR HOUSTON, TX 77062","bldgnbr":"14325","predir":null,"streetname":"CRESCENT LANDING DR","streettype":null,"suffdir":null,"city":"HOUSTON","state_code":"TX","zip5":"77062","latitude":"29.5801430000000000","longitude":"-95.151551000000000","publicwifi":"U","url":null,"broadband_type_id":6}
{"id":null,"anchorname":"CLEAR LAKE REHABILITATION HOSPITAL","address":"655 EAST MEDICAL CENTER BOULEVARD WEBSTER, TX 77598-4328","bldgnbr":"655","predir":null,"streetname":"EAST MEDICAL CENTER BOULEVARD","streettype":null,"suffdir":null,"city":"WEBSTER","state_code":"TX","zip5":"77598","latitude":"29.5474440000000000","longitude":"-95.117313000000000","publicwifi":"U","url":null,"broadband_type_id":3}
{"id":null,"anchorname":"CLEAR LAKE REGIONAL MEDICAL CENTER","address":"500 MEDICAL CENTER BOULEVARD WEBSTER, TX 77598-4286","bldgnbr":"500","predir":null,"streetname":"MEDICAL CENTER BOULEVARD","streettype":null,"suffdir":null,"city":"WEBSTER","state_code":"TX","zip5":"77598","latitude":"29.5412200000000000","longitude":"-95.127674000000000","publicwifi":"U","url":null,"broadband_type_id":3}
{"id":null,"anchorname":"CHARTER BEHAVIORAL HEALTH SYSTEM OF CLEAR LAKE","address":"709 MEDICAL CENTER BOULEVARD WEBSTER, TX 77598","bldgnbr":"709","predir":null,"streetname":"MEDICAL CENTER BOULEVARD","streettype":null,"suffdir":null,"city":"WEBSTER","state_code":"TX","zip5":"77598","latitude":"29.5372450000000000","longitude":"-95.129355000000000","publicwifi":"U","url":null,"broadband_type_id":3}
{"id":null,"anchorname":"HOUSTON PHYSICIANS HOSPITAL","address":"333 NORTH TEXAS AVENUE WEBSTER, TX 77598","bldgnbr":"333","predir":null,"streetname":"NORTH TEXAS AVENUE","streettype":null,"suffdir":null,"city":"WEBSTER","state_code":"TX","zip5":"77598","latitude":"29.5341070000000000","longitude":"-95.126019000000000","publicwifi":"U","url":null,"broadband_type_id":3}
{"id":null,"anchorname":"CLEAR LAKE EMERGENCY MEDICAL CORPS","address":"104 PENNSYLVANIA WEBSTER, TX 77598","bldgnbr":"104","predir":null,"streetname":"PENNSYLVANIA","streettype":null,"suffdir":null,"city":"WEBSTER","state_code":"TX","zip5":"77598","latitude":"29.5354880000000000","longitude":"-95.116222000000000","publicwifi":"U","url":null,"broadband_type_id":3}
{"id":null,"anchorname":"WEBSTER POLICE DEPARTMENT","address":"217 PENNSYLVANIA STREET WEBSTER, TX 77598","bldgnbr":"217","predir":null,"streetname":"PENNSYLVANIA STREET","streettype":null,"suffdir":null,"city":"WEBSTER","state_code":"TX","zip5":"77598","latitude":"29.5338370000000000","longitude":"-95.116243000000000","publicwifi":"U","url":null,"broadband_type_id":4}
{"id":null,"anchorname":"ST THOMAS THE APOSTLE DAY SCHOOL","address":"18300 UPPER BAY RD HOUSTON, TX 77058","bldgnbr":"18300","predir":null,"streetname":"UPPER BAY RD","streettype":null,"suffdir":null,"city":"HOUSTON","state_code":"TX","zip5":"77058","latitude":"29.5465300000000000","longitude":"-95.088022000000000","publicwifi":"U","url":null,"broadband_type_id":6}
{"id":null,"anchorname":"NASSAU BAY VOLUNTEER FIRE DEPARTMENT","address":"120 SURF CT NASSAU BAY, TX 77058","bldgnbr":"120","predir":null,"streetname":"SURF CT","streettype":null,"suffdir":null,"city":"NASSAU BAY","state_code":"TX","zip5":"77058","latitude":"29.5517970000000000","longitude":"-95.084397000000000","publicwifi":"U","url":null,"broadband_type_id":5}
{"id":null,"anchorname":"SPACE CENTER MEMORIAL HOSPITAL","address":"2050 SPACE PARK DRIVE HOUSTON, TX 77058","bldgnbr":"2050","predir":null,"streetname":"SPACE PARK DRIVE","streettype":null,"suffdir":null,"city":"HOUSTON","state_code":"TX","zip5":"77058","latitude":"29.5505820000000000","longitude":"-95.085540000000000","publicwifi":"U","url":null,"broadband_type_id":3}
{"id":null,"anchorname":"CHRISTUS ST. JOHN HOSPITAL","address":"18300 ST JOHN DRIVE NASSAU BAY, TX 77058-6302","bldgnbr":"18300","predir":null,"streetname":"ST JOHN DRIVE","streettype":null,"suffdir":null,"city":"NASSAU BAY","state_code":"TX","zip5":"77058","latitude":"29.5501250000000000","longitude":"-95.086706000000000","publicwifi":"U","url":null,"broadband_type_id":3}
{"id":null,"anchorname":"WEBSTER FIRE DEPARTMENT","address":"18208 EGRET BAY BLVD WEBSTER, TX 77058","bldgnbr":"18208","predir":null,"streetname":"EGRET BAY BLVD","streettype":null,"suffdir":null,"city":"WEBSTER","state_code":"TX","zip5":"77058","latitude":"29.5439180000000000","longitude":"-95.104379000000000","publicwifi":"U","url":null,"broadband_type_id":5}
{"id":null,"anchorname":"NASSAU BAY POLICE DEPARTMENT","address":"1800 NASA ROAD 1 NASSAU BAY, TX 77058","bldgnbr":"1800","predir":null,"streetname":"NASA ROAD 1","streettype":null,"suffdir":null,"city":"NASSAU BAY","state_code":"TX","zip5":"77058","latitude":"29.5494850000000000","longitude":"-95.092474000000000","publicwifi":"U","url":null,"broadband_type_id":4}
{"id":null,"anchorname":"UNIVERSITY OF HOUSTON-CLEAR LAKE","address":"2700 BAY AREA BLVD HOUSTON, TX 77058-1098","bldgnbr":"2700","predir":null,"streetname":"BAY AREA BLVD","streettype":null,"suffdir":null,"city":"HOUSTON","state_code":"TX","zip5":"77058","latitude":"29.5774520000000000","longitude":"-95.106572000000000","publicwifi":"U","url":null,"broadband_type_id":6}
{"id":null,"anchorname":"UNIVERSITY OF HOUSTON CLEAR LAKE POLICE DEPARTMENT","address":"2700 BAY AREA BLVD. HOUSTON, TX 77058","bldgnbr":"2700","predir":null,"streetname":"BAY AREA BLVD.","streettype":null,"suffdir":null,"city":"HOUSTON","state_code":"TX","zip5":"77058","latitude":"29.5774520000000000","longitude":"-95.106572000000000","publicwifi":"U","url":null,"broadband_type_id":4}
{"id":null,"anchorname":"RIVER OAKS HOSPITAL","address":"4200 TWELVE OAKS DRIVE HOUSTON, TX 77027-6899","bldgnbr":"4200","predir":null,"streetname":"TWELVE OAKS DRIVE","streettype":null,"suffdir":null,"city":"HOUSTON","state_code":"TX","zip5":"77027","latitude":"29.5624280000000000","longitude":"-95.075532000000000","publicwifi":"U","url":null,"broadband_type_id":3}
{"id":null,"anchorname":"CVS/PHARMACY #2815","address":"330 RUES LANE","bldgnbr":"330","predir":null,"streetname":"RUES LANE","streettype":null,"suffdir":null,"city":"EAST BRUNSWICK","state_code":"NJ","zip5":"08816","latitude":"40.4173029000000000","longitude":"-74.412660900000000","publicwifi":"U","url":null,"broadband_type_id":3}
{"id":null,"anchorname":"G W ROBINSON","address":"451 KIRBY DRIVE SEABROOK, TX 77586","bldgnbr":"451","predir":null,"streetname":"KIRBY DRIVE","streettype":null,"suffdir":null,"city":"SEABROOK","state_code":"TX","zip5":"77586","latitude":"29.5715720000000000","longitude":"-95.058668000000000","publicwifi":"U","url":null,"broadband_type_id":null}
{"id":null,"anchorname":"BRUNSWICK SQUARE PHARMACY LLC","address":"1177 Route 18","bldgnbr":"1177","predir":null,"streetname":"Route 18","streettype":null,"suffdir":null,"city":"East Brunswick","state_code":"NJ","zip5":"08816","latitude":"40.4333926000000000","longitude":"-74.388029600000000","publicwifi":"U","url":null,"broadband_type_id":3}
{"id":null,"anchorname":"Village of Potsdam","address":"2 Park Street","bldgnbr":"2","predir":null,"streetname":"Park","streettype":"Street","suffdir":null,"city":"Potsdam","state_code":"NY","zip5":"13676","latitude":"44.6692745600000000","longitude":"-74.982663917000000","publicwifi":"U","url":null,"broadband_type_id":1}
{"id":null,"anchorname":"ED H WHITE ELEMENTARY","address":"1708 LES TALLEY DR SEABROOK, TX 77586-5999","bldgnbr":"1708","predir":null,"streetname":"LES TALLEY DR","streettype":null,"suffdir":null,"city":"SEABROOK","state_code":"TX","zip5":"77586","latitude":"29.5792150000000000","longitude":"-95.037355000000000","publicwifi":"U","url":null,"broadband_type_id":6}
{"id":null,"anchorname":"BAY ELEMENTARY","address":"1502 BAYPORT BLVD SEABROOK, TX 77586-3525","bldgnbr":"1502","predir":null,"streetname":"BAYPORT BLVD","streettype":null,"suffdir":null,"city":"SEABROOK","state_code":"TX","zip5":"77586","latitude":"29.5664550000000000","longitude":"-95.026196000000000","publicwifi":"U","url":null,"broadband_type_id":6}
{"id":null,"anchorname":"BAYSHORE ELEMENTARY","address":"800 MCCABE RD LA PORTE, TX 77571","bldgnbr":"800","predir":null,"streetname":"MCCABE RD","streettype":null,"suffdir":null,"city":"LA PORTE","state_code":"TX","zip5":"77571","latitude":"29.6304450000000000","longitude":"-95.026202000000000","publicwifi":"U","url":null,"broadband_type_id":6}
{"id":null,"anchorname":"SEABROOK INT","address":"2401 E MEYER RD SEABROOK, TX 77586-2999","bldgnbr":"2401","predir":null,"streetname":"E MEYER RD","streettype":null,"suffdir":null,"city":"SEABROOK","state_code":"TX","zip5":"77586","latitude":"29.5713300000000000","longitude":"-95.016932000000000","publicwifi":"U","url":null,"broadband_type_id":null}
{"id":null,"anchorname":"SUAREZ AMUBLANCE SERVICE LLC","address":"4806 GERALDINE ST SEABROOK, TX 77586","bldgnbr":"4806","predir":null,"streetname":"GERALDINE ST","streettype":null,"suffdir":null,"city":"SEABROOK","state_code":"TX","zip5":"77586","latitude":"29.6023780000000000","longitude":"-94.993824000000000","publicwifi":"U","url":null,"broadband_type_id":null}
{"id":null,"anchorname":"FAIRMONT JR HIGH","address":"4911 HOLLY BAY CT PASADENA, TX 77505-6411","bldgnbr":"4911","predir":null,"streetname":"HOLLY BAY CT","streettype":null,"suffdir":null,"city":"PASADENA","state_code":"TX","zip5":"77505","latitude":"29.6412180000000000","longitude":"-95.130870000000000","publicwifi":"U","url":null,"broadband_type_id":6}
{"id":null,"anchorname":"HUMANE EMS INC","address":"4310 ARBORETUM DRIVE PASADENA, TX 77505","bldgnbr":"4310","predir":null,"streetname":"ARBORETUM DRIVE","streettype":null,"suffdir":null,"city":"PASADENA","state_code":"TX","zip5":"77505","latitude":"29.6449870000000000","longitude":"-95.126155000000000","publicwifi":"U","url":null,"broadband_type_id":6}
{"id":null,"anchorname":"REGENCY BEAUTY INSTITUTE-PASADENA","address":"5968 FAIRMONT PKWY STE A PASADENA, TX 77505","bldgnbr":"5968","predir":null,"streetname":"FAIRMONT PKWY STE A","streettype":null,"suffdir":null,"city":"PASADENA","state_code":"TX","zip5":"77505","latitude":"29.6496060000000000","longitude":"-95.149412000000000","publicwifi":"U","url":null,"broadband_type_id":null}
{"id":null,"anchorname":"BONNETTE JR HIGH","address":"5010 PASADENA BLVD DEER PARK, TX 77536-5798","bldgnbr":"5010","predir":null,"streetname":"PASADENA BLVD","streettype":null,"suffdir":null,"city":"DEER PARK","state_code":"TX","zip5":"77536","latitude":"29.7111100000000000","longitude":"-95.141169000000000","publicwifi":"U","url":null,"broadband_type_id":6}
{"id":null,"anchorname":"CARPENTER ELEMENTARY","address":"5002 PASADENA BLVD DEER PARK, TX 77536-5799","bldgnbr":"5002","predir":null,"streetname":"PASADENA BLVD","streettype":null,"suffdir":null,"city":"DEER PARK","state_code":"TX","zip5":"77536","latitude":"29.7111150000000000","longitude":"-95.141223000000000","publicwifi":"U","url":null,"broadband_type_id":6}
{"id":null,"anchorname":"SPACE CENTER BLVD","address":"3868 SPACE CENTER BLVD PASADENA, TX 77505","bldgnbr":"3868","predir":null,"streetname":"SPACE CENTER BLVD","streettype":null,"suffdir":null,"city":"PASADENA","state_code":"TX","zip5":"77505","latitude":"29.6524750000000000","longitude":"-95.144230000000000","publicwifi":"U","url":null,"broadband_type_id":null}
{"id":null,"anchorname":"SAN JACINTO ELEMENTARY","address":"601 E EIGHTH DEER PARK, TX 77536-2798","bldgnbr":"601","predir":null,"streetname":"E EIGHTH","streettype":null,"suffdir":null,"city":"DEER PARK","state_code":"TX","zip5":"77536","latitude":"29.7051850000000000","longitude":"-95.117582000000000","publicwifi":"U","url":null,"broadband_type_id":6}
{"id":null,"anchorname":"JP DABBS ELEMENTARY","address":"302 E LAMBUTH DEER PARK, TX 77536-6399","bldgnbr":"302","predir":null,"streetname":"E LAMBUTH","streettype":null,"suffdir":null,"city":"DEER PARK","state_code":"TX","zip5":"77536","latitude":"29.6691720000000000","longitude":"-95.120600000000000","publicwifi":"U","url":null,"broadband_type_id":6}
{"id":null,"anchorname":"HARRIS COUNTY CONSTABLE PCT 8","address":"7330 SPENCER HWY. HOUSTON, TX 77505","bldgnbr":"7330","predir":null,"streetname":"SPENCER HWY.","streettype":null,"suffdir":null,"city":"HOUSTON","state_code":"TX","zip5":"77505","latitude":"29.6617830000000000","longitude":"-95.125830000000000","publicwifi":"U","url":null,"broadband_type_id":6}
{"id":null,"anchorname":"SP ED","address":"203 IVY DEER PARK, TX 77536-2748","bldgnbr":"203","predir":null,"streetname":"IVY","streettype":null,"suffdir":null,"city":"DEER PARK","state_code":"TX","zip5":"77536","latitude":"29.7089170000000000","longitude":"-95.121262000000000","publicwifi":"U","url":null,"broadband_type_id":null}
{"id":null,"anchorname":"BAY AREA CHARTER ELEMENTARY SCHOOL","address":"2600 HUMBLE EL LAGO, TX 77586","bldgnbr":"2600","predir":null,"streetname":"HUMBLE","streettype":null,"suffdir":null,"city":"EL LAGO","state_code":"TX","zip5":"77586","latitude":"29.5797650000000000","longitude":"-95.036419000000000","publicwifi":"U","url":null,"broadband_type_id":6}
{"id":null,"anchorname":"LAKEVIEW POLICE DEPT.","address":"98 LAKESHORE DRIVE EL LAGO, TX 77586","bldgnbr":"98","predir":null,"streetname":"LAKESHORE DRIVE","streettype":null,"suffdir":null,"city":"EL LAGO","state_code":"TX","zip5":"77586","latitude":"29.5652390000000000","longitude":"-95.051895000000000","publicwifi":"U","url":null,"broadband_type_id":4}
{"id":null,"anchorname":"EVELYN MEADOR BRANCH LIBRARY","address":"2400 NORTH MEYER ROAD SEABROOK, TX 77586-2964","bldgnbr":"2400","predir":null,"streetname":"NORTH MEYER ROAD","streettype":null,"suffdir":null,"city":"SEABROOK","state_code":"TX","zip5":"77586","latitude":"29.5709560000000000","longitude":"-95.013403000000000","publicwifi":"U","url":null,"broadband_type_id":6}
{"id":null,"anchorname":"SEABROOK POLICE DEPARTMENT","address":"1400 COOK SEABROOK, TX 77586","bldgnbr":"1400","predir":null,"streetname":"COOK","streettype":null,"suffdir":null,"city":"SEABROOK","state_code":"TX","zip5":"77586","latitude":"29.5644570000000000","longitude":"-95.023777000000000","publicwifi":"U","url":null,"broadband_type_id":4}
{"id":null,"anchorname":"SEABROOK VOLUNTEER FIRE DEPARTMENT INC.","address":"1206 ANDERS LN SEABROOK, TX 77586","bldgnbr":"1206","predir":null,"streetname":"ANDERS LN","streettype":null,"suffdir":null,"city":"SEABROOK","state_code":"TX","zip5":"77586","latitude":"29.5637070000000000","longitude":"-95.025339000000000","publicwifi":"U","url":null,"broadband_type_id":5}
{"id":null,"anchorname":"SHOREACRES POLICE DEPARTMENT","address":"601 SHOREACRES ROAD SHOREACRES, TX 77571","bldgnbr":"601","predir":null,"streetname":"SHOREACRES ROAD","streettype":null,"suffdir":null,"city":"SHOREACRES","state_code":"TX","zip5":"77571","latitude":"29.6200720000000000","longitude":"-95.015083000000000","publicwifi":"U","url":null,"broadband_type_id":4}
{"id":null,"anchorname":"TEXAS CHIROPRACTIC COLLEGE FOUNDATION INC","address":"5912 SPENCER HWY PASADENA, TX 77505-1699","bldgnbr":"5912","predir":null,"streetname":"SPENCER HWY","streettype":null,"suffdir":null,"city":"PASADENA","state_code":"TX","zip5":"77505","latitude":"29.6648320000000000","longitude":"-95.150211000000000","publicwifi":"U","url":null,"broadband_type_id":6}
{"id":null,"anchorname":"TRI CITY REGIONAL HOSPITAL","address":"4040 RED BLUFF ROAD PASADENA, TX 77503","bldgnbr":"4040","predir":null,"streetname":"RED BLUFF ROAD","streettype":null,"suffdir":null,"city":"PASADENA","state_code":"TX","zip5":"77503","latitude":"29.6801840000000000","longitude":"-95.149194000000000","publicwifi":"U","url":null,"broadband_type_id":3}
{"id":null,"anchorname":"DEER PARK COMMUNITY HOSPITAL","address":"4525 GLENWOOD AVENUE DEER PARK, TX 77536","bldgnbr":"4525","predir":null,"streetname":"GLENWOOD AVENUE","streettype":null,"suffdir":null,"city":"DEER PARK","state_code":"TX","zip5":"77536","latitude":"29.6682500000000000","longitude":"-95.130120000000000","publicwifi":"U","url":null,"broadband_type_id":3}
{"id":null,"anchorname":"DEER PARK HIGH SCHOOL","address":"710 W SAN AUGUSTINE DEER PARK, TX 77536","bldgnbr":"710","predir":null,"streetname":"W SAN AUGUSTINE","streettype":null,"suffdir":null,"city":"DEER PARK","state_code":"TX","zip5":"77536","latitude":"29.6891650000000000","longitude":"-95.128914000000000","publicwifi":"U","url":null,"broadband_type_id":6}
{"id":null,"anchorname":"HIGH SCHOOL POINT","address":"301 W P ST DEER PARK, TX 77536","bldgnbr":"301","predir":null,"streetname":"W P ST","streettype":null,"suffdir":null,"city":"DEER PARK","state_code":"TX","zip5":"77536","latitude":"29.6843760000000000","longitude":"-95.125483000000000","publicwifi":"U","url":null,"broadband_type_id":6}
{"id":null,"anchorname":"DEER PARK VOLUNTEER FIRE DEPARTMENT","address":"1302 CENTER ST DEER PARK, TX 77536-0700","bldgnbr":"1302","predir":null,"streetname":"CENTER ST","streettype":null,"suffdir":null,"city":"DEER PARK","state_code":"TX","zip5":"77536","latitude":"29.6993390000000000","longitude":"-95.125057000000000","publicwifi":"U","url":null,"broadband_type_id":5}
{"id":null,"anchorname":"DEER PARK JUNIOR HIGH","address":"410 E NINTH DEER PARK, TX 77536-3299","bldgnbr":"410","predir":null,"streetname":"E NINTH","streettype":null,"suffdir":null,"city":"DEER PARK","state_code":"TX","zip5":"77536","latitude":"29.7034190000000000","longitude":"-95.118846000000000","publicwifi":"U","url":null,"broadband_type_id":2}
{"id":null,"anchorname":"DEER PARK ELEMENTARY","address":"2920 LUELLA DEER PARK, TX 77536-5199","bldgnbr":"2920","predir":null,"streetname":"LUELLA","streettype":null,"suffdir":null,"city":"DEER PARK","state_code":"TX","zip5":"77536","latitude":"29.6858760000000000","longitude":"-95.114139000000000","publicwifi":"U","url":null,"broadband_type_id":2}
{"id":null,"anchorname":"DEER PARK POLICE DEPARTMENT","address":"2911 CENTER DEER PARK, TX 77536","bldgnbr":"2911","predir":null,"streetname":"CENTER","streettype":null,"suffdir":null,"city":"DEER PARK","state_code":"TX","zip5":"77536","latitude":"29.6865760000000000","longitude":"-95.122901000000000","publicwifi":"U","url":null,"broadband_type_id":4}
{"id":null,"anchorname":"DEER PARK PUBLIC LIBRARY","address":"3009 CENTER ST DEER PARK, TX 77536","bldgnbr":"3009","predir":null,"streetname":"CENTER ST","streettype":null,"suffdir":null,"city":"DEER PARK","state_code":"TX","zip5":"77536","latitude":"29.6838620000000000","longitude":"-95.122071000000000","publicwifi":"U","url":null,"broadband_type_id":6}
{"id":null,"anchorname":"DEER PARK FIRE MARSHAL'S OFFICE","address":"2211 EAST X STREET DEER PARK, TX 77536","bldgnbr":"2211","predir":null,"streetname":"EAST X STREET","streettype":null,"suffdir":null,"city":"DEER PARK","state_code":"TX","zip5":"77536","latitude":"29.6951170000000000","longitude":"-95.101170000000000","publicwifi":"U","url":null,"broadband_type_id":5}
{"id":null,"anchorname":"EAST BRUNSWICK IMAGING ASSOCIATES LLC","address":"647 State Route 18 East Brunswick, NJ 08816-3721 United States","bldgnbr":"647","predir":null,"streetname":"State Route 18 East Brunswick","streettype":null,"suffdir":null,"city":"East Brunswick","state_code":"NJ","zip5":"08816","latitude":"40.4330280000000000","longitude":"-74.387593000000000","publicwifi":"U","url":null,"broadband_type_id":6}
{"id":null,"anchorname":"LOMAX JUNIOR HIGH","address":"9801 NORTH AVE LA PORTE, TX 77571","bldgnbr":"9801","predir":null,"streetname":"NORTH AVE","streettype":null,"suffdir":null,"city":"LA PORTE","state_code":"TX","zip5":"77571","latitude":"29.6800040000000000","longitude":"-95.079169000000000","publicwifi":"U","url":null,"broadband_type_id":6}
{"id":null,"anchorname":"LOMAX ELEMENTARY","address":"10615 N AVE LA PORTE, TX 77571","bldgnbr":"10615","predir":null,"streetname":"N AVE","streettype":null,"suffdir":null,"city":"LA PORTE","state_code":"TX","zip5":"77571","latitude":"29.6814500000000000","longitude":"-95.068995000000000","publicwifi":"U","url":null,"broadband_type_id":6}
{"id":null,"anchorname":"HERITAGE ELEMENTARY","address":"1002 SAN JACINTO LA PORTE, TX 77571","bldgnbr":"1002","predir":null,"streetname":"SAN JACINTO","streettype":null,"suffdir":null,"city":"LA PORTE","state_code":"TX","zip5":"77571","latitude":"29.6559450000000000","longitude":"-95.014225000000000","publicwifi":"U","url":null,"broadband_type_id":6}
{"id":null,"anchorname":"HIGHPOINT - DAEP","address":"1002 SAN JACINTO ST LA PORTE, TX 77571-6496","bldgnbr":"1002","predir":null,"streetname":"SAN JACINTO ST","streettype":null,"suffdir":null,"city":"LA PORTE","state_code":"TX","zip5":"77571","latitude":"29.6559650000000000","longitude":"-95.014179000000000","publicwifi":"U","url":null,"broadband_type_id":6}
{"id":null,"anchorname":"LA PORTE JUNIOR HIGH","address":"401 S BROADWAY LA PORTE, TX 77571","bldgnbr":"401","predir":null,"streetname":"S BROADWAY","streettype":null,"suffdir":null,"city":"LA PORTE","state_code":"TX","zip5":"77571","latitude":"29.6570890000000000","longitude":"-95.018810000000000","publicwifi":"U","url":null,"broadband_type_id":6}
{"id":null,"anchorname":"CITY OF LA PORTE EMS","address":"604 W FAIRMONT LA PORTE, TX 77571","bldgnbr":"604","predir":null,"streetname":"W FAIRMONT","streettype":null,"suffdir":null,"city":"LA PORTE","state_code":"TX","zip5":"77571","latitude":"29.6534160000000000","longitude":"-95.024516000000000","publicwifi":"U","url":null,"broadband_type_id":6}
{"id":null,"anchorname":"ARLYNE \u0026 ALAN WEBER ELEMENTARY","address":"11955 BLACKHAWK BLVD HOUSTON, TX 77089","bldgnbr":"11955","predir":null,"streetname":"BLACKHAWK BLVD","streettype":null,"suffdir":null,"city":"HOUSTON","state_code":"TX","zip5":"77089","latitude":"29.5708070000000000","longitude":"-95.223001000000000","publicwifi":"U","url":null,"broadband_type_id":6}
{"id":null,"anchorname":"LA PORTE ARSON BUREAU","address":"120 S. 2ND STREET LA PORTE, TX 77571","bldgnbr":"120","predir":null,"streetname":"S. 2ND STREET","streettype":null,"suffdir":null,"city":"LA PORTE","state_code":"TX","zip5":"77571","latitude":"29.6646530000000000","longitude":"-95.021690000000000","publicwifi":"U","url":null,"broadband_type_id":null}
{"id":null,"anchorname":"SOUTH BELT ELEMENTARY","address":"1801 RIVERSTONE RANCH ROAD HOUSTON, TX 77089","bldgnbr":"1801","predir":null,"streetname":"RIVERSTONE RANCH ROAD","streettype":null,"suffdir":null,"city":"HOUSTON","state_code":"TX","zip5":"77089","latitude":"29.5754890000000000","longitude":"-95.245449000000000","publicwifi":"U","url":null,"broadband_type_id":6}
{"id":null,"anchorname":"LIFEWATCH EMS LLC","address":"9207 ARROWHEAD TRACE LN HOUSTON, TX 77089","bldgnbr":"9207","predir":null,"streetname":"ARROWHEAD TRACE LN","streettype":null,"suffdir":null,"city":"HOUSTON","state_code":"TX","zip5":"77089","latitude":"29.5773140000000000","longitude":"-95.244271000000000","publicwifi":"U","url":null,"broadband_type_id":6}
{"id":null,"anchorname":"MELILLO MIDDLE","address":"9220 HUGHES RD HOUSTON, TX 77089","bldgnbr":"9220","predir":null,"streetname":"HUGHES RD","streettype":null,"suffdir":null,"city":"HOUSTON","state_code":"TX","zip5":"77089","latitude":"29.5881530000000000","longitude":"-95.226638000000000","publicwifi":"U","url":null,"broadband_type_id":6}
{"id":null,"anchorname":"STUCHBERY ELEMENTARY","address":"11210 HUGHES HOUSTON, TX 77089-4636","bldgnbr":"11210","predir":null,"streetname":"HUGHES","streettype":null,"suffdir":null,"city":"HOUSTON","state_code":"TX","zip5":"77089","latitude":"29.5954940000000000","longitude":"-95.216455000000000","publicwifi":"U","url":null,"broadband_type_id":6}
{"id":null,"anchorname":"FIRST CHRISTIAN ACADEMY","address":"10950 HIGHLAND MEADOW VLG DR HOUSTON, TX 77089","bldgnbr":"10950","predir":null,"streetname":"HIGHLAND MEADOW","streettype":null,"suffdir":null,"city":"HOUSTON","state_code":"TX","zip5":"77089","latitude":"29.5895450000000000","longitude":"-95.215686000000000","publicwifi":"U","url":null,"broadband_type_id":6}
{"id":null,"anchorname":"SUNSHINE CHILDREN'S WORLD","address":"11410 HALL RD HOUSTON, TX 77089","bldgnbr":"11410","predir":null,"streetname":"HALL RD","streettype":null,"suffdir":null,"city":"HOUSTON","state_code":"TX","zip5":"77089","latitude":"29.5958630000000000","longitude":"-95.228218000000000","publicwifi":"U","url":null,"broadband_type_id":null}
{"id":null,"anchorname":"BURNETT ELEMENTARY","address":"11825 TEANECK DR HOUSTON, TX 77089-6120","bldgnbr":"11825","predir":null,"streetname":"TEANECK DR","streettype":null,"suffdir":null,"city":"HOUSTON","state_code":"TX","zip5":"77089","latitude":"29.5913940000000000","longitude":"-95.200896000000000","publicwifi":"U","url":null,"broadband_type_id":6}
{"id":null,"anchorname":"SCARSDALE WIC CENTER","address":"10851 SCARSDALE.SUITE 116 HOUSTON, TX 77089","bldgnbr":"10851","predir":null,"streetname":"SCARSDALE.SUITE 116","streettype":null,"suffdir":null,"city":"HOUSTON","state_code":"TX","zip5":"77089","latitude":"29.5839530000000000","longitude":"-95.215092000000000","publicwifi":"U","url":null,"broadband_type_id":null}
{"id":null,"anchorname":"THOMPSON INT","address":"11309 SAGEDOWNE LN HOUSTON, TX 77089-4619","bldgnbr":"11309","predir":null,"streetname":"SAGEDOWNE LN","streettype":null,"suffdir":null,"city":"HOUSTON","state_code":"TX","zip5":"77089","latitude":"29.5948270000000000","longitude":"-95.214975000000000","publicwifi":"U","url":null,"broadband_type_id":null}
{"id":null,"anchorname":"WESTBROOK INT","address":"302 W. EL DORADO BLVD. FRIENDSWOOD, TX 77546","bldgnbr":"302","predir":null,"streetname":"W. EL DORADO BLVD.","streettype":null,"suffdir":null,"city":"FRIENDSWOOD","state_code":"TX","zip5":"77546","latitude":"29.5460110000000000","longitude":"-95.161834000000000","publicwifi":"U","url":null,"broadband_type_id":6}
{"id":null,"anchorname":"BAKER 6TH GRADE CAMPUS","address":"9800 SPENCER HWY LA PORTE, TX 77571","bldgnbr":"9800","predir":null,"streetname":"SPENCER HWY","streettype":null,"suffdir":null,"city":"LA PORTE","state_code":"TX","zip5":"77571","latitude":"29.6643240000000000","longitude":"-95.084882000000000","publicwifi":"U","url":null,"broadband_type_id":6}
{"id":null,"anchorname":"MEMORIAL HERMANN SOUTHEAST","address":"11800 ASTORIA HOUSTON, TX 77089","bldgnbr":"11800","predir":null,"streetname":"ASTORIA","streettype":null,"suffdir":null,"city":"HOUSTON","state_code":"TX","zip5":"77089","latitude":"29.5832010000000000","longitude":"-95.207884000000000","publicwifi":"U","url":null,"broadband_type_id":null}
{"id":null,"anchorname":"SAN JACINTO COMMUNITY COLLEGE","address":"8060 SPENCER HWY PASADENA, TX 77501-2007","bldgnbr":"8060","predir":null,"streetname":"SPENCER HWY","streettype":null,"suffdir":null,"city":"PASADENA","state_code":"TX","zip5":"77501","latitude":"29.6572690000000000","longitude":"-95.114607000000000","publicwifi":"U","url":null,"broadband_type_id":6}
{"id":null,"anchorname":"COLLEGE PARK ELEMENTARY","address":"4315 LUELLA ST LA PORTE, TX 77571","bldgnbr":"4315","predir":null,"streetname":"LUELLA ST","streettype":null,"suffdir":null,"city":"LA PORTE","state_code":"TX","zip5":"77571","latitude":"29.6550600000000000","longitude":"-95.111357000000000","publicwifi":"U","url":null,"broadband_type_id":6}
{"id":null,"anchorname":"LA PORTE POLICE DEPARTMENT","address":"3001 NORTH 23RD ST LA PORTE, TX 77572","bldgnbr":"3001","predir":null,"streetname":"NORTH 23RD ST","streettype":null,"suffdir":null,"city":"LA PORTE","state_code":"TX","zip5":"77572","latitude":"29.6669590000000000","longitude":"-95.043285000000000","publicwifi":"U","url":null,"broadband_type_id":4}
{"id":null,"anchorname":"MORGANS POINT POLICE DEPT.","address":"1415 E. MAIN LA PORTE, TX 77572","bldgnbr":"1415","predir":null,"streetname":"E. MAIN","streettype":null,"suffdir":null,"city":"LA PORTE","state_code":"TX","zip5":"77572","latitude":"29.6715440000000000","longitude":"-95.006480000000000","publicwifi":"U","url":null,"broadband_type_id":4}
{"id":null,"anchorname":"LA PORTE HIGH SCHOOL","address":"301 E. FAIRMONT PKWY LA PORTE, TX 77571-6496","bldgnbr":"301","predir":null,"streetname":"E. FAIRMONT PKWY","streettype":null,"suffdir":null,"city":"LA PORTE","state_code":"TX","zip5":"77571","latitude":"29.6529360000000000","longitude":"-95.016206000000000","publicwifi":"U","url":null,"broadband_type_id":6}
{"id":null,"anchorname":"DEWALT ALTERNATIVE SCHOOL","address":"401 N 2ND ST LA PORTE, TX 77571","bldgnbr":"401","predir":null,"streetname":"N 2ND ST","streettype":null,"suffdir":null,"city":"LA PORTE","state_code":"TX","zip5":"77571","latitude":"29.6693210000000000","longitude":"-95.021573000000000","publicwifi":"U","url":null,"broadband_type_id":6}
{"id":null,"anchorname":"HARRIS COUNTY PUBLIC LIBRARY-LAPORTE BRANCH","address":"600 SOUTH BROADWAY LA PORTE, TX 77571-5498","bldgnbr":"600","predir":null,"streetname":"SOUTH BROADWAY","streettype":null,"suffdir":null,"city":"LA PORTE","state_code":"TX","zip5":"77571","latitude":"29.6583430000000000","longitude":"-95.019962000000000","publicwifi":"U","url":null,"broadband_type_id":6}
{"id":null,"anchorname":"LA PORTE FIRE DEPARTMENT","address":"124 S SECOND ST LA PORTE, TX 77571","bldgnbr":"124","predir":null,"streetname":"S SECOND ST","streettype":null,"suffdir":null,"city":"LA PORTE","state_code":"TX","zip5":"77571","latitude":"29.6647730000000000","longitude":"-95.021436000000000","publicwifi":"U","url":null,"broadband_type_id":5}
{"id":null,"anchorname":"DAWNING LIGHT 24 HOUR CHILDCARE","address":"930 S 14TH ST LA PORTE, TX 77571","bldgnbr":"930","predir":null,"streetname":"S 14TH ST","streettype":null,"suffdir":null,"city":"LA PORTE","state_code":"TX","zip5":"77571","latitude":"29.6542290000000000","longitude":"-95.034198000000000","publicwifi":"U","url":null,"broadband_type_id":3}
{"id":null,"anchorname":"DOBIE HIGH SCHOOL","address":"10220 BLACKHAWK HOUSTON, TX 77089","bldgnbr":"10220","predir":null,"streetname":"BLACKHAWK","streettype":null,"suffdir":null,"city":"HOUSTON","state_code":"TX","zip5":"77089","latitude":"29.5938830000000000","longitude":"-95.244996000000000","publicwifi":"U","url":null,"broadband_type_id":6}
{"id":null,"anchorname":"SOUTHEAST VOLUNTEER FIRE DEPARTMENT","address":"9830 HUGHES RD HOUSTON, TX 77234-4070","bldgnbr":"9830","predir":null,"streetname":"HUGHES RD","streettype":null,"suffdir":null,"city":"HOUSTON","state_code":"TX","zip5":"77234","latitude":"29.5848010000000000","longitude":"-95.240727000000000","publicwifi":"U","url":null,"broadband_type_id":5}
{"id":null,"anchorname":"PARKER WILLIAMS BRANCH LIBRARY","address":"10851 SCARSDALE BOULEVARD HOUSTON, TX 77089-5743","bldgnbr":"10851","predir":null,"streetname":"SCARSDALE BOULEVARD","streettype":null,"suffdir":null,"city":"HOUSTON","state_code":"TX","zip5":"77089","latitude":"29.5846270000000000","longitude":"-95.215468000000000","publicwifi":"U","url":null,"broadband_type_id":6}
{"id":null,"anchorname":"SAN JACINTO COLLEGE-SOUTH CAMPUS","address":"13735 BEAMER RD HOUSTON, TX 77089-6099","bldgnbr":"13735","predir":null,"streetname":"BEAMER RD","streettype":null,"suffdir":null,"city":"HOUSTON","state_code":"TX","zip5":"77089","latitude":"29.5833360000000000","longitude":"-95.197776000000000","publicwifi":"U","url":null,"broadband_type_id":6}
{"id":null,"anchorname":"CLEAR HORIZONS EARLY COLLEGE HIGH SCHOOL","address":"13735 BEAMER RD HOUSTON, TX 77089-6099","bldgnbr":"13735","predir":null,"streetname":"BEAMER RD","streettype":null,"suffdir":null,"city":"HOUSTON","state_code":"TX","zip5":"77089","latitude":"29.5833360000000000","longitude":"-95.197776000000000","publicwifi":"U","url":null,"broadband_type_id":6}
{"id":null,"anchorname":"BOYS AND GIRLS HARBOR ACADEMY","address":"514 BAYRIDGE RD LAPORTE, TX 77571","bldgnbr":"514","predir":null,"streetname":"BAYRIDGE RD","streettype":null,"suffdir":null,"city":"LAPORTE","state_code":"TX","zip5":"77571","latitude":"29.6698590000000000","longitude":"-94.996804000000000","publicwifi":"U","url":null,"broadband_type_id":6}
{"id":null,"anchorname":"LUTHERAN SOUTH ACADEMY","address":"12555 RYEWATER DR HOUSTON, TX 77089","bldgnbr":"12555","predir":null,"streetname":"RYEWATER DR","streettype":null,"suffdir":null,"city":"HOUSTON","state_code":"TX","zip5":"77089","latitude":"29.5869780000000000","longitude":"-95.190293000000000","publicwifi":"U","url":null,"broadband_type_id":6}
{"id":null,"anchorname":"CENTER FOR LIFELONG LEARNING","address":"333 Cheesequake Rd Parlin, NJ 08859-1084 United States","bldgnbr":"333","predir":null,"streetname":"Cheesequake Rd Parlin","streettype":null,"suffdir":null,"city":"Parlin","state_code":"NJ","zip5":"08859","latitude":"40.4560020000000000","longitude":"-74.334427000000000","publicwifi":"Y","url":null,"broadband_type_id":6}
{"id":null,"anchorname":"P H GREENE ELEMENTARY","address":"2903 FRIENDSWOOD LINK RD WEBSTER, TX 77598-3015","bldgnbr":"2903","predir":null,"streetname":"FRIENDSWOOD LINK RD","streettype":null,"suffdir":null,"city":"WEBSTER","state_code":"TX","zip5":"77598","latitude":"29.5265250000000000","longitude":"-95.166416000000000","publicwifi":"U","url":null,"broadband_type_id":6}
{"id":null,"anchorname":"WOODROW WILSON MONTESSORI","address":"2100 YUPON ST HOUSTON, TX 77006-1830","bldgnbr":"2100","predir":null,"streetname":"YUPON ST","streettype":null,"suffdir":null,"city":"HOUSTON","state_code":"TX","zip5":"77006","latitude":"29.7473180000000000","longitude":"-95.399008000000000","publicwifi":"U","url":null,"broadband_type_id":6}
{"id":null,"anchorname":"LANIER MIDDLE","address":"2600 WOODHEAD ST HOUSTON, TX 77098-1615","bldgnbr":"2600","predir":null,"streetname":"WOODHEAD ST","streettype":null,"suffdir":null,"city":"HOUSTON","state_code":"TX","zip5":"77098","latitude":"29.7423180000000000","longitude":"-95.405843000000000","publicwifi":"U","url":null,"broadband_type_id":6}
{"id":null,"anchorname":"RIVER OAKS ELEMENTARY","address":"2008 KIRBY DR HOUSTON, TX 77019-6016","bldgnbr":"2008","predir":null,"streetname":"KIRBY DR","streettype":null,"suffdir":null,"city":"HOUSTON","state_code":"TX","zip5":"77019","latitude":"29.7473810000000000","longitude":"-95.418847000000000","publicwifi":"U","url":null,"broadband_type_id":6}
{"id":null,"anchorname":"W E ROGERS ELEMENTARY","address":"3101 WESLAYAN STREET HOUSTON, TX 77027","bldgnbr":"3101","predir":null,"streetname":"WESLAYAN STREET","streettype":null,"suffdir":null,"city":"HOUSTON","state_code":"TX","zip5":"77027","latitude":"29.7375610000000000","longitude":"-95.441521000000000","publicwifi":"U","url":null,"broadband_type_id":6}
{"id":null,"anchorname":"BROOKSIDE INT","address":"3535 E FM 528 FRIENDSWOOD, TX 77546-9999","bldgnbr":"3535","predir":null,"streetname":"E FM 528","streettype":null,"suffdir":null,"city":"FRIENDSWOOD","state_code":"TX","zip5":"77546","latitude":"29.5215770000000000","longitude":"-95.167739000000000","publicwifi":"U","url":null,"broadband_type_id":null}
{"id":null,"anchorname":"GREGORY-LINCOLN ED CTR (6-8)","address":"1101 TAFT HOUSTON, TX 77019-4537","bldgnbr":"1101","predir":null,"streetname":"TAFT","streettype":null,"suffdir":null,"city":"HOUSTON","state_code":"TX","zip5":"77019","latitude":"29.7565990000000000","longitude":"-95.385473000000000","publicwifi":"U","url":null,"broadband_type_id":null}
{"id":null,"anchorname":"GREGORY-LINCOLN ED CTR (EE-5)","address":"1101 TAFT ST HOUSTON, TX 77019-4537","bldgnbr":"1101","predir":null,"streetname":"TAFT ST","streettype":null,"suffdir":null,"city":"HOUSTON","state_code":"TX","zip5":"77019","latitude":"29.7565990000000000","longitude":"-95.385473000000000","publicwifi":"U","url":null,"broadband_type_id":null}
{"id":null,"anchorname":"THE GATEWAY ACADEMY","address":"812 GILETTE ST HOUSTON, TX 77019","bldgnbr":"812","predir":null,"streetname":"GILETTE ST","streettype":null,"suffdir":null,"city":"HOUSTON","state_code":"TX","zip5":"77019","latitude":"29.7598940000000000","longitude":"-95.383104000000000","publicwifi":"U","url":null,"broadband_type_id":6}
{"id":null,"anchorname":"WILLIAM WHARTON K-8 DUAL LANGUAGE ACADEMY","address":"900 W GRAY ST HOUSTON, TX 77019-4226","bldgnbr":"900","predir":null,"streetname":"W GRAY ST","streettype":null,"suffdir":null,"city":"HOUSTON","state_code":"TX","zip5":"77019","latitude":"29.7544410000000000","longitude":"-95.390689000000000","publicwifi":"U","url":null,"broadband_type_id":6}
{"id":null,"anchorname":"CHILD DEVELOPMENT CENTER","address":"900 LOVETT BLVD HOUSTON, TX 77006","bldgnbr":"900","predir":null,"streetname":"LOVETT BLVD","streettype":null,"suffdir":null,"city":"HOUSTON","state_code":"TX","zip5":"77006","latitude":"29.7438290000000000","longitude":"-95.390015000000000","publicwifi":"U","url":null,"broadband_type_id":null}
{"id":null,"anchorname":"MANUEL THOMAS TRIGO","address":"2045 RICHMOND AVE HOUSTON, TX 77098","bldgnbr":"2045","predir":null,"streetname":"RICHMOND AVE","streettype":null,"suffdir":null,"city":"HOUSTON","state_code":"TX","zip5":"77098","latitude":"29.7339840000000000","longitude":"-95.409756000000000","publicwifi":"U","url":null,"broadband_type_id":null}
{"id":null,"anchorname":"MARIE MONIQUE TRIGO","address":"2045 RICHMOND AVENUE HOUSTON, TX 77098","bldgnbr":"2045","predir":null,"streetname":"RICHMOND AVENUE","streettype":null,"suffdir":null,"city":"HOUSTON","state_code":"TX","zip5":"77098","latitude":"29.7339840000000000","longitude":"-95.409756000000000","publicwifi":"U","url":null,"broadband_type_id":null}
{"id":null,"anchorname":"THE HOUSE AT POOH CORNER","address":"2808 FERNDALE HOUSTON, TX 77098","bldgnbr":"2808","predir":null,"streetname":"FERNDALE","streettype":null,"suffdir":null,"city":"HOUSTON","state_code":"TX","zip5":"77098","latitude":"29.7406000000000000","longitude":"-95.422148000000000","publicwifi":"U","url":null,"broadband_type_id":null}
{"id":null,"anchorname":"ST JOHNS LOWER","address":"2401 CLAREMONT LN HOUSTON, TX 77019","bldgnbr":"2401","predir":null,"streetname":"CLAREMONT LN","streettype":null,"suffdir":null,"city":"HOUSTON","state_code":"TX","zip5":"77019","latitude":"29.7425920000000000","longitude":"-95.430003000000000","publicwifi":"U","url":null,"broadband_type_id":null}
{"id":null,"anchorname":"AVONDALE HOUSE","address":"3737 OMEARA DR HOUSTON, TX 77027","bldgnbr":"3611","predir":null,"streetname":"CUMMINS ST","streettype":null,"suffdir":null,"city":"HOUSTON","state_code":"TX","zip5":"77027","latitude":"29.7335800000000000","longitude":"-95.438433000000000","publicwifi":"U","url":null,"broadband_type_id":null}
{"id":null,"anchorname":"SOAR CTR","address":"3233 WESLAYAN HOUSTON, TX 77027-5751","bldgnbr":"3233","predir":null,"streetname":"WESLAYAN","streettype":null,"suffdir":null,"city":"HOUSTON","state_code":"TX","zip5":"77027","latitude":"29.7346730000000000","longitude":"-95.439990000000000","publicwifi":"U","url":null,"broadband_type_id":null}
{"id":null,"anchorname":"FOREST BEND VOLUNTEER FIRE DEPARTMENT","address":"16615 HOPE VILLAGE RD FRIENDSWOOD, TX 77546-2395","bldgnbr":"16615","predir":null,"streetname":"HOPE VILLAGE RD","streettype":null,"suffdir":null,"city":"FRIENDSWOOD","state_code":"TX","zip5":"77546","latitude":"29.5414270000000000","longitude":"-95.175796000000000","publicwifi":"U","url":null,"broadband_type_id":5}
{"id":null,"anchorname":"CLEAR BROOK HIGH SCHOOL","address":"4607 FM 2351 FRIENDSWOOD, TX 77546-2823","bldgnbr":"4607","predir":null,"streetname":"FM 2351","streettype":null,"suffdir":null,"city":"FRIENDSWOOD","state_code":"TX","zip5":"77546","latitude":"29.5480050000000000","longitude":"-95.187129000000000","publicwifi":"U","url":null,"broadband_type_id":6}
{"id":null,"anchorname":"TEXAS DVR EMERGENCY MEDICAL SERVICE INC","address":"17126 BARCERLONA DR FRIENDSWOOD, TX 77546","bldgnbr":"17126","predir":null,"streetname":"BARCERLONA DR","streettype":null,"suffdir":null,"city":"FRIENDSWOOD","state_code":"TX","zip5":"77546","latitude":"29.5241470000000000","longitude":"-95.171735000000000","publicwifi":"U","url":null,"broadband_type_id":3}
{"id":null,"anchorname":"TEXAS SCHOOL OF BUSINESS-FRIENDSWOOD INC","address":"3208 FM 528 FRIENDSWOOD, TX 77546","bldgnbr":"3208","predir":null,"streetname":"FM 528","streettype":null,"suffdir":null,"city":"FRIENDSWOOD","state_code":"TX","zip5":"77546","latitude":"29.5222650000000000","longitude":"-95.162364000000000","publicwifi":"U","url":null,"broadband_type_id":6}
{"id":null,"anchorname":"THE GALLOWAY SCHOOL","address":"3200 W BAY AREA BLVD FRIENDSWOOD, TX 77546","bldgnbr":"3200","predir":null,"streetname":"W BAY AREA BLVD","streettype":null,"suffdir":null,"city":"FRIENDSWOOD","state_code":"TX","zip5":"77546","latitude":"29.5153020000000000","longitude":"-95.164015000000000","publicwifi":"U","url":null,"broadband_type_id":6}
{"id":null,"anchorname":"HOUSTON COMM. COLLEGE SYS.","address":"3200 MAIN STREET - D HOUSTON, TX 77002","bldgnbr":"3200","predir":null,"streetname":"MAIN STREET - D","streettype":null,"suffdir":null,"city":"HOUSTON","state_code":"TX","zip5":"77002","latitude":"29.7415400000000000","longitude":"-95.377457000000000","publicwifi":"U","url":null,"broadband_type_id":6}
{"id":null,"anchorname":"HOUSTON COMMUNITY COLLEGE","address":"3100 MAIN STREET HOUSTON, TX 77266-7517","bldgnbr":"3100","predir":null,"streetname":"MAIN STREET","streettype":null,"suffdir":null,"city":"HOUSTON","state_code":"TX","zip5":"77266","latitude":"29.7422100000000000","longitude":"-95.377227000000000","publicwifi":"U","url":null,"broadband_type_id":6}
{"id":null,"anchorname":"TRIUMPH HOSPITAL CENTRAL","address":"105 DREW AVENUE HOUSTON, TX 77006","bldgnbr":"105","predir":null,"streetname":"DREW AVENUE","streettype":null,"suffdir":null,"city":"HOUSTON","state_code":"TX","zip5":"77006","latitude":"29.7487570000000000","longitude":"-95.382380000000000","publicwifi":"U","url":null,"broadband_type_id":3}
{"id":null,"anchorname":"ANNUNCIATION ORTHODOX SCHOOL","address":"3600 YOAKUM BLVD HOUSTON, TX 77006","bldgnbr":"3600","predir":null,"streetname":"YOAKUM BLVD","streettype":null,"suffdir":null,"city":"HOUSTON","state_code":"TX","zip5":"77006","latitude":"29.7395930000000000","longitude":"-95.393199000000000","publicwifi":"U","url":null,"broadband_type_id":6}
{"id":null,"anchorname":"THE SCHOOL FOR YOUNG CHILDREN","address":"810 SW ROSS HOUSTON, TX 77006","bldgnbr":"810","predir":null,"streetname":"SW ROSS","streettype":null,"suffdir":null,"city":"HOUSTON","state_code":"TX","zip5":"77006","latitude":"29.7381500000000000","longitude":"-95.389527000000000","publicwifi":"U","url":null,"broadband_type_id":6}
{"id":null,"anchorname":"PERFOR \u0026 VIS ARTS HIGH SCHOOL","address":"4001 STANFORD HOUSTON, TX 77006-4948","bldgnbr":"4001","predir":null,"streetname":"STANFORD","streettype":null,"suffdir":null,"city":"HOUSTON","state_code":"TX","zip5":"77006","latitude":"29.7373890000000000","longitude":"-95.388396000000000","publicwifi":"U","url":null,"broadband_type_id":6}
{"id":null,"anchorname":"UNIVERSITY OF ST THOMAS","address":"3800 MONTROSE BLVD HOUSTON, TX 77006-4696","bldgnbr":"3800","predir":null,"streetname":"MONTROSE BLVD","streettype":null,"suffdir":null,"city":"HOUSTON","state_code":"TX","zip5":"77006","latitude":"29.7382890000000000","longitude":"-95.391877000000000","publicwifi":"U","url":null,"broadband_type_id":6}
{"id":null,"anchorname":"FREED-MONTROSE BRANCH LIBRARY","address":"4100 MONTROSE BLVD HOUSTON, TX 77006","bldgnbr":"4100","predir":null,"streetname":"MONTROSE BLVD","streettype":null,"suffdir":null,"city":"HOUSTON","state_code":"TX","zip5":"77006","latitude":"29.7357170000000000","longitude":"-95.391652000000000","publicwifi":"U","url":null,"broadband_type_id":6}
{"id":null,"anchorname":"ST STEPHEN'S EPISCOPAL SCHOOL","address":"1800 SUL ROSS HOUSTON, TX 77098","bldgnbr":"1800","predir":null,"streetname":"SUL ROSS","streettype":null,"suffdir":null,"city":"HOUSTON","state_code":"TX","zip5":"77098","latitude":"29.7377570000000000","longitude":"-95.404562000000000","publicwifi":"U","url":null,"broadband_type_id":6}
{"id":null,"anchorname":"GOLDEN CARE EMS INC","address":"4212 SAN FELIPE 121 HOUSTON, TX 77027","bldgnbr":"4212","predir":null,"streetname":"SAN FELIPE 121","streettype":null,"suffdir":null,"city":"HOUSTON","state_code":"TX","zip5":"77027","latitude":"29.7466590000000000","longitude":"-95.448938000000000","publicwifi":"U","url":null,"broadband_type_id":3}
{"id":null,"anchorname":"HARRIS COUNTY PUBLIC HEALTH AND ENVIRONMENTAL SERV","address":"2223 WEST LOOP SOUTH HOUSTON, TX 77027","bldgnbr":"2223","predir":null,"streetname":"WEST LOOP SOUTH","streettype":null,"suffdir":null,"city":"HOUSTON","state_code":"TX","zip5":"77027","latitude":"29.7456800000000000","longitude":"-95.456529000000000","publicwifi":"U","url":null,"broadband_type_id":3}
{"id":null,"anchorname":"LOOSCAN BRANCH LIBRARY","address":"2510 WILLOWICK ROAD HOUSTON, TX 77027-3936","bldgnbr":"2510","predir":null,"streetname":"WILLOWICK ROAD","streettype":null,"suffdir":null,"city":"HOUSTON","state_code":"TX","zip5":"77027","latitude":"29.7424870000000000","longitude":"-95.441654000000000","publicwifi":"U","url":null,"broadband_type_id":6}
{"id":null,"anchorname":"RIVER OAKS BAPTIST SCHOOL","address":"2300 WILLOWICK RD HOUSTON, TX 77027","bldgnbr":"2300","predir":null,"streetname":"WILLOWICK RD","streettype":null,"suffdir":null,"city":"HOUSTON","state_code":"TX","zip5":"77027","latitude":"29.7447300000000000","longitude":"-95.441676000000000","publicwifi":"U","url":null,"broadband_type_id":6}
{"id":null,"anchorname":"FIRST STEPS MONTESSORI SCHOOL","address":"2450 RIVER OAKS BLVD HOUSTON, TX 77019","bldgnbr":"2450","predir":null,"streetname":"RIVER OAKS BLVD","streettype":null,"suffdir":null,"city":"HOUSTON","state_code":"TX","zip5":"77019","latitude":"29.7426860000000000","longitude":"-95.427553000000000","publicwifi":"U","url":null,"broadband_type_id":6}
{"id":null,"anchorname":"WF SOLUTIONS-EMPLOYER SVCS","address":"3355 ALABAMA STE 350 HOUSTON, TX 77098","bldgnbr":"3355","predir":null,"streetname":"ALABAMA STE 350","streettype":null,"suffdir":null,"city":"HOUSTON","state_code":"TX","zip5":"77098","latitude":"29.7378830000000000","longitude":"-95.428100000000000","publicwifi":"U","url":null,"broadband_type_id":null}
{"id":null,"anchorname":"City of South Amboy","address":"140 N Broadway South Amboy, NJ  08879-1642 United States","bldgnbr":"140","predir":null,"streetname":"N Broadway South Amboy","streettype":null,"suffdir":null,"city":"South Amboy","state_code":"NJ","zip5":"08879","latitude":"40.4848140000000000","longitude":"-74.281219000000000","publicwifi":"N","url":"www.southamboynj.gov","broadband_type_id":1}
{"id":null,"anchorname":"VET TECH INSTITUTE OF HOUSTON","address":"4669 SOUTHWEST FWY STE 100 HOUSTON, TX 77027","bldgnbr":"4669","predir":null,"streetname":"SOUTHWEST FWY STE 100","streettype":null,"suffdir":null,"city":"HOUSTON","state_code":"TX","zip5":"77027","latitude":"29.7286390000000000","longitude":"-95.455009000000000","publicwifi":"U","url":null,"broadband_type_id":null}
{"id":null,"anchorname":"SOUTHWOOD PHARMACY","address":"15 Route 516","bldgnbr":"15","predir":null,"streetname":"Route 516","streettype":null,"suffdir":null,"city":"Old Bridge","state_code":"NJ","zip5":"08857","latitude":"40.4066880000000000","longitude":"-74.336261400000000","publicwifi":"U","url":null,"broadband_type_id":3}
{"id":null,"anchorname":"CENTER FOR ADVANCED LEGAL STUDIES","address":"3910 KIRBY STE 200 HOUSTON, TX 77098-4151","bldgnbr":"3910","predir":null,"streetname":"KIRBY STE 200","streettype":null,"suffdir":null,"city":"HOUSTON","state_code":"TX","zip5":"77098","latitude":"29.7321550000000000","longitude":"-95.419387000000000","publicwifi":"U","url":null,"broadband_type_id":6}
{"id":null,"anchorname":"1ST MED EMS INC DBA","address":"4247 A PURDUE ST HOUSTON, TX 77005","bldgnbr":"4247","predir":null,"streetname":"A PURDUE ST","streettype":null,"suffdir":null,"city":"HOUSTON","state_code":"TX","zip5":"77005","latitude":"29.7258490000000000","longitude":"-95.446507000000000","publicwifi":"U","url":null,"broadband_type_id":6}
{"id":null,"anchorname":"POE ELEMENTARY","address":"5100 HAZARD ST HOUSTON, TX 77098-5330","bldgnbr":"5100","predir":null,"streetname":"HAZARD ST","streettype":null,"suffdir":null,"city":"HOUSTON","state_code":"TX","zip5":"77098","latitude":"29.7272090000000000","longitude":"-95.408001000000000","publicwifi":"U","url":null,"broadband_type_id":6}
{"id":null,"anchorname":"ROBERTS ELEMENTARY","address":"6000 GREENBRIAR ST HOUSTON, TX 77030-1145","bldgnbr":"6000","predir":null,"streetname":"GREENBRIAR ST","streettype":null,"suffdir":null,"city":"HOUSTON","state_code":"TX","zip5":"77030","latitude":"29.7126050000000000","longitude":"-95.412722000000000","publicwifi":"U","url":null,"broadband_type_id":6}
{"id":null,"anchorname":"NEW STAR EMS LLC","address":"4061 BELLAIRE BLVD STE A HOUSTON, TX 77025","bldgnbr":"4061","predir":null,"streetname":"BELLAIRE BLVD STE A","streettype":null,"suffdir":null,"city":"HOUSTON","state_code":"TX","zip5":"77025","latitude":"29.7057720000000000","longitude":"-95.442680000000000","publicwifi":"U","url":null,"broadband_type_id":6}
{"id":null,"anchorname":"PIN OAK MIDDLE","address":"4601 GLENMONT BELLAIRE, TX 77401-2328","bldgnbr":"4601","predir":null,"streetname":"GLENMONT","streettype":null,"suffdir":null,"city":"BELLAIRE","state_code":"TX","zip5":"77401","latitude":"29.7193850000000000","longitude":"-95.457698000000000","publicwifi":"U","url":null,"broadband_type_id":6}
{"id":null,"anchorname":"RIPLEY HOUSE MIDDLE CAMPUS","address":"4500 BISSONNET STE 200 BELLAIRE, TX 77401","bldgnbr":"4500","predir":null,"streetname":"BISSONNET, STE 200","streettype":null,"suffdir":null,"city":"BELLAIRE","state_code":"TX","zip5":"77401","latitude":"29.7161960000000000","longitude":"-95.452209000000000","publicwifi":"U","url":null,"broadband_type_id":6}
{"id":null,"anchorname":"GORDON ELEMENTARY","address":"6300 AVE B BELLAIRE, TX 77401-3716","bldgnbr":"6300","predir":null,"streetname":"AVE B","streettype":null,"suffdir":null,"city":"BELLAIRE","state_code":"TX","zip5":"77401","latitude":"29.7139040000000000","longitude":"-95.455597000000000","publicwifi":"U","url":null,"broadband_type_id":6}
{"id":null,"anchorname":"NEW NEIGHBOR CAMPUS","address":"4500 BISSONNET STE 200 BELLAIRE, TX 77401","bldgnbr":"4500","predir":null,"streetname":"BISSONNET, STE 200","streettype":null,"suffdir":null,"city":"BELLAIRE","state_code":"TX","zip5":"77401","latitude":"29.7161960000000000","longitude":"-95.452209000000000","publicwifi":"U","url":null,"broadband_type_id":6}
{"id":null,"anchorname":"THE JOY SCHOOL","address":"1 CHELSEA BLVD HOUSTON, TX 77006","bldgnbr":"1","predir":null,"streetname":"CHELSEA BLVD","streettype":null,"suffdir":null,"city":"HOUSTON","state_code":"TX","zip5":"77006","latitude":"29.7303480000000000","longitude":"-95.389089000000000","publicwifi":"U","url":null,"broadband_type_id":6}
{"id":null,"anchorname":"PRESBYTERIAN SCHOOL","address":"5300 MAIN ST HOUSTON, TX 77004","bldgnbr":"5300","predir":null,"streetname":"MAIN ST","streettype":null,"suffdir":null,"city":"HOUSTON","state_code":"TX","zip5":"77004","latitude":"29.7277520000000000","longitude":"-95.390077000000000","publicwifi":"U","url":null,"broadband_type_id":6}
{"id":null,"anchorname":"MONTESSORI COUNTRY DAY SCHOOL","address":"30 OAKDALE ST HOUSTON, TX 77006","bldgnbr":"30","predir":null,"streetname":"OAKDALE ST","streettype":null,"suffdir":null,"city":"HOUSTON","state_code":"TX","zip5":"77006","latitude":"29.7281710000000000","longitude":"-95.389242000000000","publicwifi":"U","url":null,"broadband_type_id":6}
{"id":null,"anchorname":"THE VILLAGE MONTESSORI SCHOOL","address":"2329 BISSONNET ST HOUSTON, TX 77005","bldgnbr":"2329","predir":null,"streetname":"BISSONNET ST","streettype":null,"suffdir":null,"city":"HOUSTON","state_code":"TX","zip5":"77005","latitude":"29.7252760000000000","longitude":"-95.414135000000000","publicwifi":"U","url":null,"broadband_type_id":6}
{"id":null,"anchorname":"RICE UNIVERSITY","address":"MS 119 HOUSTON, TX 77005","bldgnbr":"N/A","predir":null,"streetname":"MS 119","streettype":null,"suffdir":null,"city":"HOUSTON","state_code":"TX","zip5":"77005","latitude":"29.7190490000000000","longitude":"-95.397796000000000","publicwifi":"U","url":null,"broadband_type_id":6}
{"id":null,"anchorname":"RICE UNIVERSITY","address":"6100 S MAIN HOUSTON, TX 77005-1827","bldgnbr":"6100","predir":null,"streetname":"S MAIN","streettype":null,"suffdir":null,"city":"HOUSTON","state_code":"TX","zip5":"77005","latitude":"29.7190490000000000","longitude":"-95.397796000000000","publicwifi":"U","url":null,"broadband_type_id":6}
{"id":null,"anchorname":"MEDICAL CENTER CHARTER ELEMENTARY","address":"1920 N BRAESWOOD HOUSTON, TX 77030-3711","bldgnbr":"1920","predir":null,"streetname":"N BRAESWOOD","streettype":null,"suffdir":null,"city":"HOUSTON","state_code":"TX","zip5":"77030","latitude":"29.7016500000000000","longitude":"-95.407615000000000","publicwifi":"U","url":null,"broadband_type_id":3}
{"id":null,"anchorname":"MEDICAL CENTER CHARTER SCHOOL/SOUTHWEST","address":"1920 N BAESWOOD HOUSTON, TX 77030","bldgnbr":"1920","predir":null,"streetname":"N BAESWOOD","streettype":null,"suffdir":null,"city":"HOUSTON","state_code":"TX","zip5":"77030","latitude":"29.7016600000000000","longitude":"-95.407567000000000","publicwifi":"U","url":null,"broadband_type_id":3}
{"id":null,"anchorname":"ST NICHOLAS SCHOOL II","address":"1920 N BRAESWOOD BLVD HOUSTON, TX 77030","bldgnbr":"1920","predir":null,"streetname":"N BRAESWOOD BLVD","streettype":null,"suffdir":null,"city":"HOUSTON","state_code":"TX","zip5":"77030","latitude":"29.7016500000000000","longitude":"-95.407615000000000","publicwifi":"U","url":null,"broadband_type_id":6}
{"id":null,"anchorname":"THE UNIVERSITY OF TEXAS HEALTH SCIENCE CENTER AT HOUSTON","address":"7000 FANNIN HOUSTON, TX 77030","bldgnbr":"7000","predir":null,"streetname":"FANNIN","streettype":null,"suffdir":null,"city":"HOUSTON","state_code":"TX","zip5":"77030","latitude":"29.7030530000000000","longitude":"-95.403298000000000","publicwifi":"U","url":null,"broadband_type_id":3}
{"id":null,"anchorname":"TEXAS ORTHOPEDIC HOSPITAL","address":"7401 SOUTH MAIN STREET HOUSTON, TX 77030-4509","bldgnbr":"7401","predir":null,"streetname":"SOUTH MAIN STREET","streettype":null,"suffdir":null,"city":"HOUSTON","state_code":"TX","zip5":"77030","latitude":"29.7003930000000000","longitude":"-95.409546000000000","publicwifi":"U","url":null,"broadband_type_id":3}
{"id":null,"anchorname":"TEXAS MEDICAL CENTER POLICE DEPARTMENT","address":"2151 W. HOLCOMBE BLVD. HOUSTON, TX 77030","bldgnbr":"2151","predir":null,"streetname":"W. HOLCOMBE BLVD.","streettype":null,"suffdir":null,"city":"HOUSTON","state_code":"TX","zip5":"77030","latitude":"29.7061530000000000","longitude":"-95.408256000000000","publicwifi":"U","url":null,"broadband_type_id":4}
{"id":null,"anchorname":"BERESFORD SCHOOL","address":"2501 W HOLCOMBE BLVD HOUSTON, TX 77030","bldgnbr":"2501","predir":null,"streetname":"W HOLCOMBE BLVD","streettype":null,"suffdir":null,"city":"HOUSTON","state_code":"TX","zip5":"77030","latitude":"29.7056790000000000","longitude":"-95.416743000000000","publicwifi":"U","url":null,"broadband_type_id":6}
{"id":null,"anchorname":"WEST UNIVERSITY BRANCH LIBRARY","address":"6108 AUDEN STREET HOUSTON, TX 77005-2894","bldgnbr":"6108","predir":null,"streetname":"AUDEN STREET","streettype":null,"suffdir":null,"city":"HOUSTON","state_code":"TX","zip5":"77005","latitude":"29.7167780000000000","longitude":"-95.437384000000000","publicwifi":"U","url":null,"broadband_type_id":6}
{"id":null,"anchorname":"WEST UNIVERSITY ELEMENTARY","address":"3756 UNIVERSITY BLVD HOUSTON, TX 77005-2828","bldgnbr":"3756","predir":null,"streetname":"UNIVERSITY BLVD","streettype":null,"suffdir":null,"city":"HOUSTON","state_code":"TX","zip5":"77005","latitude":"29.7149010000000000","longitude":"-95.435797000000000","publicwifi":"U","url":null,"broadband_type_id":6}
{"id":null,"anchorname":"WEST UNIVERSITY PLACE FD","address":"3800 UNIVERSITY BLVD HOUSTON, TX 77005","bldgnbr":"3800","predir":null,"streetname":"UNIVERSITY BLVD","streettype":null,"suffdir":null,"city":"HOUSTON","state_code":"TX","zip5":"77005","latitude":"29.7148520000000000","longitude":"-95.437377000000000","publicwifi":"U","url":null,"broadband_type_id":6}
{"id":null,"anchorname":"WEST UNIVERSITY PLACE FIRE DEPARTMENT","address":"3800 UNIVERSITY BLVD HOUSTON, TX 77005-2802","bldgnbr":"3800","predir":null,"streetname":"UNIVERSITY BLVD","streettype":null,"suffdir":null,"city":"HOUSTON","state_code":"TX","zip5":"77005","latitude":"29.7148160000000000","longitude":"-95.438102000000000","publicwifi":"U","url":null,"broadband_type_id":6}
{"id":null,"anchorname":"WEST UNIVERSITY PLACE POLICE DEPARTMENT","address":"3814 UNIVERSITY BLVD. HOUSTON, TX 77005","bldgnbr":"3814","predir":null,"streetname":"UNIVERSITY BLVD.","streettype":null,"suffdir":null,"city":"HOUSTON","state_code":"TX","zip5":"77005","latitude":"29.7149510000000000","longitude":"-95.438093000000000","publicwifi":"U","url":null,"broadband_type_id":4}
{"id":null,"anchorname":"SOUTHSIDE PLACE POLICE DEPARTMENT","address":"6309 EDDLOE AVE. HOUSTON, TX 77005","bldgnbr":"6309","predir":null,"streetname":"EDDLOE AVE.","streettype":null,"suffdir":null,"city":"HOUSTON","state_code":"TX","zip5":"77005","latitude":"29.7143400000000000","longitude":"-95.433488000000000","publicwifi":"U","url":null,"broadband_type_id":4}
{"id":null,"anchorname":"CHALLENGE EARLY COLLEGE HIGH SCHOOL","address":"5601 W LOOP S HOUSTON, TX 77081","bldgnbr":"5601","predir":null,"streetname":"W LOOP S","streettype":null,"suffdir":null,"city":"HOUSTON","state_code":"TX","zip5":"77081","latitude":"29.7193480000000000","longitude":"-95.456982000000000","publicwifi":"U","url":null,"broadband_type_id":6}
{"id":null,"anchorname":"EPISCOPAL HIGH SCHOOL","address":"4650 BISSONNET STREET BELLAIRE, TX 77401","bldgnbr":"4650","predir":null,"streetname":"BISSONNET STREET","streettype":null,"suffdir":null,"city":"BELLAIRE","state_code":"TX","zip5":"77401","latitude":"29.7138250000000000","longitude":"-95.456952000000000","publicwifi":"U","url":null,"broadband_type_id":6}
{"id":null,"anchorname":"THE POST OAK SCHOOL","address":"4600 BISSONNET ST BELLAIRE, TX 77401","bldgnbr":"4600","predir":null,"streetname":"BISSONNET ST","streettype":null,"suffdir":null,"city":"BELLAIRE","state_code":"TX","zip5":"77401","latitude":"29.7143670000000000","longitude":"-95.456349000000000","publicwifi":"U","url":null,"broadband_type_id":6}
{"id":null,"anchorname":"FAITH LUTHERAN DAY SCHOOL","address":"4600 BELLAIRE BLVD BELLAIRE, TX 77401","bldgnbr":"4600","predir":null,"streetname":"BELLAIRE BLVD","streettype":null,"suffdir":null,"city":"BELLAIRE","state_code":"TX","zip5":"77401","latitude":"29.7059680000000000","longitude":"-95.455506000000000","publicwifi":"U","url":null,"broadband_type_id":6}
{"id":null,"anchorname":"Town of Lisbon","address":"6963 County Route 10","bldgnbr":"6963","predir":null,"streetname":"County Route 10","streettype":null,"suffdir":null,"city":"Lisbon","state_code":"NY","zip5":"13658","latitude":"44.7290175590000000","longitude":"-75.320450917000000","publicwifi":"U","url":null,"broadband_type_id":6}
{"id":null,"anchorname":"LONGFELLOW ELEMENTARY","address":"3617 NORRIS HOUSTON, TX 77025-3699","bldgnbr":"3617","predir":null,"streetname":"NORRIS","streettype":null,"suffdir":null,"city":"HOUSTON","state_code":"TX","zip5":"77025","latitude":"29.6876890000000000","longitude":"-95.431956000000000","publicwifi":"U","url":null,"broadband_type_id":6}
{"id":null,"anchorname":"ST CATHERINES MONTESSORI","address":"9821 TIMBERSIDE DR HOUSTON, TX 77025","bldgnbr":"9821","predir":null,"streetname":"TIMBERSIDE DR","streettype":null,"suffdir":null,"city":"HOUSTON","state_code":"TX","zip5":"77025","latitude":"29.6767820000000000","longitude":"-95.432305000000000","publicwifi":"U","url":null,"broadband_type_id":6}
{"id":null,"anchorname":"RICE SCH (6-8)","address":"7550 SEUSS DR HOUSTON, TX 77025-1501","bldgnbr":"7550","predir":null,"streetname":"SEUSS DR","streettype":null,"suffdir":null,"city":"HOUSTON","state_code":"TX","zip5":"77025","latitude":"29.6979630000000000","longitude":"-95.420574000000000","publicwifi":"U","url":null,"broadband_type_id":null}
{"id":null,"anchorname":"RICE SCH (K-5)","address":"7550 SEUSS DR HOUSTON, TX 77025-1501","bldgnbr":"7550","predir":null,"streetname":"SEUSS DR","streettype":null,"suffdir":null,"city":"HOUSTON","state_code":"TX","zip5":"77025","latitude":"29.6979630000000000","longitude":"-95.420574000000000","publicwifi":"U","url":null,"broadband_type_id":null}
{"id":null,"anchorname":"WF SOLUTIONS-ASTRODOME","address":"9315 STELLA LINK RD. HOUSTON, TX 77025","bldgnbr":"9315","predir":null,"streetname":"STELLA LINK RD.","streettype":null,"suffdir":null,"city":"HOUSTON","state_code":"TX","zip5":"77025","latitude":"29.6820380000000000","longitude":"-95.439833000000000","publicwifi":"U","url":null,"broadband_type_id":null}
{"id":null,"anchorname":"RED ELEMENTARY","address":"4520 TONAWANDA DR HOUSTON, TX 77035-3716","bldgnbr":"4520","predir":null,"streetname":"TONAWANDA DR","streettype":null,"suffdir":null,"city":"HOUSTON","state_code":"TX","zip5":"77035","latitude":"29.6665410000000000","longitude":"-95.455027000000000","publicwifi":"U","url":null,"broadband_type_id":6}
{"id":null,"anchorname":"KOLTER ELEMENTARY","address":"9710 RUNNYMEADE DR HOUSTON, TX 77096-4220","bldgnbr":"9710","predir":null,"streetname":"RUNNYMEADE DR","streettype":null,"suffdir":null,"city":"HOUSTON","state_code":"TX","zip5":"77096","latitude":"29.6748990000000000","longitude":"-95.467761000000000","publicwifi":"U","url":null,"broadband_type_id":6}
{"id":null,"anchorname":"JOHNSTON MIDDLE","address":"10410 MANHATTAN DR HOUSTON, TX 77096-5202","bldgnbr":"10410","predir":null,"streetname":"MANHATTAN DR","streettype":null,"suffdir":null,"city":"HOUSTON","state_code":"TX","zip5":"77096","latitude":"29.6696410000000000","longitude":"-95.473102000000000","publicwifi":"U","url":null,"broadband_type_id":6}
{"id":null,"anchorname":"LOVETT ELEMENTARY","address":"8814 S RICE AVE HOUSTON, TX 77096-2622","bldgnbr":"8814","predir":null,"streetname":"S RICE AVE","streettype":null,"suffdir":null,"city":"HOUSTON","state_code":"TX","zip5":"77096","latitude":"29.6832930000000000","longitude":"-95.468220000000000","publicwifi":"U","url":null,"broadband_type_id":6}
{"id":null,"anchorname":"VERITAS CHRISTAN ACADEMY OF HOUSTON","address":"7000 FERRIS ST BELLAIRE, TX 77401","bldgnbr":"7000","predir":null,"streetname":"FERRIS ST","streettype":null,"suffdir":null,"city":"BELLAIRE","state_code":"TX","zip5":"77401","latitude":"29.7026470000000000","longitude":"-95.472489000000000","publicwifi":"U","url":null,"broadband_type_id":6}
{"id":null,"anchorname":"CONDIT ELEMENTARY","address":"7000 S THIRD BELLAIRE, TX 77401-4496","bldgnbr":"7000","predir":null,"streetname":"S THIRD","streettype":null,"suffdir":null,"city":"BELLAIRE","state_code":"TX","zip5":"77401","latitude":"29.7032150000000000","longitude":"-95.467303000000000","publicwifi":"U","url":null,"broadband_type_id":6}
{"id":null,"anchorname":"CROWDER EMS INC","address":"5401 CHIMNEY ROCK RD 280 HOUSTON, TX 77081","bldgnbr":"5401","predir":null,"streetname":"CHIMNEY ROCK RD 280","streettype":null,"suffdir":null,"city":"HOUSTON","state_code":"TX","zip5":"77081","latitude":"29.7233370000000000","longitude":"-95.473217000000000","publicwifi":"U","url":null,"broadband_type_id":6}
{"id":null,"anchorname":"CUNNINGHAM ELEMENTARY","address":"5100 GULFTON ST HOUSTON, TX 77081-2906","bldgnbr":"5100","predir":null,"streetname":"GULFTON ST","streettype":null,"suffdir":null,"city":"HOUSTON","state_code":"TX","zip5":"77081","latitude":"29.7166510000000000","longitude":"-95.469200000000000","publicwifi":"U","url":null,"broadband_type_id":6}
{"id":null,"anchorname":"RODRIGUEZ ELEMENTARY","address":"5858 CHIMNEY ROCK HOUSTON, TX 77081-2714","bldgnbr":"5858","predir":null,"streetname":"CHIMNEY ROCK","streettype":null,"suffdir":null,"city":"HOUSTON","state_code":"TX","zip5":"77081","latitude":"29.7184350000000000","longitude":"-95.477145000000000","publicwifi":"U","url":null,"broadband_type_id":6}
{"id":null,"anchorname":"TRAFTON ACADEMY","address":"4711 MCDERMED HOUSTON, TX 77035","bldgnbr":"4711","predir":null,"streetname":"MCDERMED","streettype":null,"suffdir":null,"city":"HOUSTON","state_code":"TX","zip5":"77035","latitude":"29.6680850000000000","longitude":"-95.456565000000000","publicwifi":"U","url":null,"broadband_type_id":6}
{"id":null,"anchorname":"ROBERT M BEREN ACADEMY","address":"11333 CLIFFWOOD DR HOUSTON, TX 77035","bldgnbr":"11333","predir":null,"streetname":"CLIFFWOOD DR","streettype":null,"suffdir":null,"city":"HOUSTON","state_code":"TX","zip5":"77035","latitude":"29.6538420000000000","longitude":"-95.452500000000000","publicwifi":"U","url":null,"broadband_type_id":6}
{"id":null,"anchorname":"GRACE AMBULANCE TRANSPORT LLC","address":"6750 WEST LOOP S 950 BELLAIRE, TX 77401","bldgnbr":"6750","predir":null,"streetname":"WEST LOOP S 950","streettype":null,"suffdir":null,"city":"BELLAIRE","state_code":"TX","zip5":"77401","latitude":"29.7062910000000000","longitude":"-95.460457000000000","publicwifi":"U","url":null,"broadband_type_id":null}
{"id":null,"anchorname":"MCGOVERN-STELLA LINK BRANCH LIBRARY","address":"7405 STELLA LINK HOUSTON, TX 77025","bldgnbr":"7405","predir":null,"streetname":"STELLA LINK","streettype":null,"suffdir":null,"city":"HOUSTON","state_code":"TX","zip5":"77025","latitude":"29.6980240000000000","longitude":"-95.439270000000000","publicwifi":"U","url":null,"broadband_type_id":6}
{"id":null,"anchorname":"ST VINCENT DE PAUL SCHOOL","address":"6802 BUFFALO SPEEDWAY HOUSTON, TX 77025","bldgnbr":"6802","predir":null,"streetname":"BUFFALO SPEEDWAY","streettype":null,"suffdir":null,"city":"HOUSTON","state_code":"TX","zip5":"77025","latitude":"29.7059760000000000","longitude":"-95.427521000000000","publicwifi":"U","url":null,"broadband_type_id":6}
{"id":null,"anchorname":"EMERY/WEINER SCHOOL","address":"9825 STELLA LINK HOUSTON, TX 77025","bldgnbr":"9825","predir":null,"streetname":"STELLA LINK RD","streettype":null,"suffdir":null,"city":"HOUSTON","state_code":"TX","zip5":"77025","latitude":"29.6752190000000000","longitude":"-95.438300000000000","publicwifi":"U","url":null,"broadband_type_id":6}
{"id":null,"anchorname":"CORPUS CHRISTI CATHOLIC SCHOOL","address":"4005 CHEENA DR HOUSTON, TX 77025","bldgnbr":"4005","predir":null,"streetname":"CHEENA DR","streettype":null,"suffdir":null,"city":"HOUSTON","state_code":"TX","zip5":"77025","latitude":"29.6752250000000000","longitude":"-95.440236000000000","publicwifi":"U","url":null,"broadband_type_id":6}
{"id":null,"anchorname":"MRS WAGNER'S SCHOOL","address":"4703 MCDERMED HOUSTON, TX 77035","bldgnbr":"4703","predir":null,"streetname":"MCDERMED","streettype":null,"suffdir":null,"city":"HOUSTON","state_code":"TX","zip5":"77035","latitude":"29.6679890000000000","longitude":"-95.457212000000000","publicwifi":"U","url":null,"broadband_type_id":6}
{"id":null,"anchorname":"WESTBURY HOSPITAL","address":"5556 GASMER ROAD HOUSTON, TX 77035-4598","bldgnbr":"5556","predir":null,"streetname":"GASMER ROAD","streettype":null,"suffdir":null,"city":"HOUSTON","state_code":"TX","zip5":"77035","latitude":"29.6510810000000000","longitude":"-95.478213000000000","publicwifi":"U","url":null,"broadband_type_id":3}
{"id":null,"anchorname":"VARNETT CHARTER SCHOOL","address":"5025 SOUTH WILLOW DRIVE HOUSTON, TX 77035","bldgnbr":"5025","predir":null,"streetname":"SOUTH WILLOW DRIVE","streettype":null,"suffdir":null,"city":"HOUSTON","state_code":"TX","zip5":"77035","latitude":"29.6562250000000000","longitude":"-95.466668000000000","publicwifi":"U","url":null,"broadband_type_id":6}
{"id":null,"anchorname":"WESTBURY HIGH SCHOOL","address":"11911 CHIMNEY ROCK HOUSTON, TX 77035-4503","bldgnbr":"11911","predir":null,"streetname":"CHIMNEY ROCK","streettype":null,"suffdir":null,"city":"HOUSTON","state_code":"TX","zip5":"77035","latitude":"29.6492290000000000","longitude":"-95.480766000000000","publicwifi":"U","url":null,"broadband_type_id":6}
{"id":null,"anchorname":"MEYER BRANCH LIBRARY","address":"5005 WEST BELLFORT STREET HOUSTON, TX 77035-3203","bldgnbr":"5005","predir":null,"streetname":"WEST BELLFORT STREET","streettype":null,"suffdir":null,"city":"HOUSTON","state_code":"TX","zip5":"77035","latitude":"29.6680730000000000","longitude":"-95.466080000000000","publicwifi":"U","url":null,"broadband_type_id":6}
{"id":null,"anchorname":"MEYERPARK ELEMENTARY","address":"10910 SOUTH POST OAK ROAD HOUSTON, TX 77235-5616","bldgnbr":"10910","predir":null,"streetname":"SOUTH POST OAK ROAD","streettype":null,"suffdir":null,"city":"HOUSTON","state_code":"TX","zip5":"77235","latitude":"29.6610380000000000","longitude":"-95.464733000000000","publicwifi":"U","url":null,"broadband_type_id":2}
{"id":null,"anchorname":"WESTBURY METHODIST DAY SCHOOL","address":"5200 WILLOWBEND BLVD HOUSTON, TX 77096","bldgnbr":"5200","predir":null,"streetname":"WILLOWBEND BLVD","streettype":null,"suffdir":null,"city":"HOUSTON","state_code":"TX","zip5":"77096","latitude":"29.6658790000000000","longitude":"-95.469242000000000","publicwifi":"U","url":null,"broadband_type_id":6}
{"id":null,"anchorname":"ST THOMAS EPISCOPAL SCHOOL","address":"4900 JACKWOOD ST HOUSTON, TX 77096","bldgnbr":"4900","predir":null,"streetname":"JACKWOOD ST","streettype":null,"suffdir":null,"city":"HOUSTON","state_code":"TX","zip5":"77096","latitude":"29.6845000000000000","longitude":"-95.465351000000000","publicwifi":"U","url":null,"broadband_type_id":6}
{"id":null,"anchorname":"PILGRIM LUTHERAN SCHOOL","address":"8601 CHIMNEY ROCK RD HOUSTON, TX 77096","bldgnbr":"8601","predir":null,"streetname":"CHIMNEY ROCK RD","streettype":null,"suffdir":null,"city":"HOUSTON","state_code":"TX","zip5":"77096","latitude":"29.6877470000000000","longitude":"-95.475783000000000","publicwifi":"U","url":null,"broadband_type_id":6}
{"id":null,"anchorname":"BELLAIRE POLICE DEPARTMENT","address":"5110 JESSAMINE ST BELLAIRE, TX 77401","bldgnbr":"5110","predir":null,"streetname":"JESSAMINE ST","streettype":null,"suffdir":null,"city":"BELLAIRE","state_code":"TX","zip5":"77401","latitude":"29.7020380000000000","longitude":"-95.469407000000000","publicwifi":"U","url":null,"broadband_type_id":4}
{"id":null,"anchorname":"BELLAIRE CITY LIBRARY","address":"5111 JESSAMINE ST BELLAIRE, TX 77401","bldgnbr":"5111","predir":null,"streetname":"JESSAMINE ST","streettype":null,"suffdir":null,"city":"BELLAIRE","state_code":"TX","zip5":"77401","latitude":"29.7017490000000000","longitude":"-95.469560000000000","publicwifi":"U","url":null,"broadband_type_id":6}
{"id":null,"anchorname":"BELLAIRE FIRE DEPARTMENT","address":"5101 JESSAMINE ST BELLAIRE, TX 77401-4446","bldgnbr":"5101","predir":null,"streetname":"JESSAMINE ST","streettype":null,"suffdir":null,"city":"BELLAIRE","state_code":"TX","zip5":"77401","latitude":"29.7020010000000000","longitude":"-95.468206000000000","publicwifi":"U","url":null,"broadband_type_id":5}
{"id":null,"anchorname":"BELLAIRE HIGH SCHOOL","address":"5100 MAPLE BELLAIRE, TX 77401-4936","bldgnbr":"5100","predir":null,"streetname":"MAPLE","streettype":null,"suffdir":null,"city":"BELLAIRE","state_code":"TX","zip5":"77401","latitude":"29.6912180000000000","longitude":"-95.467938000000000","publicwifi":"U","url":null,"broadband_type_id":6}
{"id":null,"anchorname":"FOUNDATION SURGICAL HOSPITAL","address":"5410 WEST LOOP SOUTH BELLAIRE, TX 77401","bldgnbr":"5410","predir":null,"streetname":"WEST LOOP SOUTH","streettype":null,"suffdir":null,"city":"BELLAIRE","state_code":"TX","zip5":"77401","latitude":"29.7239270000000000","longitude":"-95.460745000000000","publicwifi":"U","url":null,"broadband_type_id":3}
{"id":null,"anchorname":"FIRST STREET HOSPITAL","address":"4801 BISSONNET BELLAIRE, TX 77401-4028","bldgnbr":"4801","predir":null,"streetname":"BISSONNET","streettype":null,"suffdir":null,"city":"BELLAIRE","state_code":"TX","zip5":"77401","latitude":"29.7099600000000000","longitude":"-95.462482000000000","publicwifi":"U","url":null,"broadband_type_id":3}
{"id":null,"anchorname":"SOUTH AMBOY ELEMENTARY","address":"249 John St South Amboy, NJ 08879-1796 United States","bldgnbr":"249","predir":null,"streetname":"John St South Amboy","streettype":null,"suffdir":null,"city":"South Amboy","state_code":"NJ","zip5":"08879","latitude":"40.4812950000000000","longitude":"-74.280550000000000","publicwifi":"U","url":null,"broadband_type_id":6}
{"id":null,"anchorname":"FMC MADISON DIALYSIS OF MATAWAN","address":"625 State Highway 34,Matawan NJ 07747","bldgnbr":"625","predir":null,"streetname":"State Highway 34","streettype":null,"suffdir":null,"city":"Matawan","state_code":"NJ","zip5":"07747","latitude":"40.4174330000000000","longitude":"-74.251778000000000","publicwifi":"U","url":null,"broadband_type_id":6}
{"id":null,"anchorname":"SER-NINOS CHARTER MIDDLE","address":"5815 ALDER DR HOUSTON, TX 77081","bldgnbr":"5815","predir":null,"streetname":"ALDER DR","streettype":null,"suffdir":null,"city":"HOUSTON","state_code":"TX","zip5":"77081","latitude":"29.7189220000000000","longitude":"-95.480617000000000","publicwifi":"U","url":null,"broadband_type_id":6}
{"id":null,"anchorname":"BENAVIDEZ ELEMENTARY","address":"6262 GULFTON ST HOUSTON, TX 77081-2306","bldgnbr":"6262","predir":null,"streetname":"GULFTON ST","streettype":null,"suffdir":null,"city":"HOUSTON","state_code":"TX","zip5":"77081","latitude":"29.7173080000000000","longitude":"-95.492151000000000","publicwifi":"U","url":null,"broadband_type_id":6}
{"id":null,"anchorname":"ATLANTIC EMS LLC","address":"6300 HILLCROFT 470 HOUSTON, TX 77081","bldgnbr":"6300","predir":null,"streetname":"HILLCROFT 470","streettype":null,"suffdir":null,"city":"HOUSTON","state_code":"TX","zip5":"77081","latitude":"29.7131510000000000","longitude":"-95.495742000000000","publicwifi":"U","url":null,"broadband_type_id":6}
{"id":null,"anchorname":"PROVIDIAN EMS INC","address":"6820 LARKWOOD DR HOUSTON, TX 77074","bldgnbr":"6820","predir":null,"streetname":"LARKWOOD DR","streettype":null,"suffdir":null,"city":"HOUSTON","state_code":"TX","zip5":"77074","latitude":"29.7045170000000000","longitude":"-95.509222000000000","publicwifi":"U","url":null,"broadband_type_id":6}
{"id":null,"anchorname":"BURNETT-BAYLAND HOME","address":"6500 CHIMNEY ROCK HOUSTON, TX 77081","bldgnbr":"6500","predir":null,"streetname":"CHIMNEY ROCK","streettype":null,"suffdir":null,"city":"HOUSTON","state_code":"TX","zip5":"77081","latitude":"29.7115160000000000","longitude":"-95.477699000000000","publicwifi":"U","url":null,"broadband_type_id":null}
{"id":null,"anchorname":"BURNETT-BAYLAND RECEPTION CENTER","address":"6500 A CHIMNEY ROCK HOUSTON, TX 77081","bldgnbr":"6500","predir":null,"streetname":"A CHIMNEY ROCK","streettype":null,"suffdir":null,"city":"HOUSTON","state_code":"TX","zip5":"77081","latitude":"29.7100950000000000","longitude":"-95.476435000000000","publicwifi":"U","url":null,"broadband_type_id":null}
{"id":null,"anchorname":"SOUTHWEST WIC CENTER","address":"6400 HIGHSTAR HOUSTON, TX 77074","bldgnbr":"6400","predir":null,"streetname":"HIGHSTAR","streettype":null,"suffdir":null,"city":"HOUSTON","state_code":"TX","zip5":"77074","latitude":"29.7107990000000000","longitude":"-95.493432000000000","publicwifi":"U","url":null,"broadband_type_id":6}
{"id":null,"anchorname":"YES PREP - GULFTON","address":"6565 DE MOSS HOUSTON, TX 77074","bldgnbr":"6565","predir":null,"streetname":"DE MOSS","streettype":null,"suffdir":null,"city":"HOUSTON","state_code":"TX","zip5":"77074","latitude":"29.7067400000000000","longitude":"-95.498199000000000","publicwifi":"U","url":null,"broadband_type_id":6}
{"id":null,"anchorname":"YES PREP - WEST","address":"10535 HARWIN HOUSTON, TX 77036","bldgnbr":"10535","predir":null,"streetname":"HARWIN","streettype":null,"suffdir":null,"city":"HOUSTON","state_code":"TX","zip5":"77036","latitude":"29.7067320000000000","longitude":"-95.498167000000000","publicwifi":"U","url":null,"broadband_type_id":6}
{"id":null,"anchorname":"MAGNOLIA EMS LLC DBA","address":"5112 ASHBROOK DR HOUSTON, TX 77081","bldgnbr":"5112","predir":null,"streetname":"ASHBROOK DR","streettype":null,"suffdir":null,"city":"HOUSTON","state_code":"TX","zip5":"77081","latitude":"29.7147910000000000","longitude":"-95.468446000000000","publicwifi":"U","url":null,"broadband_type_id":6}
{"id":null,"anchorname":"ENERGIZED FOR EXCELLENCE EARLY CHILDHOOD ACAD","address":"6201 BISSONNET HOUSTON, TX 77081","bldgnbr":"6201","predir":null,"streetname":"BISSONNET","streettype":null,"suffdir":null,"city":"HOUSTON","state_code":"TX","zip5":"77081","latitude":"29.6955980000000000","longitude":"-95.490685000000000","publicwifi":"U","url":null,"broadband_type_id":null}
{"id":null,"anchorname":"ACADEMY OF ACCELERATED LEARNING","address":"6025 CHIMNEY ROCK HOUSTON, TX 77081","bldgnbr":"6025","predir":null,"streetname":"CHIMNEY ROCK","streettype":null,"suffdir":null,"city":"HOUSTON","state_code":"TX","zip5":"77081","latitude":"29.7153650000000000","longitude":"-95.475864000000000","publicwifi":"U","url":null,"broadband_type_id":6}
{"id":null,"anchorname":"MISTRAL CENTER FOR EARLY CHILDHOOD","address":"6203 JESSAMINE HOUSTON, TX 77081","bldgnbr":"6203","predir":null,"streetname":"JESSAMINE","streettype":null,"suffdir":null,"city":"HOUSTON","state_code":"TX","zip5":"77081","latitude":"29.7013390000000000","longitude":"-95.491701000000000","publicwifi":"U","url":null,"broadband_type_id":6}
{"id":null,"anchorname":"GABRIELA MISTRAL CENTER FOR EARLY CHILDHOOD","address":"6203 JESSAMINE HOUSTON, TX 77081-6304","bldgnbr":"6203","predir":null,"streetname":"JESSAMINE","streettype":null,"suffdir":null,"city":"HOUSTON","state_code":"TX","zip5":"77081","latitude":"29.7013630000000000","longitude":"-95.491809000000000","publicwifi":"U","url":null,"broadband_type_id":6}
{"id":null,"anchorname":"BRAEBURN ELEMENTARY","address":"7707 RAMPART ST HOUSTON, TX 77081-7105","bldgnbr":"7707","predir":null,"streetname":"RAMPART ST","streettype":null,"suffdir":null,"city":"HOUSTON","state_code":"TX","zip5":"77081","latitude":"29.6955530000000000","longitude":"-95.487816000000000","publicwifi":"U","url":null,"broadband_type_id":6}
{"id":null,"anchorname":"ENERGIZED FOR SCIENCE TECHNOLOGY ENGINEERING MIDDL","address":"6201 BISSONNET HOUSTON, TX 77081-6809","bldgnbr":"6201","predir":null,"streetname":"BISSONNET","streettype":null,"suffdir":null,"city":"HOUSTON","state_code":"TX","zip5":"77081","latitude":"29.6955980000000000","longitude":"-95.490685000000000","publicwifi":"U","url":null,"broadband_type_id":1}
{"id":null,"anchorname":"OLUWASEYI ABIODUN ONIYITAN","address":"5326 W BELLFORT ST 232 A/B HOUSTON, TX 77035","bldgnbr":"5326","predir":null,"streetname":"W BELLFORT ST 232 A/B","streettype":null,"suffdir":null,"city":"HOUSTON","state_code":"TX","zip5":"77035","latitude":"29.6588300000000000","longitude":"-95.478400000000000","publicwifi":"U","url":null,"broadband_type_id":null}
{"id":null,"anchorname":"UNIVERSITY WIC CLINIC","address":"6015 HILLCROFT SUITE 2000 HOUSTON, TX 77074","bldgnbr":"6015","predir":null,"streetname":"HILLCROFT SUITE 2000","streettype":null,"suffdir":null,"city":"HOUSTON","state_code":"TX","zip5":"77074","latitude":"29.7162290000000000","longitude":"-95.497400000000000","publicwifi":"U","url":null,"broadband_type_id":3}
{"id":null,"anchorname":"BRAZOS SCHOOL FOR INQUIRY AND CREATIVITY SOUTHWEST","address":"6210 ROOKIN BUILDING A HOUSTON, TX 77074","bldgnbr":"6210","predir":null,"streetname":"ROOKIN BUILDING A","streettype":null,"suffdir":null,"city":"HOUSTON","state_code":"TX","zip5":"77074","latitude":"29.7125780000000000","longitude":"-95.497698000000000","publicwifi":"U","url":null,"broadband_type_id":6}
{"id":null,"anchorname":"WEST OAKS HOSPITAL","address":"6500 HORNWOOD DRIVE HOUSTON, TX 77074-5095","bldgnbr":"6500","predir":null,"streetname":"HORNWOOD DRIVE","streettype":null,"suffdir":null,"city":"HOUSTON","state_code":"TX","zip5":"77074","latitude":"29.7095550000000000","longitude":"-95.497403000000000","publicwifi":"U","url":null,"broadband_type_id":3}
{"id":null,"anchorname":"BAKER-RIPLEY CHARTER SCHOOL","address":"6500 ROOKIN STREET HOUSTON, TX 77074","bldgnbr":"6500","predir":null,"streetname":"ROOKIN STREET","streettype":null,"suffdir":null,"city":"HOUSTON","state_code":"TX","zip5":"77074","latitude":"29.7106760000000000","longitude":"-95.497503000000000","publicwifi":"U","url":null,"broadband_type_id":6}
{"id":null,"anchorname":"BELLAIRE MEDICAL CENTER","address":"5314 DASHWOOD STREET HOUSTON, TX 77081-4689","bldgnbr":"5314","predir":null,"streetname":"DASHWOOD STREET","streettype":null,"suffdir":null,"city":"HOUSTON","state_code":"TX","zip5":"77081","latitude":"29.7083680000000000","longitude":"-95.473391000000000","publicwifi":"U","url":null,"broadband_type_id":3}
{"id":null,"anchorname":"CORNERSTONE HOSPITAL OF HOUSTON - BELLAIRE","address":"5314 DASHWOOD STREET HOUSTON, TX 77081","bldgnbr":"5314","predir":null,"streetname":"DASHWOOD STREET","streettype":null,"suffdir":null,"city":"HOUSTON","state_code":"TX","zip5":"77081","latitude":"29.7083680000000000","longitude":"-95.473391000000000","publicwifi":"U","url":null,"broadband_type_id":3}
{"id":null,"anchorname":"HOLY GHOST CATHOLIC SCHOOL","address":"6920 CHIMNEY ROCK RD HOUSTON, TX 77081","bldgnbr":"6920","predir":null,"streetname":"CHIMNEY ROCK RD","streettype":null,"suffdir":null,"city":"HOUSTON","state_code":"TX","zip5":"77081","latitude":"29.7045240000000000","longitude":"-95.476354000000000","publicwifi":"U","url":null,"broadband_type_id":6}
{"id":null,"anchorname":"ENERGIZED FOR EXCELLENCE MIDDLE SCHOOL","address":"6201 BISSONNET HOUSTON, TX 77081-6809","bldgnbr":"6201","predir":null,"streetname":"BISSONNET","streettype":null,"suffdir":null,"city":"HOUSTON","state_code":"TX","zip5":"77081","latitude":"29.6955980000000000","longitude":"-95.490685000000000","publicwifi":"U","url":null,"broadband_type_id":6}
{"id":null,"anchorname":"ENERGIZED FOR SCIENCE TECHNOLOGY ENGINEERING HIGH SCHOOL","address":"6201 BISSONNET HOUSTON, TX 77081-6809","bldgnbr":"6201","predir":null,"streetname":"BISSONNET","streettype":null,"suffdir":null,"city":"HOUSTON","state_code":"TX","zip5":"77081","latitude":"29.6955980000000000","longitude":"-95.490685000000000","publicwifi":"U","url":null,"broadband_type_id":6}
{"id":null,"anchorname":"THE SHLENKER SCHOOL","address":"5600 N BRAESWOOD BLVD HOUSTON, TX 77096","bldgnbr":"5600","predir":null,"streetname":"N BRAESWOOD BLVD","streettype":null,"suffdir":null,"city":"HOUSTON","state_code":"TX","zip5":"77096","latitude":"29.6774050000000000","longitude":"-95.488194000000000","publicwifi":"U","url":null,"broadband_type_id":6}
{"id":null,"anchorname":"ST NICHOLAS SCHOOL","address":"10420 MULLINS DR HOUSTON, TX 77096","bldgnbr":"10420","predir":null,"streetname":"MULLINS DR","streettype":null,"suffdir":null,"city":"HOUSTON","state_code":"TX","zip5":"77096","latitude":"29.6678090000000000","longitude":"-95.487187000000000","publicwifi":"U","url":null,"broadband_type_id":6}
{"id":null,"anchorname":"PARKER ELEMENTARY","address":"10626 ATWELL DR HOUSTON, TX 77096-4925","bldgnbr":"10626","predir":null,"streetname":"ATWELL DR","streettype":null,"suffdir":null,"city":"HOUSTON","state_code":"TX","zip5":"77096","latitude":"29.6655970000000000","longitude":"-95.483113000000000","publicwifi":"U","url":null,"broadband_type_id":2}
{"id":null,"anchorname":"SMART EMERGENCY SERVICES INC","address":"9706 KIT ST HOUSTON, TX 77096","bldgnbr":"9706","predir":null,"streetname":"KIT ST","streettype":null,"suffdir":null,"city":"HOUSTON","state_code":"TX","zip5":"77096","latitude":"29.6751130000000000","longitude":"-95.479198000000000","publicwifi":"U","url":null,"broadband_type_id":6}
{"id":null,"anchorname":"ANDERSON ELEMENTARY","address":"5727 LUDINGTON DR HOUSTON, TX 77035-4399","bldgnbr":"5727","predir":null,"streetname":"LUDINGTON DR","streettype":null,"suffdir":null,"city":"HOUSTON","state_code":"TX","zip5":"77035","latitude":"29.6491930000000000","longitude":"-95.488023000000000","publicwifi":"U","url":null,"broadband_type_id":6}
{"id":null,"anchorname":"ENERGIZED FOR EXCELLENCE ACADEMY","address":"6201 BISSONNET HOUSTON, TX 77081-6809","bldgnbr":"6201","predir":null,"streetname":"BISSONNET","streettype":null,"suffdir":null,"city":"HOUSTON","state_code":"TX","zip5":"77081","latitude":"29.6955980000000000","longitude":"-95.490685000000000","publicwifi":"U","url":null,"broadband_type_id":6}
{"id":null,"anchorname":"HARMONY SCIENCE ACADEMY","address":"5435 S BRAESWOOD HOUSTON, TX 77096","bldgnbr":"5435","predir":null,"streetname":"S BRAESWOOD","streettype":null,"suffdir":null,"city":"HOUSTON","state_code":"TX","zip5":"77096","latitude":"29.6757860000000000","longitude":"-95.479147000000000","publicwifi":"U","url":null,"broadband_type_id":6}
{"id":null,"anchorname":"HARMONY SCIENCE ACADEMY - HOUSTON","address":"5435 S BRAESWOOD HOUSTON, TX 77096","bldgnbr":"5435","predir":null,"streetname":"S BRAESWOOD","streettype":null,"suffdir":null,"city":"HOUSTON","state_code":"TX","zip5":"77096","latitude":"29.6759900000000000","longitude":"-95.478976000000000","publicwifi":"U","url":null,"broadband_type_id":6}
{"id":null,"anchorname":"CHAMPION AMBULANCE INC","address":"12521 FONDREN W HOUSTON, TX 77035","bldgnbr":"12521","predir":null,"streetname":"FONDREN W","streettype":null,"suffdir":null,"city":"HOUSTON","state_code":"TX","zip5":"77035","latitude":"29.6403550000000000","longitude":"-95.506270000000000","publicwifi":"U","url":null,"broadband_type_id":null}
{"id":null,"anchorname":"PAUL OGHOSA OSEMWOTA DBA","address":"6314 DRYAD DR HOUSTON, TX 77035","bldgnbr":"6314","predir":null,"streetname":"DRYAD DR","streettype":null,"suffdir":null,"city":"HOUSTON","state_code":"TX","zip5":"77035","latitude":"29.6470610000000000","longitude":"-95.501195000000000","publicwifi":"U","url":null,"broadband_type_id":null}
{"id":null,"anchorname":"HALPIN EARLY CHILDHOOD CTR","address":"10901 SANDPIPER HOUSTON, TX 77096-5717","bldgnbr":"10901","predir":null,"streetname":"SANDPIPER","streettype":null,"suffdir":null,"city":"HOUSTON","state_code":"TX","zip5":"77096","latitude":"29.6618100000000000","longitude":"-95.502673000000000","publicwifi":"U","url":null,"broadband_type_id":null}
{"id":null,"anchorname":"Village of Richville","address":"87 Main Street","bldgnbr":"87","predir":null,"streetname":"Main","streettype":"Street","suffdir":null,"city":"Richville","state_code":"NY","zip5":"13681","latitude":"44.4137535590000000","longitude":"-75.395526918000000","publicwifi":"U","url":null,"broadband_type_id":1}
{"id":null,"anchorname":"BETHEL'S LEARNING CENTER","address":"14442 FONMEADOW HOUSTON, TX 77035","bldgnbr":"14442","predir":null,"streetname":"FONMEADOW","streettype":null,"suffdir":null,"city":"HOUSTON","state_code":"TX","zip5":"77035","latitude":"29.6386550000000000","longitude":"-95.503083000000000","publicwifi":"U","url":null,"broadband_type_id":6}
{"id":null,"anchorname":"KING N QUEEN CHRISTIAN ACADEMY","address":"6570 W BELLFORT ST HOUSTON, TX 77035","bldgnbr":"6570","predir":null,"streetname":"W BELLFORT ST","streettype":null,"suffdir":null,"city":"HOUSTON","state_code":"TX","zip5":"77035","latitude":"29.6568010000000000","longitude":"-95.506495000000000","publicwifi":"U","url":null,"broadband_type_id":6}
{"id":null,"anchorname":"SKYMED LLC","address":"9660 HILLCROFT 516 HOUSTON, TX 77096","bldgnbr":"9660","predir":null,"streetname":"HILLCROFT 516","streettype":null,"suffdir":null,"city":"HOUSTON","state_code":"TX","zip5":"77096","latitude":"29.6754200000000000","longitude":"-95.493915000000000","publicwifi":"U","url":null,"broadband_type_id":null}
