{"id":null,"anchorname":"EMERGENCY SHELTER: BOWLING GREEN VOLUNTEER FIRE DEPARTMENT","address":"12420 MCMULLEN HWY SW CUMBERLAND 21502","bldgnbr":"12420","predir":null,"streetname":"MCMULLEN","streettype":"HWY","suffdir":"SW","city":"CUMBERLAND","state_code":"MD","zip5":"21502","latitude":"39.6253469060000000","longitude":"-78.805737934000000","publicwifi":"U","url":null,"broadband_type_id":5}
{"id":null,"anchorname":"ALLEGANY COUNTY HEALTH DEPARTMENT JAIL SUBSTANCE ABUSE","address":"14300 MCMULLEN HWY SW CUMBERLAND MD 21502","bldgnbr":"14300","predir":null,"streetname":"MCMULLEN","streettype":"HWY","suffdir":"SW","city":"CUMBERLAND","state_code":"MD","zip5":"21502","latitude":"39.6001120000000000","longitude":"-78.824371000000000","publicwifi":"U","url":"HTTP://WWW.ALLEGANYHEALTHDEPT.COM/","broadband_type_id":3}
{"id":null,"anchorname":"NORTH BRANCH CORRECTIONAL INSTITUTION LIBRARY","address":"14100 MCMULLEN HWY SW CUMBERLAND MD 21502","bldgnbr":"14100","predir":null,"streetname":"MCMULLEN","streettype":"HWY","suffdir":null,"city":"CUMBERLAND","state_code":"MD","zip5":"21502","latitude":"39.6017284800000000","longitude":"-78.823235472000000","publicwifi":"U","url":"HTTP://WWW.DLLR.MARYLAND.GOV/CE/LIB/CELIBNBCI.SHTML","broadband_type_id":6}
{"id":null,"anchorname":"CASH VALLEY ELEMENTARY SCHOOL","address":"10601 CASH VALLEY RD NW LAVALE MD 21502","bldgnbr":"10601","predir":null,"streetname":"CASH VALLEY","streettype":"RD","suffdir":"NW","city":"LAVALE","state_code":"MD","zip5":"21502","latitude":"39.6679860000000000","longitude":"-78.812154000000000","publicwifi":"U","url":"HTTP://BOE.ALLCONET.ORG/SCHOOL_DETAILS.PHP?SCHOOLID=4","broadband_type_id":6}
{"id":null,"anchorname":"EMERGENCY SHELTER: CASH VALLEY ELEMENTARY SCHOOL","address":"10601 CASH VALLEY RD NW LAVALE MD 21502","bldgnbr":"10601","predir":null,"streetname":"CASH VALLEY","streettype":"RD","suffdir":"NW","city":"LAVALE","state_code":"MD","zip5":"21502","latitude":"39.6677775590000000","longitude":"-78.812247951000000","publicwifi":"U","url":null,"broadband_type_id":6}
{"id":null,"anchorname":"LAVALE BRANCH","address":"815 NATIONAL HWY LAVALE MD 21502","bldgnbr":"815","predir":null,"streetname":"NATIONAL","streettype":"HWY","suffdir":null,"city":"LAVALE","state_code":"MD","zip5":"21502","latitude":"39.6485250000000000","longitude":"-78.818325000000000","publicwifi":"Y","url":"HTTP://WWW.ALLEGANYCOUNTYLIBRARY.INFO/","broadband_type_id":null}
{"id":null,"anchorname":"N/A","address":"97 NATIONAL HWY LAVALE 21502","bldgnbr":"97","predir":null,"streetname":"NATIONAL","streettype":"HWY","suffdir":null,"city":"LAVALE","state_code":"MD","zip5":"21502","latitude":"39.6444290000000000","longitude":"-78.822988000000000","publicwifi":"U","url":"HTTP://GOV.ALLCONET.ORG/DES/FIRE_AMBULANCE_COMPANIES.HTM","broadband_type_id":null}
{"id":null,"anchorname":"PEARL RIDGE ELEMENTARY","address":"98-940 MOANALUA ROAD","bldgnbr":"98-940","predir":null,"streetname":"MOANALUA","streettype":"RD","suffdir":null,"city":"AIEA","state_code":"HI","zip5":"96701","latitude":"21.3885879030000000","longitude":"-157.94498469000000","publicwifi":"Y","url":"www.k12.hi.us/~pearlrid","broadband_type_id":6}
{"id":null,"anchorname":"HOLOMUA ELEMENTARY","address":"91-1561 KEAUNUI DRIVE","bldgnbr":"91-1561","predir":null,"streetname":"KEAUNUI","streettype":"DR","suffdir":null,"city":"EWA BEACH","state_code":"HI","zip5":"96706","latitude":"21.3390834650000000","longitude":"-158.02041674600000","publicwifi":"Y","url":"www.holomua.k12.hi.us","broadband_type_id":6}
{"id":null,"anchorname":"HONOWAI ELEMENTARY","address":"94-600 HONOWAI STREET","bldgnbr":"94-600","predir":null,"streetname":"HONOWAI","streettype":"ST","suffdir":null,"city":"WAIPAHU","state_code":"HI","zip5":"96797","latitude":"21.3837326350000000","longitude":"-158.02621442900000","publicwifi":"Y","url":"www.honowai.k12.hi.us","broadband_type_id":6}
{"id":null,"anchorname":"WAIANAE DIALYSIS","address":"860080 FARRINGTON HWY","bldgnbr":"860080","predir":null,"streetname":"FARRINGTON","streettype":"HWY","suffdir":null,"city":"WAIANAE","state_code":"HI","zip5":"96792","latitude":"21.4378459010000000","longitude":"-158.18440256100000","publicwifi":"Y","url":"www.libertydialysis.com","broadband_type_id":6}
{"id":null,"anchorname":"UNITED CEREBRAL PALSY MARYLAND, CUMBERLAND","address":"12101 WINCHESTER RD CUMBERLAND MD 21502","bldgnbr":"12101","predir":null,"streetname":"WINCHESTER","streettype":"RD","suffdir":null,"city":"CUMBERLAND","state_code":"MD","zip5":"21502","latitude":"39.6297300000000000","longitude":"-78.837819000000000","publicwifi":"U","url":null,"broadband_type_id":null}
{"id":null,"anchorname":"MVA CUMBERLAND","address":"13300 SW WINCHESTER RD CUMBERLAND MD 21502","bldgnbr":"13300","predir":"SW","streetname":"WINCHESTER","streettype":"RD","suffdir":null,"city":"CUMBERLAND","state_code":"MD","zip5":"21502","latitude":"39.6133420000000000","longitude":"-78.839448000000000","publicwifi":"U","url":"HTTP://WWW.MVA.MARYLAND.GOV/","broadband_type_id":null}
{"id":null,"anchorname":"CUMBERLAND REGIONAL MRI CENTER","address":"13513 MRI RD SW CUMBERLAND MD 21502","bldgnbr":"13513","predir":null,"streetname":"MRI","streettype":"RD","suffdir":"SW","city":"CUMBERLAND","state_code":"MD","zip5":"21502","latitude":"39.6095251740000000","longitude":"-78.836947873000000","publicwifi":"U","url":null,"broadband_type_id":null}
{"id":null,"anchorname":"SHA MARLBORO SHOP","address":"1221 BRADDOCK RD LAVALE MD 21502","bldgnbr":"1221","predir":null,"streetname":"BRADDOCK","streettype":"RD","suffdir":null,"city":"LAVALE","state_code":"MD","zip5":"21502","latitude":"39.6346420000000000","longitude":"-78.832254000000000","publicwifi":"U","url":"HTTP://WWW.ROADS.MARYLAND.GOV/HOME.ASPX","broadband_type_id":null}
{"id":null,"anchorname":"HEEIA ELEMENTARY","address":"46-202 HAIKU ROAD","bldgnbr":"46-202","predir":null,"streetname":"HAIKU","streettype":"RD","suffdir":null,"city":"KANEOHE","state_code":"HI","zip5":"96744","latitude":"21.4182517810000000","longitude":"-157.80858567600000","publicwifi":"U","url":"www.k12.hi.us/~heeia","broadband_type_id":6}
{"id":null,"anchorname":"EMERGENCY SHELTER: STATE TROOPER MOUNTAIN LODGE 40#1","address":"592 MCKENZIE RD LA VALE MD 21504","bldgnbr":"592","predir":null,"streetname":"MCKENZIE","streettype":"RD","suffdir":null,"city":"LA VALE","state_code":"MD","zip5":"21504","latitude":"39.6401698670000000","longitude":"-78.830200637000000","publicwifi":"U","url":null,"broadband_type_id":2}
{"id":null,"anchorname":"ELLERSLIE VOL. AMBULANCE SERVICE","address":"2400 FIREFIGHTERS LANE ELLERSLIE MD 21529","bldgnbr":"2400","predir":null,"streetname":"FIREFIGHTERS","streettype":"LN","suffdir":null,"city":"ELLERSLIE","state_code":"MD","zip5":"21529","latitude":"39.7181990700000000","longitude":"-78.776233220000000","publicwifi":"U","url":null,"broadband_type_id":null}
{"id":null,"anchorname":"DMSP BARRACK C - CUMBERLAND","address":"1125 NATIONAL HWY CUMBERLAND MD 21502","bldgnbr":"1125","predir":null,"streetname":"NATIONAL","streettype":"HWY","suffdir":null,"city":"CUMBERLAND","state_code":"MD","zip5":"21502","latitude":"39.6392210000000000","longitude":"-78.830000000000000","publicwifi":"U","url":null,"broadband_type_id":6}
{"id":null,"anchorname":"EMERGENCY SHELTER: STATE TROOPER MOUNTAIN LODGE 40#2","address":"540 MCKENZIE RD LA VALE MD 21504","bldgnbr":"540","predir":null,"streetname":"MCKENZIE","streettype":"RD","suffdir":null,"city":"LA VALE","state_code":"MD","zip5":"21504","latitude":"39.6392203500000000","longitude":"-78.831179614000000","publicwifi":"U","url":null,"broadband_type_id":2}
{"id":null,"anchorname":"EVANS ASSISTED LIVING","address":"631 BRADDOCK AVE LAVALE MD 21502","bldgnbr":"631","predir":null,"streetname":"BRADDOCK","streettype":"AVE","suffdir":null,"city":"LAVALE","state_code":"MD","zip5":"21502","latitude":"39.6524250180000000","longitude":"-78.813003261000000","publicwifi":"U","url":null,"broadband_type_id":6}
{"id":null,"anchorname":"JAMES R. MOEN, M.D.","address":"1068 NATIONAL HWY LAVALE MD 21502","bldgnbr":"1068","predir":null,"streetname":"NATIONAL","streettype":"HWY","suffdir":null,"city":"LAVALE","state_code":"MD","zip5":"21502","latitude":"39.6399535810000000","longitude":"-78.827311515000000","publicwifi":"Y","url":null,"broadband_type_id":6}
{"id":null,"anchorname":"ASSOCIATION FOR FAMILY AND COMMUNITY EDUCATION, ALLEGANY","address":"19219 NATIONAL HWY NW FROSTBURG MD 21532","bldgnbr":"19219","predir":null,"streetname":"NATIONAL","streettype":"HWY","suffdir":"NW","city":"FROSTBURG","state_code":"MD","zip5":"21532","latitude":"39.6722350000000000","longitude":"-78.939587000000000","publicwifi":"U","url":null,"broadband_type_id":6}
{"id":null,"anchorname":"FROSTBURG SENIOR CENTER","address":"3 WATER ST FROSTBURG MD 21532","bldgnbr":"3","predir":null,"streetname":"WATER","streettype":"ST","suffdir":null,"city":"FROSTBURG","state_code":"MD","zip5":"21532","latitude":"39.6583430000000000","longitude":"-78.928112000000000","publicwifi":"U","url":null,"broadband_type_id":null}
{"id":null,"anchorname":"EMERGENCY SHELTER: JOHN HUMBIRD ELEMENTARY SCHOOL","address":"120 E MARY ST CUMBERLAND MD 21502","bldgnbr":"120","predir":"E","streetname":"MARY","streettype":"ST","suffdir":null,"city":"CUMBERLAND","state_code":"MD","zip5":"21502","latitude":"39.6476057730000000","longitude":"-78.813796101000000","publicwifi":"U","url":null,"broadband_type_id":6}
{"id":null,"anchorname":"EMERGENCY SHELTER: ELLERSLIE VOLUNTEER FIRE DEPARTMENT","address":"14200 ELLERSLIE RD ELLERSLIE MD 21529","bldgnbr":"14200","predir":null,"streetname":"ELLERSLIE","streettype":"RD","suffdir":null,"city":"ELLERSLIE","state_code":"MD","zip5":"21529","latitude":"39.7186697650000000","longitude":"-78.776355807000000","publicwifi":"U","url":null,"broadband_type_id":5}
{"id":null,"anchorname":"CORRIGANVILLE VOLUNTEER FIRE COMPANY CO. 5","address":"12510 CORRIGAN DR NW CORRIGANVILLE 21502","bldgnbr":"12510","predir":null,"streetname":"CORRIGAN","streettype":"DR","suffdir":"NW","city":"CORRIGANVILLE","state_code":"MD","zip5":"21502","latitude":"39.6941250000000000","longitude":"-78.788679000000000","publicwifi":"U","url":null,"broadband_type_id":5}
{"id":null,"anchorname":"ELLERSLIE VOLUNTEER FIRE COMPANY CO. 6","address":"14200 ELLERSLIE RD ELLERSLIE MD 21529","bldgnbr":"14200","predir":null,"streetname":"ELLERSLIE","streettype":"RD","suffdir":null,"city":"ELLERSLIE","state_code":"MD","zip5":"21529","latitude":"39.7170110000000000","longitude":"-78.776884000000000","publicwifi":"U","url":"HTTP://WWW.EVFC.ORG/","broadband_type_id":5}
{"id":null,"anchorname":"EMERGENCY SHELTER: CORRIGANVILLE VOLUNTEER FIRE DEPARTMENT","address":"12510 CORRIGAN DR NW CORRIGANVILLE 21502","bldgnbr":"12510","predir":null,"streetname":"CORRIGAN","streettype":"DR","suffdir":"NW","city":"CORRIGANVILLE","state_code":"MD","zip5":"21502","latitude":"39.6936771160000000","longitude":"-78.789334375000000","publicwifi":"U","url":null,"broadband_type_id":5}
{"id":null,"anchorname":"EMERGENCY SHELTER: MOUNT SAVAGE SCHOOL","address":"13201 NEW SCHOOL RD NW MOUNT SAVAGE MD 21545","bldgnbr":"13201","predir":null,"streetname":"NEW SCHOOL","streettype":"RD","suffdir":"NW","city":"MOUNT SAVAGE","state_code":"MD","zip5":"21545","latitude":"39.7004105800000000","longitude":"-78.879310704000000","publicwifi":"U","url":null,"broadband_type_id":6}
{"id":null,"anchorname":"MT. SAVAGE MIDDLE SCHOOL","address":"13201 NEW SCHOOL RD NW MOUNT SAVAGE MD 21545","bldgnbr":"13201","predir":null,"streetname":"NEW SCHOOL","streettype":"RD","suffdir":"NW","city":"MOUNT SAVAGE","state_code":"MD","zip5":"21545","latitude":"39.7003810000000000","longitude":"-78.880090000000000","publicwifi":"U","url":"HTTP://BOE.ALLCONET.ORG/MS/","broadband_type_id":6}
{"id":null,"anchorname":"MT SAVAGE VOLUNTEER FIRE COMPANY CO. 15","address":"15701 IRON RAIL ST NW MOUNT SAVAGE 21545","bldgnbr":"15701","predir":null,"streetname":"IRON RAIL","streettype":"ST","suffdir":null,"city":"MOUNT SAVAGE","state_code":"MD","zip5":"21545","latitude":"39.6948290000000000","longitude":"-78.877481000000000","publicwifi":"U","url":null,"broadband_type_id":5}
{"id":null,"anchorname":"FROST ELEMENTARY SCHOOL","address":"260 SHAW ST FROSTBURG MD 21532","bldgnbr":"260","predir":null,"streetname":"SHAW","streettype":"ST","suffdir":null,"city":"FROSTBURG","state_code":"MD","zip5":"21532","latitude":"39.6697250000000000","longitude":"-78.930302000000000","publicwifi":"U","url":"HTTP://BOE.ALLCONET.ORG/FS/","broadband_type_id":6}
{"id":null,"anchorname":"EMERGENCY SHELTER: FROST ELEMENTARY SCHOOL","address":"260 SHAW ST FROSTBURG MD 21532","bldgnbr":"260","predir":null,"streetname":"SHAW","streettype":"ST","suffdir":null,"city":"FROSTBURG","state_code":"MD","zip5":"21532","latitude":"39.6696738450000000","longitude":"-78.930339840000000","publicwifi":"U","url":null,"broadband_type_id":6}
{"id":null,"anchorname":"WEST MD HEALTH SYST FROSTBURG NRSG AND REHAB CTR","address":"48 TARN TERRACE FROSTBURG MD 21532","bldgnbr":"48","predir":null,"streetname":"TARN","streettype":"TER","suffdir":null,"city":"FROSTBURG","state_code":"MD","zip5":"21532","latitude":"39.6604867930000000","longitude":"-78.927905733000000","publicwifi":"U","url":null,"broadband_type_id":3}
{"id":null,"anchorname":"ECKHART ALTERNATIVE SCHOOL","address":"17000 NATIONAL HWY SW FROSTBURG MD 21532","bldgnbr":"17000","predir":null,"streetname":"NATIONAL","streettype":"HWY","suffdir":null,"city":"FROSTBURG","state_code":"MD","zip5":"21532","latitude":"39.6536580000000000","longitude":"-78.901832000000000","publicwifi":"U","url":"HTTP://BOE.ALLCONET.ORG/SCHOOL_DETAILS.PHP?SCHOOLID=22","broadband_type_id":6}
{"id":null,"anchorname":"CLARYSVILLE VOLUNTEER FIRE COMPANY CO. 14","address":"16304 CLARYSVILLE RD SW FROSTBURG 21532","bldgnbr":"16304","predir":null,"streetname":"CLARYSVILLE","streettype":"RD","suffdir":null,"city":"FROSTBURG","state_code":"MD","zip5":"21532","latitude":"39.6420420000000000","longitude":"-78.886103000000000","publicwifi":"U","url":null,"broadband_type_id":5}
{"id":null,"anchorname":"EMERGENCY SHELTER: CLARYSVILLE VOLUNTEER FIRE DEPARTMENT","address":"16304 CLARYSVILLE RD NW CLARYSVILLE MD 21532","bldgnbr":"16304","predir":null,"streetname":"CLARYSVILLE","streettype":"RD","suffdir":"NW","city":"CLARYSVILLE","state_code":"MD","zip5":"21532","latitude":"39.6423230410000000","longitude":"-78.886051503000000","publicwifi":"U","url":null,"broadband_type_id":5}
{"id":null,"anchorname":"KEONEULA ELEMENTARY","address":"91-970 KAILEOLEA DRIVE","bldgnbr":"91-970","predir":null,"streetname":"KAILEOLEA","streettype":"DR","suffdir":null,"city":"EWA BEACH","state_code":"HI","zip5":"96706","latitude":"21.3071140130000000","longitude":"-158.02183816400000","publicwifi":"U","url":"keoneula.k12.hi.us","broadband_type_id":6}
{"id":null,"anchorname":"MILILANI UKA ELEMENTARY","address":"94-380 KUAHELANI AVENUE","bldgnbr":"94-380","predir":null,"streetname":"KUAHELANI","streettype":"AVE","suffdir":null,"city":"MILILANI","state_code":"HI","zip5":"96789","latitude":"21.4372686310000000","longitude":"-158.01475639000000","publicwifi":"Y","url":"www.mililaniuka.com","broadband_type_id":6}
{"id":null,"anchorname":"FROSTBURG VILLAGE","address":"1 KAYLOR CIR FROSTBURG MD 21532","bldgnbr":"1","predir":null,"streetname":"KAYLOR","streettype":"CIR","suffdir":null,"city":"FROSTBURG","state_code":"MD","zip5":"21532","latitude":"39.6449613000000000","longitude":"-78.907880930000000","publicwifi":"U","url":null,"broadband_type_id":1}
{"id":null,"anchorname":"FROSTBURG COMMUNITY CENTER/ CITY PLACE","address":"27 S WATER ST FROSTBURG MD 21532","bldgnbr":"27","predir":"S","streetname":"WATER","streettype":"ST","suffdir":null,"city":"FROSTBURG","state_code":"MD","zip5":"21532","latitude":"39.6571600000000000","longitude":"-78.929853000000000","publicwifi":"U","url":null,"broadband_type_id":1}
{"id":null,"anchorname":"N/A","address":"86 W MAIN ST FROSTBURG 21532","bldgnbr":"86","predir":"W","streetname":"MAIN","streettype":"ST","suffdir":null,"city":"FROSTBURG","state_code":"MD","zip5":"21532","latitude":"39.6573600000000000","longitude":"-78.929370000000000","publicwifi":"U","url":null,"broadband_type_id":null}
{"id":null,"anchorname":"EMERGENCY SHELTER: FROSTBURG SENIOR CITIZENS CENTER","address":"27 S WATER ST FROSTBURG MD 21532","bldgnbr":"27","predir":"S","streetname":"WATER","streettype":"ST","suffdir":null,"city":"FROSTBURG","state_code":"MD","zip5":"21532","latitude":"39.6571733510000000","longitude":"-78.929832759000000","publicwifi":"U","url":null,"broadband_type_id":null}
{"id":null,"anchorname":"FROSTBURG SENIOR CENTER","address":"27 S WATER ST FROSTBURG MD 21532","bldgnbr":"27","predir":"S","streetname":"WATER","streettype":"ST","suffdir":null,"city":"FROSTBURG","state_code":"MD","zip5":"21532","latitude":"39.6571730000000000","longitude":"-78.929834000000000","publicwifi":"U","url":null,"broadband_type_id":null}
{"id":null,"anchorname":"JESUS H. TAN, MD","address":"4 BROADWAY FROSTBURG MD 21532","bldgnbr":"4","predir":null,"streetname":"BROADWAY","streettype":null,"suffdir":null,"city":"FROSTBURG","state_code":"MD","zip5":"21532","latitude":"39.6570602670000000","longitude":"-78.928459280000000","publicwifi":"Y","url":null,"broadband_type_id":6}
{"id":null,"anchorname":"APPALACHAIN SERVICE THROUGH ACTION AND RESOURCES, WESTERN MARYLAND","address":"101 BRADDOCK HTS FROSTBURG MD 21532","bldgnbr":"101","predir":null,"streetname":"BRADDOCK","streettype":"HTS","suffdir":null,"city":"FROSTBURG","state_code":"MD","zip5":"21532","latitude":"39.6440510000000000","longitude":"-78.931165000000000","publicwifi":"U","url":null,"broadband_type_id":6}
{"id":null,"anchorname":"MDE AIR \u0026 RADIATION MANAGEMENT MAIN FIELD OFFICE","address":"160 S WATER ST FROSTBURG MD 21532","bldgnbr":"160","predir":"S","streetname":"WATER","streettype":"ST","suffdir":null,"city":"FROSTBURG","state_code":"MD","zip5":"21532","latitude":"39.6555310000000000","longitude":"-78.937162000000000","publicwifi":"U","url":"HTTP://WWW.MDE.STATE.MD.US/PAGES/HOME.ASPX","broadband_type_id":null}
{"id":null,"anchorname":"CITY OF FROSTBURG","address":"59 E MAIN ST FROSTBURG MD 21532","bldgnbr":"59","predir":"E","streetname":"MAIN","streettype":"ST","suffdir":null,"city":"FROSTBURG","state_code":"MD","zip5":"21532","latitude":"39.6565570000000000","longitude":"-78.927157000000000","publicwifi":"U","url":"HTTP://WWW.FROSTBURGCITY.COM/?Q=CITYHALL","broadband_type_id":1}
{"id":null,"anchorname":"STATE HWY ADMINISTRATION FROSTBURG","address":"12101 SW NEW GEORGES CREEK RD FROSTBURG MD 21532","bldgnbr":"12101","predir":"SW","streetname":"NEW GEORGES CREEK","streettype":"RD","suffdir":null,"city":"FROSTBURG","state_code":"MD","zip5":"21532","latitude":"39.6180240000000000","longitude":"-78.915871000000000","publicwifi":"U","url":"HTTP://WWW.ROADS.MARYLAND.GOV/HOME.ASPX","broadband_type_id":6}
{"id":null,"anchorname":"ALLEGANY COUNTY ROADS DIVISION","address":"12701 OLD LEGISLATIVE RD FROSTBURG MD 21532","bldgnbr":"12701","predir":null,"streetname":"OLD LEGISLATIVE","streettype":"RD","suffdir":null,"city":"FROSTBURG","state_code":"MD","zip5":"21532","latitude":"39.6201180000000000","longitude":"-78.951844000000000","publicwifi":"U","url":"HTTP://GOV.ALLCONET.ORG/PWORKS/CO_ROADS.HTM","broadband_type_id":6}
{"id":null,"anchorname":"FROSTBURG BRANCH","address":"65 E MAIN ST FROSTBURG MD 21532","bldgnbr":"65","predir":"E","streetname":"MAIN","streettype":"ST","suffdir":null,"city":"FROSTBURG","state_code":"MD","zip5":"21532","latitude":"39.6564500000000000","longitude":"-78.926806000000000","publicwifi":"Y","url":"HTTP://WWW.ALLEGANYCOUNTYLIBRARY.INFO/","broadband_type_id":null}
{"id":null,"anchorname":"UPWARD BOUND","address":"101 BRADDOCK RD FROSTBURG MD 21532","bldgnbr":"101","predir":null,"streetname":"BRADDOCK","streettype":"RD","suffdir":null,"city":"FROSTBURG","state_code":"MD","zip5":"21532","latitude":"39.6483340000000000","longitude":"-78.932914000000000","publicwifi":"U","url":null,"broadband_type_id":null}
{"id":null,"anchorname":"EMERGENCY SHELTER: TRINITY ASSEMBLY OF GOD","address":"19906 OLD MIDLOTHIAN RD SW FROSTBURG MD 21532","bldgnbr":"19906","predir":null,"streetname":"OLD MIDLOTHIAN","streettype":"RD","suffdir":"SW","city":"FROSTBURG","state_code":"MD","zip5":"21532","latitude":"39.6342195940000000","longitude":"-78.951337014000000","publicwifi":"U","url":null,"broadband_type_id":null}
{"id":null,"anchorname":"EMERGENCY SHELTER: ST JOSEPH'S CHURCH","address":"19925 CHURCH ST SW MIDLAND MD 21532","bldgnbr":"19925","predir":null,"streetname":"CHURCH","streettype":"ST","suffdir":"SW","city":"MIDLAND","state_code":"MD","zip5":"21532","latitude":"39.5922732810000000","longitude":"-78.948748346000000","publicwifi":"U","url":null,"broadband_type_id":null}
{"id":null,"anchorname":"TOWN OF MIDLAND","address":"19823 BIG LN SW MIDLAND MD 21542","bldgnbr":"19823","predir":null,"streetname":"BIG","streettype":"LN","suffdir":null,"city":"MIDLAND","state_code":"MD","zip5":"21542","latitude":"39.5897060000000000","longitude":"-78.949924000000000","publicwifi":"U","url":null,"broadband_type_id":null}
{"id":null,"anchorname":"MOUNTAIN RIDGE HIGH SCHOOL","address":"100 DR NANCY S GRASMICK LANE FROSTBURG MD 21532","bldgnbr":"100","predir":null,"streetname":"DR. NANCY S. GRASMICK","streettype":"LN","suffdir":null,"city":"FROSTBURG","state_code":"MD","zip5":"21532","latitude":"39.6505940000000000","longitude":"-78.914170000000000","publicwifi":"U","url":"HTTP://WWW.MOUNTAINRIDGEHIGH.COM/","broadband_type_id":6}
{"id":null,"anchorname":"EMERGENCY SHELTER: FROSTBURG VOLUNTEER FIRE DEPARTMENT NO 1","address":"22 S WATER ST FROSTBURG MD 21532","bldgnbr":"22","predir":"S","streetname":"WATER","streettype":"ST","suffdir":null,"city":"FROSTBURG","state_code":"MD","zip5":"21532","latitude":"39.6572073200000000","longitude":"-78.929580582000000","publicwifi":"U","url":null,"broadband_type_id":5}
{"id":null,"anchorname":"FROSTBURG FIRE DEPARTMENT STATION 1","address":"22 S WATER ST FROSTBURG 21532","bldgnbr":"22","predir":"S","streetname":"WATER","streettype":"ST","suffdir":null,"city":"FROSTBURG","state_code":"MD","zip5":"21532","latitude":"39.6573600000000000","longitude":"-78.929370000000000","publicwifi":"U","url":"HTTP://FROSTBURGFD.COM/","broadband_type_id":5}
{"id":null,"anchorname":"FROSTBURG POLICE DEPARTMENT","address":"37 S BROADWAY ST FROSTBURG MD 21532","bldgnbr":"37","predir":"S","streetname":"BROADWAY","streettype":"ST","suffdir":null,"city":"FROSTBURG","state_code":"MD","zip5":"21532","latitude":"39.6564990000000000","longitude":"-78.929596000000000","publicwifi":"U","url":null,"broadband_type_id":4}
{"id":null,"anchorname":"FAMILY SUPPORT SERVICES, BEALL ELEMENTARY SCHOOL","address":"3 W COLLEGE AVE FROSTBURG MD 21532","bldgnbr":"3","predir":"W","streetname":"COLLEGE","streettype":"AVE","suffdir":null,"city":"FROSTBURG","state_code":"MD","zip5":"21532","latitude":"39.6549640000000000","longitude":"-78.931801000000000","publicwifi":"U","url":null,"broadband_type_id":6}
{"id":null,"anchorname":"CAMPUS POLICE: FROSTBURG STATE UNIVERSITY","address":"101 BRADDOCK RD FROSTBURG MD 21532","bldgnbr":"101","predir":null,"streetname":"BRADDOCK","streettype":"RD","suffdir":null,"city":"FROSTBURG","state_code":"MD","zip5":"21532","latitude":"39.6441810000000000","longitude":"-78.931114000000000","publicwifi":"N","url":null,"broadband_type_id":4}
{"id":null,"anchorname":"FROSTBURG STATE UNIVERSITY","address":"101 BRADDOCK RD FROSTBURG MD 21532","bldgnbr":"101","predir":null,"streetname":"BRADDOCK","streettype":"RD","suffdir":null,"city":"FROSTBURG","state_code":"MD","zip5":"21532","latitude":"39.6441810000000000","longitude":"-78.931114000000000","publicwifi":"N","url":"HTTP://WWW.FROSTBURG.EDU","broadband_type_id":6}
{"id":null,"anchorname":"FROSTBURG STATE UNIVERSITY LIBRARY","address":"101 BRADDOCK RD FROSTBURG MD 21532","bldgnbr":"101","predir":null,"streetname":"BRADDOCK","streettype":"RD","suffdir":null,"city":"FROSTBURG","state_code":"MD","zip5":"21532","latitude":"39.6441810000000000","longitude":"-78.931114000000000","publicwifi":"N","url":"HTTP://WWW.FROSTBURG.EDU/LEWIS-ORT-LIBRARY/","broadband_type_id":6}
{"id":null,"anchorname":"UNIVERSITY OF MARYLAND CES - APPALACHIAN LABORATORY","address":"301 BRADDOCK RD FROSTBURG MD 21532","bldgnbr":"301","predir":null,"streetname":"BRADDOCK","streettype":"RD","suffdir":null,"city":"FROSTBURG","state_code":"MD","zip5":"21532","latitude":"39.6401350000000000","longitude":"-78.943466000000000","publicwifi":"N","url":"HTTP://WWW.USMD.EDU","broadband_type_id":3}
{"id":null,"anchorname":"BEALL ELEMENTARY SCHOOL","address":"3 E COLLEGE AVE FROSTBURG MD 21532","bldgnbr":"3","predir":"E","streetname":"COLLEGE","streettype":"AVE","suffdir":null,"city":"FROSTBURG","state_code":"MD","zip5":"21532","latitude":"39.6547210000000000","longitude":"-78.931718000000000","publicwifi":"U","url":"HTTP://BOE.ALLCONET.ORG/SCHOOL_DETAILS.PHP?SCHOOLID=17","broadband_type_id":6}
{"id":null,"anchorname":"EMERGENCY SHELTER: BEALL ELEMENTARY SCHOOL","address":"3 E COLLEGE AVE FROSTBURG MD 21532","bldgnbr":"3","predir":"E","streetname":"COLLEGE","streettype":"AVE","suffdir":null,"city":"FROSTBURG","state_code":"MD","zip5":"21532","latitude":"39.6547284780000000","longitude":"-78.931720349000000","publicwifi":"U","url":null,"broadband_type_id":6}
{"id":null,"anchorname":"EMERGENCY SHELTER: SHAFT VOLUNTEER FIRE DEPARTMENT","address":"19303 SHAFT RD SW FROSTBURG 21532","bldgnbr":"19303","predir":null,"streetname":"SHAFT","streettype":"RD","suffdir":"SW","city":"FROSTBURG","state_code":"MD","zip5":"21532","latitude":"39.6270126810000000","longitude":"-78.940677013000000","publicwifi":"U","url":null,"broadband_type_id":5}
{"id":null,"anchorname":"SHAFT VOLUNTEER FIRE DEPARTMENT CO. 17","address":"19303 SHAFT RD SW FROSTBURG 21532","bldgnbr":"19303","predir":null,"streetname":"SHAFT","streettype":"RD","suffdir":"SW","city":"FROSTBURG","state_code":"MD","zip5":"21532","latitude":"39.6276540000000000","longitude":"-78.939908000000000","publicwifi":"U","url":"HTTP://WWW.SHAFTFIRE.COM/","broadband_type_id":5}
{"id":null,"anchorname":"EMERGENCY SHELTER: MIDLAND VOLUNTEER FIRE DEPARTMENT","address":"14809 RAILROAD ST MIDLAND 21542","bldgnbr":"14809","predir":null,"streetname":"RAILROAD","streettype":"ST","suffdir":null,"city":"MIDLAND","state_code":"MD","zip5":"21542","latitude":"39.5900426490000000","longitude":"-78.950329567000000","publicwifi":"U","url":null,"broadband_type_id":5}
{"id":null,"anchorname":"CRESAPTOWN ELEMENTARY SCHOOL","address":"13202 6TH AVE CRESAPTOWN MD 21502","bldgnbr":"13202","predir":null,"streetname":"6TH","streettype":"AVE","suffdir":null,"city":"CRESAPTOWN","state_code":"MD","zip5":"21502","latitude":"39.5900870000000000","longitude":"-78.831222000000000","publicwifi":"U","url":"HTTP://BOE.ALLCONET.ORG/SCHOOL_DETAILS.PHP?SCHOOLID=3","broadband_type_id":6}
{"id":null,"anchorname":"WAIALUA ELEMENTARY","address":"67-020 WAIALUA BEACH ROAD","bldgnbr":"67-020","predir":null,"streetname":"WAIALUA BEACH","streettype":"RD","suffdir":null,"city":"WAIALUA","state_code":"HI","zip5":"96791","latitude":"21.5754920780000000","longitude":"-158.12163561900000","publicwifi":"Y","url":"www.waialuael.k12.hi.us","broadband_type_id":6}
{"id":null,"anchorname":"KAILUA ELEMENTARY","address":"315 KUULEI ROAD","bldgnbr":"315","predir":null,"streetname":"KUULEI","streettype":"RD","suffdir":null,"city":"KAILUA","state_code":"HI","zip5":"96734","latitude":"21.3950744920000000","longitude":"-157.74136007500000","publicwifi":"Y","url":"www.kailuaonline.net","broadband_type_id":6}
{"id":null,"anchorname":"EMERGENCY SHELTER: ST AMBROSE CHURCH","address":"14923 WINCHESTER RD SW CRESAPTOWN MD 21502","bldgnbr":"14923","predir":null,"streetname":"WINCHESTER","streettype":"RD","suffdir":"SW","city":"CRESAPTOWN","state_code":"MD","zip5":"21502","latitude":"39.5898671250000000","longitude":"-78.832713517000000","publicwifi":"U","url":null,"broadband_type_id":null}
{"id":null,"anchorname":"HALE PAU HANA RESORT","address":"2480 S KIHEI RD","bldgnbr":"2480","predir":"S","streetname":"KIHEI","streettype":"RD","suffdir":null,"city":"KIHEI","state_code":"HI","zip5":"96753","latitude":"20.7180681180000000","longitude":"-156.44686619000000","publicwifi":"U","url":"www.hphresort.com","broadband_type_id":6}
{"id":null,"anchorname":"LIHIKAI ELEMENTARY","address":"335 S. PAPA AVENUE","bldgnbr":"335","predir":"S","streetname":"PAPA","streettype":"AVE","suffdir":null,"city":"KAHULUI","state_code":"HI","zip5":"96732","latitude":"20.8803541880000000","longitude":"-156.48447444800000","publicwifi":"Y","url":"ower2.k12.hi.us/index.cfm?parent=geninfo\u0026siteID=249","broadband_type_id":6}
{"id":null,"anchorname":"TOWN OF WESTERNPORT","address":"107 WASHINGTON ST WESTERNPORT MD 21652","bldgnbr":"107","predir":null,"streetname":"WASHINGTON","streettype":"ST","suffdir":null,"city":"WESTERNPORT","state_code":"MD","zip5":"21652","latitude":"39.4853630000000000","longitude":"-79.045210000000000","publicwifi":"U","url":null,"broadband_type_id":6}
{"id":null,"anchorname":"WESTERNPORT SENIOR CITIZEN CENTER","address":"33 MAIN ST WESTERNPORT MD 21562","bldgnbr":"33","predir":null,"streetname":"MAIN","streettype":"ST","suffdir":null,"city":"WESTERNPORT","state_code":"MD","zip5":"21562","latitude":"39.4845860000000000","longitude":"-79.045276000000000","publicwifi":"U","url":null,"broadband_type_id":6}
{"id":null,"anchorname":"WESTERNPORT TOWER","address":"22618 MOUNTAIN TOP RD WESTERNPORT MD 21562","bldgnbr":"22618","predir":null,"streetname":"MOUNTAIN TOP","streettype":"RD","suffdir":null,"city":"WESTERNPORT","state_code":"MD","zip5":"21562","latitude":"39.4814980000000000","longitude":"-79.061382000000000","publicwifi":"U","url":null,"broadband_type_id":6}
{"id":null,"anchorname":"GEORGE'S CREEK BRANCH (ALLEGANY)","address":"76 MAIN ST LONACONING MD 21539","bldgnbr":"76","predir":null,"streetname":"MAIN","streettype":"ST","suffdir":null,"city":"LONACONING","state_code":"MD","zip5":"21539","latitude":"39.5671130000000000","longitude":"-78.979581000000000","publicwifi":"Y","url":"HTTP://WWW.ALLEGANYCOUNTYLIBRARY.INFO/","broadband_type_id":null}
{"id":null,"anchorname":"GEORGE'S CREEK AMBULANCE SERVICE CO. 55","address":"19 UNION ST LONACONING MD 21539","bldgnbr":"19","predir":null,"streetname":"UNION","streettype":"ST","suffdir":null,"city":"LONACONING","state_code":"MD","zip5":"21539","latitude":"39.5653600000000000","longitude":"-78.979874000000000","publicwifi":"U","url":"HTTP://GOV.ALLCONET.ORG/DES/FIRE_AMBULANCE_COMPANIES.HTM","broadband_type_id":null}
{"id":null,"anchorname":"TOWN OF LONACONING","address":"7 JACKSON ST LONACONING MD 21539","bldgnbr":"7","predir":null,"streetname":"JACKSON","streettype":"ST","suffdir":null,"city":"LONACONING","state_code":"MD","zip5":"21539","latitude":"39.5650980000000000","longitude":"-78.979469000000000","publicwifi":"U","url":null,"broadband_type_id":null}
{"id":null,"anchorname":"EMERGENCY SHELTER: GEORGE'S CREEK SENIOR CITIZEN CENTER","address":"7 W HANEKAMP ST LONACONING MD 21539","bldgnbr":"7","predir":"W","streetname":"HANEKAMP","streettype":"ST","suffdir":null,"city":"LONACONING","state_code":"MD","zip5":"21539","latitude":"39.5626304550000000","longitude":"-78.981639107000000","publicwifi":"U","url":null,"broadband_type_id":null}
{"id":null,"anchorname":"GEORGE'S CREEK SENIOR CENTER","address":"7 W HANEKAMP ST LONACONING MD 21539","bldgnbr":"7","predir":"W","streetname":"HANEKAMP","streettype":"ST","suffdir":null,"city":"LONACONING","state_code":"MD","zip5":"21539","latitude":"39.5626300000000000","longitude":"-78.981640000000000","publicwifi":"U","url":null,"broadband_type_id":null}
{"id":null,"anchorname":"BARTON HOSE CO. 1 CO. 19","address":"19202 LEGISLATIVE RD SW BARTON MD 21521","bldgnbr":"19202","predir":null,"streetname":"LEGISLATIVE","streettype":"RD","suffdir":"SW","city":"BARTON","state_code":"MD","zip5":"21521","latitude":"39.5305860000000000","longitude":"-79.016213000000000","publicwifi":"U","url":"HTTP://BHC19.COM/","broadband_type_id":null}
{"id":null,"anchorname":"TOWN OF BARTON","address":"19018 LEGISLATIVE RD SW BARTON MD 21521","bldgnbr":"19018","predir":null,"streetname":"LEGISLATIVE","streettype":"RD","suffdir":null,"city":"BARTON","state_code":"MD","zip5":"21521","latitude":"39.5309970000000000","longitude":"-79.017213000000000","publicwifi":"U","url":null,"broadband_type_id":null}
{"id":null,"anchorname":"EMERGENCY SHELTER: BARTON HOSE COMPANY","address":"19202 LEGISLATIVE RD SW BARTON MD 21521","bldgnbr":"19202","predir":null,"streetname":"LEGISLATIVE","streettype":"RD","suffdir":"SW","city":"BARTON","state_code":"MD","zip5":"21521","latitude":"39.5295947730000000","longitude":"-79.015840589000000","publicwifi":"U","url":null,"broadband_type_id":null}
{"id":null,"anchorname":"N/A","address":"300 PRATT ST LUKE MD 21540","bldgnbr":"300","predir":null,"streetname":"PRATT","streettype":"ST","suffdir":null,"city":"LUKE","state_code":"MD","zip5":"21540","latitude":"39.4758030000000000","longitude":"-79.056481000000000","publicwifi":"U","url":null,"broadband_type_id":null}
{"id":null,"anchorname":"TOWN OF LUKE","address":"510 GRANT ST LUKE MD 21540","bldgnbr":"510","predir":null,"streetname":"GRANT","streettype":"ST","suffdir":null,"city":"LUKE","state_code":"MD","zip5":"21540","latitude":"39.4735390000000000","longitude":"-79.058817000000000","publicwifi":"U","url":null,"broadband_type_id":null}
{"id":null,"anchorname":"HEALTH MATTERS URGENT CARE","address":"14302 BARTON BLVD SW CUMBERLAND MD21502","bldgnbr":"14302","predir":null,"streetname":"BARTON","streettype":"BLVD","suffdir":"SW","city":"CUMBERLAND","state_code":"MD","zip5":"21502","latitude":"39.5761978040000000","longitude":"-78.850353306000000","publicwifi":"Y","url":null,"broadband_type_id":3}
{"id":null,"anchorname":"BEL AIR ELEMENTARY SCHOOL","address":"14401 BARTON BLVD CUMBERLAND MD 21502","bldgnbr":"14401","predir":null,"streetname":"BARTON","streettype":"BLVD","suffdir":null,"city":"CUMBERLAND","state_code":"MD","zip5":"21502","latitude":"39.5774780000000000","longitude":"-78.852047000000000","publicwifi":"U","url":"HTTP://BOE.ALLCONET.ORG/SCHOOL_DETAILS.PHP?SCHOOLID=10","broadband_type_id":6}
{"id":null,"anchorname":"EMERGENCY SHELTER: BEL AIR ELEMENTARY SCHOOL","address":"14401 BARTON BLVD CUMBERLAND MD 21502","bldgnbr":"14401","predir":null,"streetname":"BARTON","streettype":"BLVD","suffdir":null,"city":"CUMBERLAND","state_code":"MD","zip5":"21502","latitude":"39.5773036620000000","longitude":"-78.851567216000000","publicwifi":"U","url":null,"broadband_type_id":6}
{"id":null,"anchorname":"RAWLINGS FIRE DEPARTMENT","address":"18900 VOLUNTEER DR SW RAWLINGS 21557","bldgnbr":"18900","predir":null,"streetname":"VOLUNTEER","streettype":"DR","suffdir":null,"city":"RAWLINGS","state_code":"MD","zip5":"21557","latitude":"39.5357220000000000","longitude":"-78.876173000000000","publicwifi":"U","url":"HTTP://RAWLINGSVFD.WEBS.COM/?","broadband_type_id":5}
{"id":null,"anchorname":"WESTMAR MIDDLE SCHOOL","address":"16915 LOWER GEORGES CREEK RD LONACONING MD 21539","bldgnbr":"16915","predir":null,"streetname":"LOWER GEORGES CREEK","streettype":"RD","suffdir":null,"city":"LONACONING","state_code":"MD","zip5":"21539","latitude":"39.5607660000000000","longitude":"-78.987038000000000","publicwifi":"U","url":"HTTP://BOE.ALLCONET.ORG/WM/","broadband_type_id":6}
{"id":null,"anchorname":"EMERGENCY SHELTER: WESTMAR HIGH SCHOOL","address":"16915 LOWER GEORGES CREEK RD LONACONING MD 21539","bldgnbr":"16915","predir":null,"streetname":"LOWER GEORGES CREEK","streettype":"CRK","suffdir":null,"city":"LONACONING","state_code":"MD","zip5":"21539","latitude":"39.5602237810000000","longitude":"-78.987542220000000","publicwifi":"U","url":null,"broadband_type_id":6}
{"id":null,"anchorname":"ADULT CARE-DAY GEORGES CREEK CENTER","address":"7 HENEKAMP ST LONACONING MD 21539","bldgnbr":"7","predir":null,"streetname":"HENEKAMP","streettype":"ST","suffdir":null,"city":"LONACONING","state_code":"MD","zip5":"21539","latitude":"39.5640890000000000","longitude":"-78.978803000000000","publicwifi":"U","url":null,"broadband_type_id":3}
{"id":null,"anchorname":"GEORGE'S CREEK ADULT DAY CARE CENTER","address":"7 HANEKAMP ST LONACONING MD 21539","bldgnbr":"7","predir":null,"streetname":"HANEKAMP","streettype":"ST","suffdir":null,"city":"LONACONING","state_code":"MD","zip5":"21539","latitude":"39.5634352220000000","longitude":"-78.979520187000000","publicwifi":"U","url":null,"broadband_type_id":3}
{"id":null,"anchorname":"EGLE NURSING HOME","address":"57 JACKSON ST LONACONING MD 21539","bldgnbr":"57","predir":null,"streetname":"JACKSON","streettype":"ST","suffdir":null,"city":"LONACONING","state_code":"MD","zip5":"21539","latitude":"39.5626691880000000","longitude":"-78.978525669000000","publicwifi":"U","url":null,"broadband_type_id":3}
{"id":null,"anchorname":"GOOD WILL FIRE COMPANY 1","address":"27 FURNACE ST LONACONING 21539","bldgnbr":"27","predir":null,"streetname":"FURNACE","streettype":"ST","suffdir":null,"city":"LONACONING","state_code":"MD","zip5":"21539","latitude":"39.5673760000000000","longitude":"-78.980341000000000","publicwifi":"U","url":null,"broadband_type_id":5}
{"id":null,"anchorname":"GOODWILL VOL. FIRE COMPANY #1","address":"6 DOUGLAS AVENUE LONACONING MD 21539","bldgnbr":"6","predir":null,"streetname":"DOUGLAS","streettype":"AVE","suffdir":null,"city":"LONACONING","state_code":"MD","zip5":"21539","latitude":"39.5670939530000000","longitude":"-78.980561990000000","publicwifi":"U","url":null,"broadband_type_id":5}
{"id":null,"anchorname":"GEORGE'S CREEK ELEMENTARY SCHOOL","address":"15600 LOWER GEORGES CREEK RD LONACONING MD 21539","bldgnbr":"15600","predir":null,"streetname":"LOWER GEORGES CREEK","streettype":"RD","suffdir":null,"city":"LONACONING","state_code":"MD","zip5":"21539","latitude":"39.5788200000000000","longitude":"-78.964123000000000","publicwifi":"U","url":"HTTP://BOE.ALLCONET.ORG/SCHOOL_DETAILS.PHP?SCHOOLID=19","broadband_type_id":6}
{"id":null,"anchorname":"MC COOLE FIRE DEPARTMENT","address":"24931 CROOKS AVE SW MCCOOLE 21562","bldgnbr":"24931","predir":null,"streetname":"CROOKS","streettype":"AVE","suffdir":null,"city":"MCCOOLE","state_code":"MD","zip5":"21562","latitude":"39.4522520000000000","longitude":"-78.977834000000000","publicwifi":"U","url":null,"broadband_type_id":5}
{"id":null,"anchorname":"NOVACARE REHABILITATION","address":"21907 WESTERNPORT RD, SW WESTERNPORT MD 21562","bldgnbr":"21907","predir":null,"streetname":"WESTERNPORT","streettype":"RD","suffdir":"SW","city":"WESTERNPORT","state_code":"MD","zip5":"21562","latitude":"39.4517560680000000","longitude":"-78.981736340000000","publicwifi":"U","url":null,"broadband_type_id":3}
{"id":null,"anchorname":"MORAN MANOR NURSING HOME","address":"25701 SHADY LN SW WESTERNPORT MD 21562","bldgnbr":"25701","predir":null,"streetname":"SHADY","streettype":"LN","suffdir":"SW","city":"WESTERNPORT","state_code":"MD","zip5":"21562","latitude":"39.4996130830000000","longitude":"-79.050375500000000","publicwifi":"U","url":null,"broadband_type_id":3}
{"id":null,"anchorname":"EMERGENCY SHELTER: POTOMAC VOLUNTEER FIRE DEPARTMENT","address":"61 MAIN ST WESTERNPORT MD 21562","bldgnbr":"61","predir":null,"streetname":"MAIN","streettype":"ST","suffdir":null,"city":"WESTERNPORT","state_code":"MD","zip5":"21562","latitude":"39.4852551480000000","longitude":"-79.044971216000000","publicwifi":"U","url":null,"broadband_type_id":5}
{"id":null,"anchorname":"POTOMAC FIRE COMPANY NO. 2 CO. 22","address":"61 MAIN ST WESTERNPORT 21562","bldgnbr":"61","predir":null,"streetname":"MAIN","streettype":"ST","suffdir":null,"city":"WESTERNPORT","state_code":"MD","zip5":"21562","latitude":"39.4858020000000000","longitude":"-79.045099000000000","publicwifi":"U","url":"HTTP://WWW.PFC22.COM","broadband_type_id":5}
{"id":null,"anchorname":"TRI TOWNS AMBULANCE CO. 50","address":"59 MAIN ST WESTERNPORT 21562","bldgnbr":"59","predir":null,"streetname":"MAIN","streettype":"ST","suffdir":null,"city":"WESTERNPORT","state_code":"MD","zip5":"21562","latitude":"39.4840460000000000","longitude":"-79.044331000000000","publicwifi":"U","url":"HTTP://GOV.ALLCONET.ORG/DES/FIRE_AMBULANCE_COMPANIES.HTM","broadband_type_id":null}
{"id":null,"anchorname":"KAHUKU ELEMENTARY","address":"56-170 PUALALEA STREET","bldgnbr":"56-170","predir":null,"streetname":"PUALALEA","streettype":"ST","suffdir":null,"city":"KAHUKU","state_code":"HI","zip5":"96731","latitude":"21.6743262700000000","longitude":"-157.95109324700000","publicwifi":"N","url":"www.k12.hi.us/~kahuku","broadband_type_id":6}
{"id":null,"anchorname":"HOWARD I. PRESSMAN, M.D.","address":"131 CLAIBORNE RD EDGEWATER MD 21037","bldgnbr":"131","predir":null,"streetname":"CLAIBORNE","streettype":"RD","suffdir":null,"city":"EDGEWATER","state_code":"MD","zip5":"21037","latitude":"38.9379712080000000","longitude":"-76.577296202000000","publicwifi":"Y","url":null,"broadband_type_id":6}
{"id":null,"anchorname":"CAROL A. PRESSEY, M.D.","address":"3168 BRAVERTON ST EDGEWATER MD 21037","bldgnbr":"3168","predir":null,"streetname":"BRAVERTON","streettype":"ST","suffdir":null,"city":"EDGEWATER","state_code":"MD","zip5":"21037","latitude":"38.9318378820000000","longitude":"-76.566870539000000","publicwifi":"U","url":null,"broadband_type_id":6}
{"id":null,"anchorname":"EMERGENCY SHELTER: SOUTH COUNTY SENIOR CENTER","address":"27 STEPNEYS LN EDGEWATER MD 21037","bldgnbr":"27","predir":null,"streetname":"STEPNEYS","streettype":"LN","suffdir":null,"city":"EDGEWATER","state_code":"MD","zip5":"21037","latitude":"38.9291904440000000","longitude":"-76.559063160000000","publicwifi":"U","url":null,"broadband_type_id":1}
{"id":null,"anchorname":"RIVA TERRACE","address":"3073 RIVERVIEW RD RIVA MD 21140","bldgnbr":"3073","predir":null,"streetname":"RIVERVIEW","streettype":"RD","suffdir":null,"city":"RIVA","state_code":"MD","zip5":"21140","latitude":"38.9509438410000000","longitude":"-76.574403417000000","publicwifi":"U","url":null,"broadband_type_id":null}
{"id":null,"anchorname":"JOHNS HOPKINS COMMUNITY PHYSICIANS","address":"137 MITCHELLS CHANCE RD EDGEWATER MD 21037","bldgnbr":"137","predir":null,"streetname":"MITCHELLS CHANCE","streettype":"RD","suffdir":null,"city":"EDGEWATER","state_code":"MD","zip5":"21037","latitude":"38.9277221410000000","longitude":"-76.562799778000000","publicwifi":"Y","url":null,"broadband_type_id":1}
{"id":null,"anchorname":"DAVIDSONVILLE COMMUNITY CENTER","address":"3358 DAVIDSONVILLE RD DAVIDSONVILLE MD 21035","bldgnbr":"3358","predir":null,"streetname":"DAVIDSONVILLE","streettype":"RD","suffdir":null,"city":"DAVIDSONVILLE","state_code":"MD","zip5":"21035","latitude":"38.9268230000000000","longitude":"-76.630205000000000","publicwifi":"U","url":null,"broadband_type_id":1}
{"id":null,"anchorname":"LONDON TOWNE ACADEMY","address":"211 MAYO RD EDGEWATER MD 21037","bldgnbr":"211","predir":null,"streetname":"MAYO","streettype":"RD","suffdir":null,"city":"EDGEWATER","state_code":"MD","zip5":"21037","latitude":"38.9296984970000000","longitude":"-76.556514387000000","publicwifi":"U","url":"HTTP://WWW.LONDONTOWNEACADEMY.ORG/HOME.HTM","broadband_type_id":6}
{"id":null,"anchorname":"MD DERMATOLOGY OF MARYLAND","address":"3168 BRAVERTON ST EDGEWATER MD 21037","bldgnbr":"3168","predir":null,"streetname":"BRAVERTON","streettype":"ST","suffdir":null,"city":"EDGEWATER","state_code":"MD","zip5":"21037","latitude":"38.9318378820000000","longitude":"-76.566870539000000","publicwifi":"U","url":null,"broadband_type_id":null}
{"id":null,"anchorname":"DOCTORS EXPRESS","address":"3059 SOLOMON ISLAND RD EDGEWATER MD 21037","bldgnbr":"3059","predir":null,"streetname":"SOLOMON ISLAND","streettype":"RD","suffdir":null,"city":"EDGEWATER","state_code":"MD","zip5":"21037","latitude":"38.9416821430000000","longitude":"-76.561562738000000","publicwifi":"U","url":null,"broadband_type_id":6}
{"id":null,"anchorname":"EDGEWATER BRANCH","address":"25 STEPNEYS LN EDGEWATER MD 21037","bldgnbr":"25","predir":null,"streetname":"STEPNEYS","streettype":"LN","suffdir":null,"city":"EDGEWATER","state_code":"MD","zip5":"21037","latitude":"38.9293150000000000","longitude":"-76.558903000000000","publicwifi":"Y","url":"HTTP://WWW.AACPL.NET","broadband_type_id":null}
{"id":null,"anchorname":"SOUTH RIVER AMBULATORY SURGERY","address":"3168 BRAVERTON ST EDGEWATER MD 21037","bldgnbr":"3168","predir":null,"streetname":"BRAVERTON","streettype":"ST","suffdir":null,"city":"EDGEWATER","state_code":"MD","zip5":"21037","latitude":"38.9318946930000000","longitude":"-76.567053750000000","publicwifi":"U","url":null,"broadband_type_id":null}
{"id":null,"anchorname":"SMITHSONIAN ENVIRONMENTAL RESEARCH CENTER VISIT CT","address":"647 CONTEES WHARF RD EDGEWATER MD 21037","bldgnbr":"647","predir":null,"streetname":"CONTEES WHARF","streettype":"RD","suffdir":null,"city":"EDGEWATER","state_code":"MD","zip5":"21037","latitude":"38.8899650000000000","longitude":"-76.548205000000000","publicwifi":"U","url":"HTTP://WWW.SERC.SI.EDU/","broadband_type_id":6}
{"id":null,"anchorname":"SOUTH RIVER PEDIATRICS","address":"224 MAYO RD EDGEWATER MD 21037","bldgnbr":"224","predir":null,"streetname":"MAYO","streettype":"RD","suffdir":null,"city":"EDGEWATER","state_code":"MD","zip5":"21037","latitude":"38.9288893150000000","longitude":"-76.556362191000000","publicwifi":"Y","url":null,"broadband_type_id":null}
{"id":null,"anchorname":"MARIAN'S MANOR","address":"27 OLD SOUTH RIVER RD EDGEWATER MD 21037","bldgnbr":"27","predir":null,"streetname":"OLD SOUTH RIVER","streettype":"RD","suffdir":null,"city":"EDGEWATER","state_code":"MD","zip5":"21037","latitude":"38.9473575390000000","longitude":"-76.554326826000000","publicwifi":"U","url":null,"broadband_type_id":null}
{"id":null,"anchorname":"ST. VINCENT DE PAUL SOCIETY OF OUR LADY OF PERPETUAL HELP","address":"515 LOCH HAVEN RD EDGEWATER MD 21037","bldgnbr":"515","predir":null,"streetname":"LOCH HAVEN","streettype":"RD","suffdir":null,"city":"EDGEWATER","state_code":"MD","zip5":"21037","latitude":"38.9115380000000000","longitude":"-76.540581000000000","publicwifi":"U","url":null,"broadband_type_id":null}
{"id":null,"anchorname":"RUTHERFORD MANOR","address":"745 GOVERNOR BRIDGE RD DAVIDSONVILLE MD 21035","bldgnbr":"745","predir":null,"streetname":"GOVERNOR BRIDGE","streettype":"RD","suffdir":null,"city":"DAVIDSONVILLE","state_code":"MD","zip5":"21035","latitude":"38.9470640520000000","longitude":"-76.613612920000000","publicwifi":"U","url":null,"broadband_type_id":null}
{"id":null,"anchorname":"YMCA CAMP LETTS","address":"4003 CAMP LETTS RD EDGEWATER MD 21037","bldgnbr":"4003","predir":null,"streetname":"CAMP LETTS","streettype":"RD","suffdir":null,"city":"EDGEWATER","state_code":"MD","zip5":"21037","latitude":"38.9019190000000000","longitude":"-76.535638000000000","publicwifi":"U","url":null,"broadband_type_id":null}
{"id":null,"anchorname":"EMERGENCY SHELTER: WESTERNPORT ELEMENTARY SCHOOL","address":"172 CHURCH ST WESTERNPORT MD 21562","bldgnbr":"172","predir":null,"streetname":"CHURCH","streettype":"ST","suffdir":null,"city":"WESTERNPORT","state_code":"MD","zip5":"21562","latitude":"39.4809278130000000","longitude":"-79.040164180000000","publicwifi":"U","url":null,"broadband_type_id":6}
{"id":null,"anchorname":"WESTERNPORT ELEMENTARY SCHOOL","address":"172 CHURCH ST WESTERNPORT MD 21562","bldgnbr":"172","predir":null,"streetname":"CHURCH","streettype":"ST","suffdir":null,"city":"WESTERNPORT","state_code":"MD","zip5":"21562","latitude":"39.4816170000000000","longitude":"-79.040834000000000","publicwifi":"U","url":"HTTP://BOE.ALLCONET.ORG/WT/","broadband_type_id":6}
{"id":null,"anchorname":"RIVA FIRE CO. 3","address":"3123 RIVA RD RIVA MD 21140","bldgnbr":"3123","predir":null,"streetname":"RIVA","streettype":"RD","suffdir":null,"city":"RIVA","state_code":"MD","zip5":"21140","latitude":"38.9512150000000000","longitude":"-76.582420000000000","publicwifi":"N","url":"HTTP://WWW.AACOUNTY.ORG","broadband_type_id":5}
{"id":null,"anchorname":"SOUTH RIVER INTERNAL MEDICINE","address":"3168 BRAVERTON ST EDGEWATER MD 21037","bldgnbr":"3168","predir":null,"streetname":"BRAVERTON","streettype":"ST","suffdir":null,"city":"EDGEWATER","state_code":"MD","zip5":"21037","latitude":"38.9318378820000000","longitude":"-76.566870539000000","publicwifi":"U","url":null,"broadband_type_id":3}
{"id":null,"anchorname":"POLICE, SOUTHERN DISTRICT","address":"35 STEPNEYS LN EDGEWATER MD 21037","bldgnbr":"35","predir":null,"streetname":"STEPNEYS","streettype":"LN","suffdir":null,"city":"EDGEWATER","state_code":"MD","zip5":"21037","latitude":"38.9284610000000000","longitude":"-76.560733000000000","publicwifi":"N","url":null,"broadband_type_id":4}
{"id":null,"anchorname":"SOUTH RIVER HEALTH AND REHABILITATION CENTER","address":"144 WASHINGTON RD EDGEWATER MD 21037","bldgnbr":"144","predir":null,"streetname":"WASHINGTON","streettype":"RD","suffdir":null,"city":"EDGEWATER","state_code":"MD","zip5":"21037","latitude":"38.9393050860000000","longitude":"-76.559587352000000","publicwifi":"U","url":null,"broadband_type_id":3}
{"id":null,"anchorname":"WOODLAND BEACH FIRE CO. 2","address":"529 LONDONTOWN RD EDGEWATER MD 21037","bldgnbr":"529","predir":null,"streetname":"LONDONTOWN","streettype":"RD","suffdir":null,"city":"EDGEWATER","state_code":"MD","zip5":"21037","latitude":"38.9347810000000000","longitude":"-76.548241000000000","publicwifi":"N","url":"HTTP://WWW.AACOUNTY.ORG","broadband_type_id":5}
{"id":null,"anchorname":"SUMMIT SCHOOL, THE","address":"664 E CENTRAL AVE EDGEWATER MD 21037","bldgnbr":"664","predir":null,"streetname":"CENTRAL","streettype":"AVE","suffdir":null,"city":"EDGEWATER","state_code":"MD","zip5":"21037","latitude":"38.9085155070000000","longitude":"-76.539663835000000","publicwifi":"U","url":"HTTP://WWW.THESUMMITSCHOOL.ORG/","broadband_type_id":6}
{"id":null,"anchorname":"MAYO ELEMENTARY SCHOOL","address":"1260 MAYO RIDGE RD EDGEWATER MD 21037","bldgnbr":"1260","predir":null,"streetname":"MAYO RIDGE","streettype":"RD","suffdir":null,"city":"EDGEWATER","state_code":"MD","zip5":"21037","latitude":"38.8955540000000000","longitude":"-76.511501000000000","publicwifi":"N","url":"HTTP://WWW.AACPS.ORG/AACPS/MAYOES/INDEX.ASP","broadband_type_id":6}
{"id":null,"anchorname":"DAVIDSONVILLE ELEMENTARY SCHOOL","address":"962 CENTRAL AVE W DAVIDSONVILLE MD 21035","bldgnbr":"962","predir":null,"streetname":"CENTRAL","streettype":"AVE","suffdir":null,"city":"DAVIDSONVILLE","state_code":"MD","zip5":"21035","latitude":"38.9182370000000000","longitude":"-76.637406000000000","publicwifi":"N","url":"HTTP://WWW.AACPS.ORG/HTML/SCHOL/ELEMENTARY/DAVES.ASP","broadband_type_id":6}
{"id":null,"anchorname":"ANNE ARUNDEL COUNTY TRAINING ACADEMY (POLICE)","address":"3737 ELMER F HAGNER LN DAVIDSONVILLE MD 21035","bldgnbr":"3737","predir":null,"streetname":"ELMER F HAGNER","streettype":"LN","suffdir":null,"city":"DAVIDSONVILLE","state_code":"MD","zip5":"21035","latitude":"38.9027480000000000","longitude":"-76.643082000000000","publicwifi":"N","url":null,"broadband_type_id":4}
{"id":null,"anchorname":"EMERGENCY SHELTER: SOUTHERN HIGH SCHOOL","address":"4400 SOLOMONS ISLAND RD HARWOOD MD 20776","bldgnbr":"4400","predir":null,"streetname":"SOLOMONS ISLAND","streettype":"RD","suffdir":null,"city":"HARWOOD","state_code":"MD","zip5":"20776","latitude":"38.8684934360000000","longitude":"-76.617010413000000","publicwifi":"N","url":null,"broadband_type_id":6}
{"id":null,"anchorname":"KENNEDY KRIEGER AT SOUTHERN HIGH SCHOOL","address":"4400 SOLOMONS ISLAND RD HARWOOD MD 20776","bldgnbr":"4400","predir":null,"streetname":"SOLOMONS ISLAND","streettype":"RD","suffdir":null,"city":"HARWOOD","state_code":"MD","zip5":"20776","latitude":"38.8684934360000000","longitude":"-76.617010413000000","publicwifi":"N","url":"HTTP://WWW.KENNEDYKRIEGER.ORG/SPECIAL-EDUCATION/","broadband_type_id":6}
{"id":null,"anchorname":"SOUTHERN HIGH SCHOOL","address":"4400 SOLOMONS ISLAND RD HARWOOD MD 20776","bldgnbr":"4400","predir":null,"streetname":"SOLOMONS ISLAND","streettype":"RD","suffdir":null,"city":"HARWOOD","state_code":"MD","zip5":"20776","latitude":"38.8680980000000000","longitude":"-76.617705000000000","publicwifi":"N","url":"HTTP://WWW.SOUTHERNHIGH.ORG/","broadband_type_id":6}
{"id":null,"anchorname":"GALESVILLE FIRE CO. 1","address":"954 MAIN ST GALESVILLE MD 20765","bldgnbr":"954","predir":null,"streetname":"MAIN","streettype":"ST","suffdir":null,"city":"GALESVILLE","state_code":"MD","zip5":"20765","latitude":"38.8446630000000000","longitude":"-76.544917000000000","publicwifi":"N","url":"HTTP://WWW.AACOUNTY.ORG","broadband_type_id":5}
{"id":null,"anchorname":"RALPH BUNCHE COMMUNITY CENTER","address":"374 MILL SWAMP RD EDGEWATER MD 21037","bldgnbr":"374","predir":null,"streetname":"MILL SWAMP","streettype":"RD","suffdir":null,"city":"EDGEWATER","state_code":"MD","zip5":"21037","latitude":"38.8837950000000000","longitude":"-76.572206000000000","publicwifi":"U","url":null,"broadband_type_id":1}
{"id":null,"anchorname":"MOKAPU ELEMENTARY","address":"1193 MOKAPU ROAD","bldgnbr":"1193","predir":null,"streetname":"MOKAPU","streettype":"RD","suffdir":null,"city":"KAILUA","state_code":"HI","zip5":"96734","latitude":"21.4443252900000000","longitude":"-157.74919977800000","publicwifi":"N","url":"power.k12.hi.us/index.cfm?siteID=178","broadband_type_id":6}
{"id":null,"anchorname":"KAPOLEI ELEMENTARY","address":"91-1119 KAMAAHA LOOP","bldgnbr":"91-1119","predir":null,"streetname":"KAMAAHA","streettype":"LOOP","suffdir":null,"city":"KAPOLEI","state_code":"HI","zip5":"96707","latitude":"21.3338883360000000","longitude":"-158.06433109200000","publicwifi":"Y","url":"kapolei.k12.hi.us","broadband_type_id":6}
{"id":null,"anchorname":"LANIKAI RESORT","address":"390 PAPALOA RD","bldgnbr":"390","predir":null,"streetname":"PAPALOA","streettype":"RD","suffdir":null,"city":"KAPAA","state_code":"HI","zip5":"96746","latitude":"22.0520331230000000","longitude":"-159.33159783200000","publicwifi":"U","url":null,"broadband_type_id":6}
{"id":null,"anchorname":"HOSPICE OF THE CHESAPEAKE","address":"3675 SOLOMONS ISLAND RD HARWOOD MD 20776","bldgnbr":"3675","predir":null,"streetname":"SOLOMONS ISLAND","streettype":"RD","suffdir":null,"city":"HARWOOD","state_code":"MD","zip5":"20776","latitude":"38.9047119470000000","longitude":"-76.584156209000000","publicwifi":"U","url":null,"broadband_type_id":6}
{"id":null,"anchorname":"SOUTH COUNTY RECREATION CENTER","address":"4510 OWENSVILLE SUDLEY RD HARWOOD MD 20776","bldgnbr":"4510","predir":null,"streetname":"OWENSVILLE SUDLEY","streettype":"RD","suffdir":null,"city":"HARWOOD","state_code":"MD","zip5":"20776","latitude":"38.8586420000000000","longitude":"-76.605900000000000","publicwifi":"U","url":null,"broadband_type_id":1}
{"id":null,"anchorname":"LOTHIAN ELEMENTARY","address":"5175 SOLOMONS ISLAND RD LOTHIAN MD 20711","bldgnbr":"5175","predir":null,"streetname":"SOLOMONS ISLAND","streettype":"RD","suffdir":null,"city":"LOTHIAN","state_code":"MD","zip5":"20711","latitude":"38.8265800000000000","longitude":"-76.614062000000000","publicwifi":"N","url":"HTTP://WWW.AACPS.ORG/AACPS/LOTHES/INDEX.ASP","broadband_type_id":6}
{"id":null,"anchorname":"ARLINGTON ECHO OUTDOOR EDUCATION CENTER","address":"975 INDIAN LANDING RD MILLERSVILLE MD 21108","bldgnbr":"975","predir":null,"streetname":"INDIAN LANDING","streettype":"RD","suffdir":null,"city":"MILLERSVILLE","state_code":"MD","zip5":"21108","latitude":"39.0743499750000000","longitude":"-76.613949627000000","publicwifi":"U","url":"HTTP://WWW.ARLINGTONECHO.ORG/","broadband_type_id":6}
{"id":null,"anchorname":"MARYS MOUNT MANOR GIRLS GROUP HOME","address":"25 MARYS MOUNT RD HARWOOD MD 20776","bldgnbr":"25","predir":null,"streetname":"MARYS MOUNT","streettype":"RD","suffdir":null,"city":"HARWOOD","state_code":"MD","zip5":"20776","latitude":"38.8760770000000000","longitude":"-76.604011000000000","publicwifi":"U","url":null,"broadband_type_id":null}
{"id":null,"anchorname":"HARBOR GATES, INC.","address":"735 HERALD HARBOR RD CROWNSVILLE MD 21032","bldgnbr":"735","predir":null,"streetname":"HERALD HARBOR","streettype":"RD","suffdir":null,"city":"CROWNSVILLE","state_code":"MD","zip5":"21032","latitude":"39.0389879090000000","longitude":"-76.596725759000000","publicwifi":"U","url":null,"broadband_type_id":6}
{"id":null,"anchorname":"SHAH ASSOCIATES, LLC","address":"2200 DEFENSE HWY CROFTON MD 21114","bldgnbr":"2200","predir":null,"streetname":"DEFENSE","streettype":"HWY","suffdir":null,"city":"CROFTON","state_code":"MD","zip5":"21114","latitude":"38.9927110190000000","longitude":"-76.700976601000000","publicwifi":"Y","url":null,"broadband_type_id":6}
{"id":null,"anchorname":"OPPORTUNITY BUILDERS","address":"8855 VETERANS HWY MILLERSVILLE MD 21108","bldgnbr":"8855","predir":null,"streetname":"VETERANS","streettype":"HWY","suffdir":null,"city":"MILLERSVILLE","state_code":"MD","zip5":"21108","latitude":"39.0747680000000000","longitude":"-76.629425000000000","publicwifi":"U","url":null,"broadband_type_id":null}
{"id":null,"anchorname":"BARBARA TYMKIW, M.D.","address":"712 TIMBER TREE PL CROWNSVILLE MD 21032","bldgnbr":"712","predir":null,"streetname":"TIMBER TREE","streettype":"PL","suffdir":null,"city":"CROWNSVILLE","state_code":"MD","zip5":"21032","latitude":"39.0502223950000000","longitude":"-76.583877423000000","publicwifi":"U","url":null,"broadband_type_id":null}
{"id":null,"anchorname":"HOWARD K, SCHULTZ, JR., MD PA","address":"1438 DEFENSE HWY GAMBRILLS MD 21054","bldgnbr":"1438","predir":null,"streetname":"DEFENSE","streettype":"HWY","suffdir":null,"city":"GAMBRILLS","state_code":"MD","zip5":"21054","latitude":"38.9924844690000000","longitude":"-76.680030556000000","publicwifi":"Y","url":null,"broadband_type_id":null}
{"id":null,"anchorname":"ANNE ARUNDEL RHEUMATOLOGY","address":"1655 CROFTON BLVD CROFTON MD 21114","bldgnbr":"1655","predir":null,"streetname":"CROFTON","streettype":"BLVD","suffdir":null,"city":"CROFTON","state_code":"MD","zip5":"21114","latitude":"39.0162672500000000","longitude":"-76.697411834000000","publicwifi":"Y","url":null,"broadband_type_id":null}
{"id":null,"anchorname":"CHANGING FOCUS","address":"1657 CROFTON BLVD CROFTON MD 21114","bldgnbr":"1657","predir":null,"streetname":"CROFTON","streettype":"BLVD","suffdir":null,"city":"CROFTON","state_code":"MD","zip5":"21114","latitude":"39.0162120000000000","longitude":"-76.698079000000000","publicwifi":"U","url":null,"broadband_type_id":null}
{"id":null,"anchorname":"RONALD C.SROKA ,M.D.","address":"1684 VILLAGE GRN CROFTON MD 21114","bldgnbr":"1684","predir":null,"streetname":"VILLAGE","streettype":"GRN","suffdir":null,"city":"CROFTON","state_code":"MD","zip5":"21114","latitude":"39.0054510840000000","longitude":"-76.697951216000000","publicwifi":"Y","url":null,"broadband_type_id":null}
{"id":null,"anchorname":"CENTRAL MIDDLE SCHOOL","address":"221 CENTRAL AVE E EDGEWATER MD 21037","bldgnbr":"221","predir":null,"streetname":"CENTRAL","streettype":"AVE","suffdir":"E","city":"EDGEWATER","state_code":"MD","zip5":"21037","latitude":"38.9225700000000000","longitude":"-76.557703000000000","publicwifi":"N","url":"HTTP://WWW.AACPS.ORG/AACPS/CENTRLMS/INDEX.ASP","broadband_type_id":6}
{"id":null,"anchorname":"EMERGENCY SHELTER: SOUTH RIVER HIGH SCHOOL","address":"201 E CENTRAL AVE EDGEWATER MD 21037","bldgnbr":"201","predir":"E","streetname":"CENTRAL","streettype":"AVE","suffdir":null,"city":"EDGEWATER","state_code":"MD","zip5":"21037","latitude":"38.9261510750000000","longitude":"-76.563192648000000","publicwifi":"N","url":null,"broadband_type_id":6}
{"id":null,"anchorname":"EMERGENCY SHELTER: CENTRAL MIDDLE SCHOOL","address":"221 CENTRAL AVE E EDGEWATER MD 21037","bldgnbr":"221","predir":null,"streetname":"CENTRAL","streettype":"AVE","suffdir":"E","city":"EDGEWATER","state_code":"MD","zip5":"21037","latitude":"38.9259270650000000","longitude":"-76.562260119000000","publicwifi":"N","url":null,"broadband_type_id":6}
{"id":null,"anchorname":"SOUTH RIVER HIGH SCHOOL","address":"201 CENTRAL AVE E EDGEWATER MD 21037","bldgnbr":"201","predir":null,"streetname":"CENTRAL","streettype":"AVE","suffdir":null,"city":"EDGEWATER","state_code":"MD","zip5":"21037","latitude":"38.9234830000000000","longitude":"-76.558673000000000","publicwifi":"N","url":"HTTP://WWW.SOUTHRIVERHIGH.ORG/","broadband_type_id":6}
{"id":null,"anchorname":"COUNTRY HOME ASSISTED LIVING AND RESPITE CARE","address":"4187 SOLOMONS ISLAND RD HARWOOD MD 20776","bldgnbr":"4187","predir":null,"streetname":"SOLOMONS ISLAND","streettype":"RD","suffdir":null,"city":"HARWOOD","state_code":"MD","zip5":"20776","latitude":"38.8762019940000000","longitude":"-76.605782002000000","publicwifi":"U","url":null,"broadband_type_id":3}
{"id":null,"anchorname":"OWENSVILLE PRIMARY CARE","address":"134 OWENSVILLE RD WEST RIVER MD 20778","bldgnbr":"134","predir":null,"streetname":"OWENSVILLE","streettype":"RD","suffdir":null,"city":"WEST RIVER","state_code":"MD","zip5":"20778","latitude":"38.8499538020000000","longitude":"-76.598617196000000","publicwifi":"U","url":null,"broadband_type_id":3}
{"id":null,"anchorname":"EMERGENCY SHELTER: SOUTHERN MIDDLE SCHOOL","address":"5235 SOLOMONS ISLAND RD LOTHIAN MD 20711","bldgnbr":"5235","predir":null,"streetname":"SOLOMONS ISLAND","streettype":"RD","suffdir":null,"city":"LOTHIAN","state_code":"MD","zip5":"20711","latitude":"38.8218058530000000","longitude":"-76.609288997000000","publicwifi":"N","url":null,"broadband_type_id":6}
{"id":null,"anchorname":"HARWOOD LOTHIAN FIRE CO. 9","address":"5165 SOLOMONS ISLAND RD LOTHIAN MD 20711","bldgnbr":"5165","predir":null,"streetname":"SOLOMONS ISLAND","streettype":"RD","suffdir":null,"city":"LOTHIAN","state_code":"MD","zip5":"20711","latitude":"38.8272210000000000","longitude":"-76.614429000000000","publicwifi":"N","url":"HTTP://WWW.AACOUNTY.ORG","broadband_type_id":5}
{"id":null,"anchorname":"HERALD HARBOR FIRE CO. 6","address":"401 HALL RD CROWNSVILLE MD 21032","bldgnbr":"401","predir":null,"streetname":"HALL","streettype":"RD","suffdir":null,"city":"CROWNSVILLE","state_code":"MD","zip5":"21032","latitude":"39.0498320000000000","longitude":"-76.574904000000000","publicwifi":"N","url":"HTTP://WWW.AACOUNTY.ORG","broadband_type_id":5}
{"id":null,"anchorname":"CROFTON WOODS ELEMENTARY SCHOOL","address":"1750 URBY DR CROFTON MD 21114","bldgnbr":"1750","predir":null,"streetname":"URBY","streettype":"DR","suffdir":null,"city":"CROFTON","state_code":"MD","zip5":"21114","latitude":"38.9984870000000000","longitude":"-76.694369000000000","publicwifi":"N","url":"HTTP://WWW.AACPS.ORG/AACPS/CWES/","broadband_type_id":6}
{"id":null,"anchorname":"TOTAL FAMILY CARE, LLC","address":"1302 CRONSON BLVD CROFTON MD 21114","bldgnbr":"1302","predir":null,"streetname":"CRONSON","streettype":"BLVD","suffdir":null,"city":"CROFTON","state_code":"MD","zip5":"21114","latitude":"39.0085025620000000","longitude":"-76.700146289000000","publicwifi":"Y","url":null,"broadband_type_id":3}
{"id":null,"anchorname":"CROFTON MEDICAL GROUP","address":"1667 CROFTON CTR CROFTON MD 21114","bldgnbr":"1667","predir":null,"streetname":"CROFTON","streettype":"CTR","suffdir":null,"city":"CROFTON","state_code":"MD","zip5":"21114","latitude":"39.0151688640000000","longitude":"-76.695734572000000","publicwifi":"N","url":null,"broadband_type_id":3}
{"id":null,"anchorname":"SPECTRUM BEHAVIORAL HEALTH","address":"1662 VILLAGE GRN CROFTON MD 21114","bldgnbr":"1662","predir":null,"streetname":"VILLAGE","streettype":"GRN","suffdir":null,"city":"CROFTON","state_code":"MD","zip5":"21114","latitude":"39.0062408470000000","longitude":"-76.697818395000000","publicwifi":"Y","url":null,"broadband_type_id":3}
{"id":null,"anchorname":"CREATIVE GARDEN SCHOOL","address":"1560 CROFTON PKWY CROFTON MD 21114","bldgnbr":"1560","predir":null,"streetname":"CROFTON","streettype":"PKWY","suffdir":null,"city":"CROFTON","state_code":"MD","zip5":"21114","latitude":"39.0123588540000000","longitude":"-76.686669873000000","publicwifi":"U","url":"HTTP://WWW.CREATIVEGARDENSCHOOLS.COM/","broadband_type_id":6}
{"id":null,"anchorname":"CROFTON POLICE DEPARTMENT","address":"1576 CROFTON PKWY CROFTON MD 21114","bldgnbr":"1576","predir":null,"streetname":"CROFTON","streettype":"PKWY","suffdir":null,"city":"CROFTON","state_code":"MD","zip5":"21114","latitude":"39.0123540000000000","longitude":"-76.689584000000000","publicwifi":"U","url":null,"broadband_type_id":4}
{"id":null,"anchorname":"CROFTON ELEMENTARY SCHOOL","address":"1405 DUKE OF KENT DR CROFTON MD 21114","bldgnbr":"1405","predir":null,"streetname":"DUKE OF KENT","streettype":"DR","suffdir":null,"city":"CROFTON","state_code":"MD","zip5":"21114","latitude":"39.0133470000000000","longitude":"-76.689849000000000","publicwifi":"N","url":"HTTP://WWW.AACPS.ORG/AACPS/CROFTES/","broadband_type_id":6}
{"id":null,"anchorname":"CROFTON MIDDLE SCHOOL","address":"2301 DAVIDSONVILLE RD CROFTON MD 21114","bldgnbr":"2301","predir":null,"streetname":"DAVIDSONVILLE","streettype":"RD","suffdir":null,"city":"CROFTON","state_code":"MD","zip5":"21114","latitude":"38.9974210000000000","longitude":"-76.672381000000000","publicwifi":"N","url":"HTTP://WWW.AACPS.ORG/AACPS/CROFTMS/INDEX.ASP","broadband_type_id":6}
{"id":null,"anchorname":"CROFTON BRANCH","address":"1681 RIEDEL RD CROFTON MD 21114","bldgnbr":"1681","predir":null,"streetname":"RIEDEL","streettype":"RD","suffdir":null,"city":"CROFTON","state_code":"MD","zip5":"21114","latitude":"39.0132360000000000","longitude":"-76.680649000000000","publicwifi":"Y","url":"HTTP://WWW.AACPL.NET","broadband_type_id":null}
{"id":null,"anchorname":"KEOLU ELEMENTARY","address":"1416 KEOLU DRIVE","bldgnbr":"1416","predir":null,"streetname":"KEOLU","streettype":"DR","suffdir":null,"city":"KAILUA","state_code":"HI","zip5":"96734","latitude":"21.3717105530000000","longitude":"-157.73587818800000","publicwifi":"U","url":"www.k12.hi.us/~keolu","broadband_type_id":6}
{"id":null,"anchorname":"HOUSEHOLD OF ANGELS IN CROFTON","address":"2163 DAVIDSONVILLE RD GAMBRILLS MD 21054","bldgnbr":"2163","predir":null,"streetname":"DAVIDSONVILLE","streettype":"RD","suffdir":null,"city":"GAMBRILLS","state_code":"MD","zip5":"21054","latitude":"39.0088191800000000","longitude":"-76.679686414000000","publicwifi":"U","url":null,"broadband_type_id":null}
{"id":null,"anchorname":"OHANA EDUCATIONAL MINISTRIES","address":"2908 KAMEHAMEHA HWY","bldgnbr":"1","predir":null,"streetname":"KAMEHAMEHA","streettype":"HWY","suffdir":null,"city":"HONOLULU","state_code":"HI","zip5":"96819","latitude":"21.3453783400000000","longitude":"-157.89649912600000","publicwifi":"U","url":null,"broadband_type_id":6}
{"id":null,"anchorname":"JAMES MATTHEWS, M.D.","address":"2110 PRIEST BRIDGE DR CROFTON MD 21114","bldgnbr":"2110","predir":null,"streetname":"PRIEST BRIDGE","streettype":"DR","suffdir":null,"city":"CROFTON","state_code":"MD","zip5":"21114","latitude":"38.9911840300000000","longitude":"-76.697786507000000","publicwifi":"Y","url":null,"broadband_type_id":6}
{"id":null,"anchorname":"BETHANY CHRISTIAN SERVICES","address":"2130 PRIEST BRIDGE DR CROFTON MD 21114","bldgnbr":"2130","predir":null,"streetname":"PRIEST BRIDGE","streettype":"DR","suffdir":null,"city":"CROFTON","state_code":"MD","zip5":"21114","latitude":"38.9905150000000000","longitude":"-76.698199000000000","publicwifi":"U","url":null,"broadband_type_id":6}
{"id":null,"anchorname":"ADVANCED PAIN MANAGEMENT SPECIALISTS","address":"116 DEFENSE HWY ANNAPOLIS MD 21401","bldgnbr":"116","predir":null,"streetname":"DEFENSE","streettype":"HWY","suffdir":null,"city":"ANNAPOLIS","state_code":"MD","zip5":"21401","latitude":"38.9865078560000000","longitude":"-76.550891787000000","publicwifi":"U","url":null,"broadband_type_id":6}
{"id":null,"anchorname":"ADVANCED RADIOLOGY - ANNAPOLIS","address":"116 DEFENSE HWY ANNAPOLIS MD 21401","bldgnbr":"116","predir":null,"streetname":"DEFENSE","streettype":"HWY","suffdir":null,"city":"ANNAPOLIS","state_code":"MD","zip5":"21401","latitude":"38.9865078560000000","longitude":"-76.550891787000000","publicwifi":"Y","url":null,"broadband_type_id":6}
{"id":null,"anchorname":"ANNAPOLIS AESTHETIC SURGERY","address":"116 DEFENSE HWY ANNAPOLIS MD 21401","bldgnbr":"116","predir":null,"streetname":"DEFENSE","streettype":"HWY","suffdir":null,"city":"ANNAPOLIS","state_code":"MD","zip5":"21401","latitude":"38.9865078560000000","longitude":"-76.550891787000000","publicwifi":"Y","url":null,"broadband_type_id":6}
{"id":null,"anchorname":"TERENCE ALOYSIUS MCGUIRE","address":"2935 ROUTE 424 DAVIDSONVILLE MD 21035","bldgnbr":"2935","predir":null,"streetname":"ROUTE 424","streettype":null,"suffdir":null,"city":"DAVIDSONVILLE","state_code":"MD","zip5":"21035","latitude":"38.9470063890000000","longitude":"-76.641954124000000","publicwifi":"U","url":null,"broadband_type_id":null}
{"id":null,"anchorname":"RIVA TERRACE 6","address":"1098 GALWAY RD DAVIDSONVILLE MD 21035","bldgnbr":"1098","predir":null,"streetname":"GALWAY","streettype":"RD","suffdir":null,"city":"DAVIDSONVILLE","state_code":"MD","zip5":"21035","latitude":"38.9499189520000000","longitude":"-76.642239894000000","publicwifi":"U","url":null,"broadband_type_id":null}
{"id":null,"anchorname":"THE PEDIATRIC GROUP","address":"2772 RUTLAND RD DAVIDSONVILLE MD 21035","bldgnbr":"2772","predir":null,"streetname":"RUTLAND","streettype":"RD","suffdir":null,"city":"DAVIDSONVILLE","state_code":"MD","zip5":"21035","latitude":"38.9596177200000000","longitude":"-76.639426195000000","publicwifi":"Y","url":null,"broadband_type_id":null}
{"id":null,"anchorname":"BEAVER CREEK KINDERGARTEN","address":"2165 DAVIDSONVILLE RD GAMBRILLS MD 21054","bldgnbr":"2165","predir":null,"streetname":"DAVIDSONVILLE","streettype":"RD","suffdir":null,"city":"GAMBRILLS","state_code":"MD","zip5":"21054","latitude":"38.9636704340000000","longitude":"-76.659877520000000","publicwifi":"U","url":"HTTP://WWW.BEAVERCREEKCHILDCAREANDKINDERGARTEN.NATIONALSEARCHDIRECTORY.NET","broadband_type_id":null}
{"id":null,"anchorname":"MARJORIE A. VOITH,MD","address":"2702 PARKVIEW DR RIVA MD 21140","bldgnbr":"2702","predir":null,"streetname":"PARKVIEW","streettype":"DR","suffdir":null,"city":"RIVA","state_code":"MD","zip5":"21140","latitude":"38.9592261170000000","longitude":"-76.591033021000000","publicwifi":"Y","url":null,"broadband_type_id":null}
{"id":null,"anchorname":"ANNAPOLIS NEUROLOGY ASSOCIATES","address":"122 DEFENSE HWY ANNAPOLIS MD 21401","bldgnbr":"122","predir":null,"streetname":"DEFENSE","streettype":"HWY","suffdir":null,"city":"ANNAPOLIS","state_code":"MD","zip5":"21401","latitude":"38.9858310740000000","longitude":"-76.551668749000000","publicwifi":"Y","url":null,"broadband_type_id":6}
{"id":null,"anchorname":"SUNSHINE HOUSE II","address":"612 MARTI LN ANNAPOLIS MD 21401","bldgnbr":"612","predir":null,"streetname":"MARTI","streettype":"LN","suffdir":null,"city":"ANNAPOLIS","state_code":"MD","zip5":"21401","latitude":"39.0005509630000000","longitude":"-76.559813637000000","publicwifi":"U","url":null,"broadband_type_id":null}
{"id":null,"anchorname":"MIDATLANTIC UROLOGY ASSOCIATES, LLC","address":"127 LUBRANO DR ANNAPOLIS MD 21401","bldgnbr":"127","predir":null,"streetname":"LUBRANO","streettype":"DR","suffdir":null,"city":"ANNAPOLIS","state_code":"MD","zip5":"21401","latitude":"38.9866641620000000","longitude":"-76.551820649000000","publicwifi":"Y","url":null,"broadband_type_id":6}
{"id":null,"anchorname":"SHA ANNAPOLIS D5","address":"138 DEFENSE HWY ANNAPOLIS MD 21401","bldgnbr":"138","predir":null,"streetname":"DEFENSE","streettype":"HWY","suffdir":null,"city":"ANNAPOLIS","state_code":"MD","zip5":"21401","latitude":"38.9853560000000000","longitude":"-76.553521000000000","publicwifi":"U","url":"HTTP://WWW.ROADS.MARYLAND.GOV/HOME.ASPX","broadband_type_id":6}
{"id":null,"anchorname":"UNITED CEREBRAL PALSY OF SOUTHERN MARYLAND, ANNE ARUNDEL COUNTY","address":"1919 WEST ST ANNAPOLIS MD 21401","bldgnbr":"1919","predir":null,"streetname":"WEST","streettype":"ST","suffdir":null,"city":"ANNAPOLIS","state_code":"MD","zip5":"21401","latitude":"38.9880220000000000","longitude":"-76.549475000000000","publicwifi":"U","url":null,"broadband_type_id":1}
{"id":null,"anchorname":"GEORGE W YU MD PA","address":"122 DEFENSE HWY ANNAPOLIS MD 21401","bldgnbr":"122","predir":null,"streetname":"DEFENSE","streettype":"HWY","suffdir":null,"city":"ANNAPOLIS","state_code":"MD","zip5":"21401","latitude":"38.9858310740000000","longitude":"-76.551668749000000","publicwifi":"Y","url":null,"broadband_type_id":null}
{"id":null,"anchorname":"ANNAPOLIS AESTHETIC SURGERY","address":"116 DEFENSE HWY ANNAPOLIS MD 21401","bldgnbr":"116","predir":null,"streetname":"DEFENSE","streettype":"HWY","suffdir":null,"city":"ANNAPOLIS","state_code":"MD","zip5":"21401","latitude":"38.9869987610000000","longitude":"-76.550781207000000","publicwifi":"U","url":null,"broadband_type_id":6}
{"id":null,"anchorname":"SANDEL CENTER FOR FACIAL PLASTIC SURGERY","address":"127 LUBRANO DR ANNAPOLIS MD 21401","bldgnbr":"127","predir":null,"streetname":"LUBRANO","streettype":"DR","suffdir":null,"city":"ANNAPOLIS","state_code":"MD","zip5":"21401","latitude":"38.9866641620000000","longitude":"-76.551820649000000","publicwifi":"Y","url":null,"broadband_type_id":null}
{"id":null,"anchorname":"RICHARD P. MARVEL, MD LLC","address":"130 LUBRANO DR ANNAPOLIS MD 21401","bldgnbr":"130","predir":null,"streetname":"LUBRANO","streettype":"DR","suffdir":null,"city":"ANNAPOLIS","state_code":"MD","zip5":"21401","latitude":"38.9873532210000000","longitude":"-76.552615634000000","publicwifi":"Y","url":null,"broadband_type_id":null}
{"id":null,"anchorname":"NANTUCKET ELEMENTARY SCHOOL","address":"2350 NANTUCKET DR CROFTON MD 21114","bldgnbr":"2350","predir":null,"streetname":"NANTUCKET","streettype":"DR","suffdir":null,"city":"CROFTON","state_code":"MD","zip5":"21114","latitude":"39.0314850000000000","longitude":"-76.676112000000000","publicwifi":"N","url":"HTTP://WWW.AACPS.ORG/AACPS/NANES/INDEX.ASP","broadband_type_id":6}
{"id":null,"anchorname":"NEWBURY SCHOOL","address":"1305 RIEDEL RD GAMBRILLS MD 21054","bldgnbr":"1305","predir":null,"streetname":"RIEDEL","streettype":"RD","suffdir":null,"city":"GAMBRILLS","state_code":"MD","zip5":"21054","latitude":"39.0388422950000000","longitude":"-76.674523016000000","publicwifi":"U","url":"HTTP://WWW.NEWBURYSCHOOL.COM/","broadband_type_id":6}
{"id":null,"anchorname":"ARUNDEL FIRE CO. 7","address":"2380 DAVIDSONVILLE RD GAMBRILLS MD 21054","bldgnbr":"2380","predir":null,"streetname":"DAVIDSONVILLE","streettype":"RD","suffdir":null,"city":"GAMBRILLS","state_code":"MD","zip5":"21054","latitude":"38.9890360000000000","longitude":"-76.669531000000000","publicwifi":"N","url":"HTTP://WWW.AACOUNTY.ORG","broadband_type_id":5}
{"id":null,"anchorname":"GW MEDICAL FACULTY ASSOC., INC.","address":"2191 DEFENSE HWY CROFTON MD 21114","bldgnbr":"2191","predir":null,"streetname":"DEFENSE","streettype":"HWY","suffdir":null,"city":"CROFTON","state_code":"MD","zip5":"21114","latitude":"38.9914311030000000","longitude":"-76.700016073000000","publicwifi":"Y","url":null,"broadband_type_id":3}
{"id":null,"anchorname":"HARCOURT HEALTH CARE","address":"2209 DEFENSE HWY CROFTON MD 21114","bldgnbr":"2209","predir":null,"streetname":"DEFENSE","streettype":"HWY","suffdir":null,"city":"CROFTON","state_code":"MD","zip5":"21114","latitude":"38.9908135920000000","longitude":"-76.700828252000000","publicwifi":"Y","url":null,"broadband_type_id":3}
{"id":null,"anchorname":"ROLLING KNOLLS ELEMENTARY SCHOOL","address":"1985 VALLEY RD ANNAPOLIS MD 21401","bldgnbr":"1985","predir":null,"streetname":"VALLEY","streettype":"RD","suffdir":null,"city":"ANNAPOLIS","state_code":"MD","zip5":"21401","latitude":"38.9970400000000000","longitude":"-76.557517000000000","publicwifi":"N","url":"HTTP://WWW.AACPS.ORG/AACPS/ROLLKNES/INDEX.ASP","broadband_type_id":6}
{"id":null,"anchorname":"RIGHTTIME MEDICAL CARE","address":"2114 GENERALS HWY ANNAPOLIS MD 21401","bldgnbr":"2114","predir":null,"streetname":"GENERALS","streettype":"HWY","suffdir":null,"city":"ANNAPOLIS","state_code":"MD","zip5":"21401","latitude":"38.9889168040000000","longitude":"-76.549348454000000","publicwifi":"U","url":null,"broadband_type_id":3}
{"id":null,"anchorname":"RIGHTTIME MEDICALCARE","address":"2114 GENERALS HWY ANNAPOLIS MD 21401","bldgnbr":"2114","predir":null,"streetname":"GENERALS","streettype":"HWY","suffdir":null,"city":"ANNAPOLIS","state_code":"MD","zip5":"21401","latitude":"38.9889168040000000","longitude":"-76.549348454000000","publicwifi":"Y","url":null,"broadband_type_id":3}
{"id":null,"anchorname":"ANNAPOLIS INTERNAL MEDICINE, LLC","address":"116 DEFENSE HWY ANNAPOLIS MD 21403","bldgnbr":"116","predir":null,"streetname":"DEFENSE","streettype":"HWY","suffdir":null,"city":"ANNAPOLIS","state_code":"MD","zip5":"21403","latitude":"38.9865078560000000","longitude":"-76.550891787000000","publicwifi":"Y","url":null,"broadband_type_id":3}
{"id":null,"anchorname":"MATCARE LLC","address":"122 DEFENSE HWY ANNAPOLIS MD 21401","bldgnbr":"122","predir":null,"streetname":"DEFENSE","streettype":"HWY","suffdir":null,"city":"ANNAPOLIS","state_code":"MD","zip5":"21401","latitude":"38.9858310740000000","longitude":"-76.551668749000000","publicwifi":"Y","url":null,"broadband_type_id":3}
{"id":null,"anchorname":"MARYLAND PRIMARY CARE PHYSICIANS","address":"129 LUBRANO DR ANNAPOLIS MD 21401","bldgnbr":"129","predir":null,"streetname":"LUBRANO","streettype":"DR","suffdir":null,"city":"ANNAPOLIS","state_code":"MD","zip5":"21401","latitude":"38.9878351500000000","longitude":"-76.551821813000000","publicwifi":"Y","url":null,"broadband_type_id":3}
{"id":null,"anchorname":"HARBOUR SCHOOL AT ANNAPOLIS, THE","address":"1277 GREEN HOLLY DR ANNAPOLIS MD 21401","bldgnbr":"1277","predir":null,"streetname":"GREEN HOLLY","streettype":"DR","suffdir":null,"city":"ANNAPOLIS","state_code":"MD","zip5":"21401","latitude":"38.9880219390000000","longitude":"-76.549473782000000","publicwifi":"U","url":"HTTP://WWW.HARBOURSCHOOL.ORG/","broadband_type_id":6}
{"id":null,"anchorname":"NOVACARE OUTPATIENT REHABILITATION - ANNAPOLIS","address":"116 DEFENSE HWY    ANNAPOLIS MD 21401","bldgnbr":"116","predir":null,"streetname":"DEFENSE","streettype":"HWY","suffdir":null,"city":"ANNAPOLIS","state_code":"MD","zip5":"21401","latitude":"38.9869987610000000","longitude":"-76.550781207000000","publicwifi":"U","url":null,"broadband_type_id":3}
{"id":null,"anchorname":"BAY SURGERY CENTERS, LLC","address":"116 DEFENSE HWY ANNAPOLIS MD 21401","bldgnbr":"116","predir":null,"streetname":"DEFENSE","streettype":"HWY","suffdir":null,"city":"ANNAPOLIS","state_code":"MD","zip5":"21401","latitude":"38.9869987610000000","longitude":"-76.550781207000000","publicwifi":"U","url":null,"broadband_type_id":null}
{"id":null,"anchorname":"ADVANCED RADIOLOGY","address":"116 DEFENSE HWY ANNAPOLIS MD 21401","bldgnbr":"116","predir":null,"streetname":"DEFENSE","streettype":"HWY","suffdir":null,"city":"ANNAPOLIS","state_code":"MD","zip5":"21401","latitude":"38.9869987610000000","longitude":"-76.550781207000000","publicwifi":"U","url":null,"broadband_type_id":null}
{"id":null,"anchorname":"KILAUEA ELEMENTARY","address":"2440 KOLO RD.","bldgnbr":"2440","predir":null,"streetname":"KOLO","streettype":"RD","suffdir":null,"city":"KILAUEA","state_code":"HI","zip5":"96754","latitude":"22.2061224410000000","longitude":"-159.40920887800000","publicwifi":"Y","url":"www.kilauea.k12.hi.us","broadband_type_id":6}
{"id":null,"anchorname":"MED SURG FOOT CENTER","address":"2086 GENERALS HWY ANNAPOLIS MD 21401","bldgnbr":"2086","predir":null,"streetname":"GENERALS","streettype":"HWY","suffdir":null,"city":"ANNAPOLIS","state_code":"MD","zip5":"21401","latitude":"38.9903618430000000","longitude":"-76.549695727000000","publicwifi":"U","url":null,"broadband_type_id":null}
{"id":null,"anchorname":"FREDERICK T. SUTTER, MD, LLC","address":"171 DEFENSE HWY ANNAPOLIS MD 21401","bldgnbr":"171","predir":null,"streetname":"DEFENSE","streettype":"HWY","suffdir":null,"city":"ANNAPOLIS","state_code":"MD","zip5":"21401","latitude":"38.9851765710000000","longitude":"-76.558569962000000","publicwifi":"Y","url":null,"broadband_type_id":null}
{"id":null,"anchorname":"JACK VAETH, MD, PA","address":"133 DEFENSE HWY ANNAPOLIS MD 21401","bldgnbr":"133","predir":null,"streetname":"DEFENSE","streettype":"HWY","suffdir":null,"city":"ANNAPOLIS","state_code":"MD","zip5":"21401","latitude":"38.9850649220000000","longitude":"-76.552881055000000","publicwifi":"Y","url":null,"broadband_type_id":null}
{"id":null,"anchorname":"MATTHEW J. MALTA MD, PA","address":"132 HOLIDAY CT ANNAPOLIS MD 21401","bldgnbr":"132","predir":null,"streetname":"HOLIDAY","streettype":"CT","suffdir":null,"city":"ANNAPOLIS","state_code":"MD","zip5":"21401","latitude":"38.9818017570000000","longitude":"-76.545268652000000","publicwifi":"Y","url":null,"broadband_type_id":null}
{"id":null,"anchorname":"HANALEI COLONY RESORT","address":"57130 KUHIO HWY","bldgnbr":"57130","predir":null,"streetname":"KUHIO","streettype":"HWY","suffdir":null,"city":"HANALEI","state_code":"HI","zip5":"96746","latitude":"22.0657469750000000","longitude":"-159.31924297300000","publicwifi":"U","url":"www.hcr.com","broadband_type_id":6}
{"id":null,"anchorname":"BAYSIDE PEDIATRICS","address":"2568 RIVA RD ANNAPOLIS MD 21401","bldgnbr":"2568","predir":null,"streetname":"RIVA","streettype":"RD","suffdir":null,"city":"ANNAPOLIS","state_code":"MD","zip5":"21401","latitude":"38.9776242920000000","longitude":"-76.552312115000000","publicwifi":"Y","url":null,"broadband_type_id":null}
{"id":null,"anchorname":"CAPITAL DERMATOLOGY","address":"200 HARRY TRUMAN PKWY ANNAPOLIS MD 21401","bldgnbr":"200","predir":null,"streetname":"HARRY TRUMAN","streettype":"PKWY","suffdir":null,"city":"ANNAPOLIS","state_code":"MD","zip5":"21401","latitude":"38.9772086010000000","longitude":"-76.555428283000000","publicwifi":"Y","url":null,"broadband_type_id":null}
{"id":null,"anchorname":"AGRICULTURE, MARYLAND DEPARTMENT OF-(MDA)","address":"50 HARRY S TRUMAN PKWY ANNAPOLIS MD 21401","bldgnbr":"50","predir":null,"streetname":"HARRY S TRUMAN","streettype":"PKWY","suffdir":null,"city":"ANNAPOLIS","state_code":"MD","zip5":"21401","latitude":"38.9822030000000000","longitude":"-76.566345000000000","publicwifi":"U","url":"HTTP://MDA.MARYLAND.GOV/PAGES/HOMEPAGE.ASPX","broadband_type_id":null}
{"id":null,"anchorname":"ANNE ARUNDEL COUNTY SENIOR CENTERS","address":"2666 RIVA RD ANNAPOLIS MD 21401","bldgnbr":"2666","predir":null,"streetname":"RIVA","streettype":"RD","suffdir":null,"city":"ANNAPOLIS","state_code":"MD","zip5":"21401","latitude":"38.9744660000000000","longitude":"-76.560191000000000","publicwifi":"U","url":null,"broadband_type_id":1}
{"id":null,"anchorname":"ARUNDEL COMMUNITY DEVELOPMENT SERVICES","address":"2666 RIVA RD ANNAPOLIS MD 21401","bldgnbr":"2666","predir":null,"streetname":"RIVA","streettype":"RD","suffdir":null,"city":"ANNAPOLIS","state_code":"MD","zip5":"21401","latitude":"38.9744660000000000","longitude":"-76.560191000000000","publicwifi":"U","url":null,"broadband_type_id":6}
{"id":null,"anchorname":"ARUNDEL OLYMPIC SWIMMING CENTER","address":"2690 RIVA RD ANNAPOLIS MD 21401","bldgnbr":"2690","predir":null,"streetname":"RIVA","streettype":"RD","suffdir":null,"city":"ANNAPOLIS","state_code":"MD","zip5":"21401","latitude":"38.9733310000000000","longitude":"-76.562062000000000","publicwifi":"N","url":null,"broadband_type_id":null}
{"id":null,"anchorname":"HANDY-CAB PROGRAM","address":"2666 RIVA RD ANNAPOLIS MD 21401","bldgnbr":"2666","predir":null,"streetname":"RIVA","streettype":"RD","suffdir":null,"city":"ANNAPOLIS","state_code":"MD","zip5":"21401","latitude":"38.9744660000000000","longitude":"-76.560191000000000","publicwifi":"U","url":null,"broadband_type_id":null}
{"id":null,"anchorname":"FOOD LINK","address":"2666 RIVA RD ANNAPOLIS MD 21401","bldgnbr":"2666","predir":null,"streetname":"RIVA","streettype":"RD","suffdir":null,"city":"ANNAPOLIS","state_code":"MD","zip5":"21401","latitude":"38.9744660000000000","longitude":"-76.560191000000000","publicwifi":"U","url":null,"broadband_type_id":null}
{"id":null,"anchorname":"ANNE ARUNDEL CONFLICT RESOLUTION CENTER","address":"2666 RIVA RD ANNAPOLIS MD 21401","bldgnbr":"2666","predir":null,"streetname":"RIVA","streettype":"RD","suffdir":null,"city":"ANNAPOLIS","state_code":"MD","zip5":"21401","latitude":"38.9744660000000000","longitude":"-76.560191000000000","publicwifi":"U","url":null,"broadband_type_id":6}
{"id":null,"anchorname":"PATHWAYS ALCOHOL \u0026 DRUG TREATMENT CENTER","address":"2620 RIVA RD ANNAPOLIS MD 21401","bldgnbr":"2620","predir":null,"streetname":"RIVA","streettype":"RD","suffdir":null,"city":"ANNAPOLIS","state_code":"MD","zip5":"21401","latitude":"38.9759420000000000","longitude":"-76.556602000000000","publicwifi":"U","url":null,"broadband_type_id":null}
{"id":null,"anchorname":"BOARD OF EDUCATION","address":"2644 RIVA RD ANNAPOLIS MD 21401","bldgnbr":"2644","predir":null,"streetname":"RIVA","streettype":"RD","suffdir":null,"city":"ANNAPOLIS","state_code":"MD","zip5":"21401","latitude":"38.9749380000000000","longitude":"-76.559523000000000","publicwifi":"Y","url":"HTTP://WWW.AACPS.ORG/HTML/BOARDOFEDUCATION/DEFAULT.ASP","broadband_type_id":6}
{"id":null,"anchorname":"FRIENDLY VISITORS","address":"2666 RIVA RD ANNAPOLIS MD 21401","bldgnbr":"2666","predir":null,"streetname":"RIVA","streettype":"RD","suffdir":null,"city":"ANNAPOLIS","state_code":"MD","zip5":"21401","latitude":"38.9744660000000000","longitude":"-76.560191000000000","publicwifi":"U","url":null,"broadband_type_id":6}
{"id":null,"anchorname":"HERITAGE OFFICE COMPLEX","address":"2660 RIVA RD ANNAPOLIS MD 21401","bldgnbr":"2660","predir":null,"streetname":"RIVA","streettype":"RD","suffdir":null,"city":"ANNAPOLIS","state_code":"MD","zip5":"21401","latitude":"38.9742000000000000","longitude":"-76.560679000000000","publicwifi":"Y","url":null,"broadband_type_id":1}
{"id":null,"anchorname":"RIVA TERRACE II","address":"2707 RIVA RD ANNAPOLIS MD 21401","bldgnbr":"2707","predir":null,"streetname":"RIVA","streettype":"RD","suffdir":null,"city":"ANNAPOLIS","state_code":"MD","zip5":"21401","latitude":"38.9719919390000000","longitude":"-76.563198170000000","publicwifi":"U","url":null,"broadband_type_id":null}
{"id":null,"anchorname":"ARUNDEL LODGE","address":"2600 SOLOMONS ISLAND RD EDGEWATER MD 21037","bldgnbr":"2600","predir":null,"streetname":"SOLOMONS ISLAND","streettype":"RD","suffdir":null,"city":"EDGEWATER","state_code":"MD","zip5":"21037","latitude":"38.9660440000000000","longitude":"-76.545372000000000","publicwifi":"U","url":null,"broadband_type_id":null}
{"id":null,"anchorname":"POTOMAC PHYSICIANS","address":"2629 RIVA RD ANNAPOLIS MD 21401","bldgnbr":"2629","predir":null,"streetname":"RIVA","streettype":"RD","suffdir":null,"city":"ANNAPOLIS","state_code":"MD","zip5":"21401","latitude":"38.9743081410000000","longitude":"-76.557515157000000","publicwifi":"Y","url":null,"broadband_type_id":null}
{"id":null,"anchorname":"BAYSIDE BEHAVIORAL HEALTH CLINIC","address":"134 HOLIDAY CT ANNAPOLIS MD 21401","bldgnbr":"134","predir":null,"streetname":"HOLIDAY","streettype":"CT","suffdir":null,"city":"ANNAPOLIS","state_code":"MD","zip5":"21401","latitude":"38.9821523250000000","longitude":"-76.545846079000000","publicwifi":"Y","url":null,"broadband_type_id":3}
{"id":null,"anchorname":"AACOUNTY HEALTH DEPARTMENT","address":"3 HARRY S. TRUMAN PKWY ANNAPOLIS MD 21401","bldgnbr":"3","predir":null,"streetname":"HARRY S. TRUMAN","streettype":"PKWY","suffdir":null,"city":"ANNAPOLIS","state_code":"MD","zip5":"21401","latitude":"38.9811597190000000","longitude":"-76.564283827000000","publicwifi":"U","url":null,"broadband_type_id":3}
{"id":null,"anchorname":"ANNE ARUNDEL COUNTY DEPARTMENT OF HEALTH","address":"1 HARRY TRUMAN PKWY ANNAPOLIS MD 21401","bldgnbr":"1","predir":null,"streetname":"HARRY TRUMAN","streettype":"PKWY","suffdir":null,"city":"ANNAPOLIS","state_code":"MD","zip5":"21401","latitude":"38.9811597190000000","longitude":"-76.564283827000000","publicwifi":"U","url":null,"broadband_type_id":3}
{"id":null,"anchorname":"EMERGENCY SHELTER: ANNAPOLIS HIGH SCHOOL","address":"2700 RIVA RD ANNAPOLIS MD 21401","bldgnbr":"2700","predir":null,"streetname":"RIVA","streettype":"RD","suffdir":null,"city":"ANNAPOLIS","state_code":"MD","zip5":"21401","latitude":"38.9726216960000000","longitude":"-76.562998079000000","publicwifi":"N","url":null,"broadband_type_id":6}
{"id":null,"anchorname":"ANNAPOLIS HIGH SCHOOL","address":"2700 RIVA RD ANNAPOLIS MD 21401","bldgnbr":"2700","predir":null,"streetname":"RIVA","streettype":"RD","suffdir":null,"city":"ANNAPOLIS","state_code":"MD","zip5":"21401","latitude":"38.9728030000000000","longitude":"-76.562846000000000","publicwifi":"N","url":"HTTP://WWW.ANNAPOLISHIGHSCHOOL.ORG/","broadband_type_id":6}
{"id":null,"anchorname":"CENTER FOR PUBLIC JUSTICE LIBRARY","address":"2444 SOLOMONS ISLAND RD ANNAPOLIS MD 21401","bldgnbr":"2444","predir":null,"streetname":"SOLOMON'S ISLAND","streettype":"RD","suffdir":null,"city":"ANNAPOLIS","state_code":"MD","zip5":"21401","latitude":"38.9757384830000000","longitude":"-76.540887354000000","publicwifi":"U","url":"HTTP://WWW.CPJUSTICE.ORG/","broadband_type_id":6}
{"id":null,"anchorname":"VOLUNTEER CENTER FOR ANNE ARUNDEL COUNTY","address":"2666 RIVA RD ANNAPOLIS MD 21401","bldgnbr":"2666","predir":null,"streetname":"RIVA","streettype":"RD","suffdir":null,"city":"ANNAPOLIS","state_code":"MD","zip5":"21401","latitude":"38.9744660000000000","longitude":"-76.560191000000000","publicwifi":"U","url":null,"broadband_type_id":1}
{"id":null,"anchorname":"ACTIVE DAY OF ANNAPOLIS","address":"2525 RIVA RD ANNAPOLIS MD 21401","bldgnbr":"2525","predir":null,"streetname":"RIVA","streettype":"RD","suffdir":null,"city":"ANNAPOLIS","state_code":"MD","zip5":"21401","latitude":"38.9781738100000000","longitude":"-76.549515364000000","publicwifi":"U","url":null,"broadband_type_id":6}
{"id":null,"anchorname":"SOMERFORD PL - ANNAPOLIS","address":"2717 RIVA RD ANNAPOLIS MD 21401","bldgnbr":"2717","predir":null,"streetname":"RIVA","streettype":"RD","suffdir":null,"city":"ANNAPOLIS","state_code":"MD","zip5":"21401","latitude":"38.9699411080000000","longitude":"-76.563765754000000","publicwifi":"U","url":null,"broadband_type_id":6}
{"id":null,"anchorname":"ANNE ARUNDEL COUNTY PUBLIC WORKS","address":"2660 RIVA RD ANNAPOLIS MD 21401","bldgnbr":"2662","predir":null,"streetname":"RIVA","streettype":"RD","suffdir":null,"city":"ANNAPOLIS","state_code":"MD","zip5":"21401","latitude":"38.9740710000000000","longitude":"-76.560703000000000","publicwifi":"Y","url":"HTTP://WWW.AACOUNTY.ORG/DPW","broadband_type_id":1}
{"id":null,"anchorname":"PLASTIC \u0026 RECONSTRUCTIVE SURGERY OF ANNAPOLIS","address":"130 ADMIRAL COCHRANE DR ANNAPOLIS MD 21401","bldgnbr":"130","predir":null,"streetname":"ADMIRAL COCHRANE","streettype":"DR","suffdir":null,"city":"ANNAPOLIS","state_code":"MD","zip5":"21401","latitude":"38.9743600070000000","longitude":"-76.551653166000000","publicwifi":"Y","url":null,"broadband_type_id":6}
{"id":null,"anchorname":"SURGERY CENTER OF ANNAPOLIS","address":"130 ADMIRAL COCHRANE DR ANNAPOLIS MD 21401","bldgnbr":"130","predir":null,"streetname":"ADMIRAL COCHRANE","streettype":"DR","suffdir":null,"city":"ANNAPOLIS","state_code":"MD","zip5":"21401","latitude":"38.9744662330000000","longitude":"-76.551682999000000","publicwifi":"U","url":null,"broadband_type_id":6}
{"id":null,"anchorname":"AMERICAN ASSOCIATION OF RETIRED PERSONS, EDGEWATER","address":"10 PYTHIAN DR EDGEWATER MD 21037","bldgnbr":"10","predir":null,"streetname":"PYTHIAN","streettype":"DR","suffdir":null,"city":"EDGEWATER","state_code":"MD","zip5":"21037","latitude":"38.9690040000000000","longitude":"-76.540184000000000","publicwifi":"U","url":null,"broadband_type_id":1}
{"id":null,"anchorname":"RIVA RD SURGICAL CENTER, LLC","address":"2635 RIVA RD ANNAPOLIS MD 21401","bldgnbr":"2635","predir":null,"streetname":"RIVA","streettype":"RD","suffdir":null,"city":"ANNAPOLIS","state_code":"MD","zip5":"21401","latitude":"38.9752554170000000","longitude":"-76.558378797000000","publicwifi":"U","url":null,"broadband_type_id":null}
{"id":null,"anchorname":"HILTON-KAUAI BEACH RESORT","address":"4331 KAUAI BEACH DR","bldgnbr":"4331","predir":null,"streetname":"KAUAI BEACH","streettype":"DR","suffdir":null,"city":"LAWAI","state_code":"HI","zip5":"96766","latitude":"22.0098334280000000","longitude":"-159.33899430600000","publicwifi":"U","url":"www.hilton.com","broadband_type_id":6}
{"id":null,"anchorname":"GINGER COVE","address":"4000 RIVER CRESCENT DR ANNAPOLIS MD 21401","bldgnbr":"4000","predir":null,"streetname":"RIVER CRESCENT","streettype":"DR","suffdir":null,"city":"ANNAPOLIS","state_code":"MD","zip5":"21401","latitude":"38.9606458120000000","longitude":"-76.558839355000000","publicwifi":"U","url":null,"broadband_type_id":null}
{"id":null,"anchorname":"GINGER COVE II","address":"4000 RIVER CRESCENT DR ANNAPOLIS MD 21401","bldgnbr":"4000","predir":null,"streetname":"RIVER CRESCENT","streettype":"DR","suffdir":null,"city":"ANNAPOLIS","state_code":"MD","zip5":"21401","latitude":"38.9606458120000000","longitude":"-76.558839355000000","publicwifi":"U","url":null,"broadband_type_id":null}
{"id":null,"anchorname":"GINGER COVE","address":"4000 RIVER CRESCENT DR ANNAPOLIS MD 21401","bldgnbr":"4000","predir":null,"streetname":"RIVER CRESCENT","streettype":"DR","suffdir":null,"city":"ANNAPOLIS","state_code":"MD","zip5":"21401","latitude":"38.9606458120000000","longitude":"-76.558839355000000","publicwifi":"U","url":null,"broadband_type_id":null}
{"id":null,"anchorname":"GREENFIELD AND CAPUTO","address":"139 OLD SOLOMONS ISLAND RD ANNAPOLIS MD 21401","bldgnbr":"139","predir":null,"streetname":"OLD SOLOMONS ISLAND","streettype":"RD","suffdir":null,"city":"ANNAPOLIS","state_code":"MD","zip5":"21401","latitude":"38.9757785420000000","longitude":"-76.539740795000000","publicwifi":"Y","url":null,"broadband_type_id":null}
{"id":null,"anchorname":"PARVIZ SAHANDY , MD","address":"1831 FOREST DR ANNAPOLIS MD 21401","bldgnbr":"1831","predir":null,"streetname":"FOREST","streettype":"DR","suffdir":null,"city":"ANNAPOLIS","state_code":"MD","zip5":"21401","latitude":"38.9730696260000000","longitude":"-76.525536910000000","publicwifi":"Y","url":null,"broadband_type_id":null}
{"id":null,"anchorname":"POIPU KAPILI RESORT CONDOS","address":"2221 KAPILI RD","bldgnbr":"2221","predir":null,"streetname":"KAPILI","streettype":"RD","suffdir":null,"city":"KOLOA","state_code":"HI","zip5":"96756","latitude":"21.8774004250000000","longitude":"-159.46460099800000","publicwifi":"Y","url":"www.poipukapili.com","broadband_type_id":6}
{"id":null,"anchorname":"SAMARITAN HOUSE","address":"2610 GREENBRIAR LN ANNAPOLIS MD 21401","bldgnbr":"2610","predir":null,"streetname":"GREENBRIAR","streettype":"LN","suffdir":null,"city":"ANNAPOLIS","state_code":"MD","zip5":"21401","latitude":"38.9650370000000000","longitude":"-76.526139000000000","publicwifi":"U","url":null,"broadband_type_id":null}
{"id":null,"anchorname":"MOLOKAI CHRISTIAN ACADEMY","address":"69 PUUPEELUA AVE","bldgnbr":"1","predir":null,"streetname":"PUUPEELUA","streettype":"AVE","suffdir":null,"city":"HOOLEHUA","state_code":"HI","zip5":"96729","latitude":"21.1639072600000000","longitude":"-157.06999218200000","publicwifi":"U","url":null,"broadband_type_id":6}
{"id":null,"anchorname":"CHARLES E RUCH MD","address":"277 CAPE SAINT JOHN RD ANNAPOLIS MD 21401","bldgnbr":"277","predir":null,"streetname":"CAPE SAINT JOHN","streettype":"RD","suffdir":null,"city":"ANNAPOLIS","state_code":"MD","zip5":"21401","latitude":"38.9591605250000000","longitude":"-76.566008949000000","publicwifi":"N","url":null,"broadband_type_id":6}
{"id":null,"anchorname":"REYNALDO RODRIGUEZ","address":"3324 HARNESS CREEK RD ANNAPOLIS MD 21403","bldgnbr":"3224","predir":null,"streetname":"HARNESS CREEK","streettype":"RD","suffdir":null,"city":"ANNAPOLIS","state_code":"MD","zip5":"21403","latitude":"38.9362028050000000","longitude":"-76.513659088000000","publicwifi":"U","url":null,"broadband_type_id":null}
{"id":null,"anchorname":"EASTPORT-ANNAPOLIS NECK BRANCH","address":"269 HILLSMERE DR ANNAPOLIS MD 21403","bldgnbr":"269","predir":null,"streetname":"HILLSMERE","streettype":"DR","suffdir":null,"city":"ANNAPOLIS","state_code":"MD","zip5":"21403","latitude":"38.9455230000000000","longitude":"-76.493672000000000","publicwifi":"Y","url":"HTTP://WWW.AACPL.NET","broadband_type_id":6}
{"id":null,"anchorname":"HEART HOMES AT BAY RIDGE I","address":"3023 ARUNDEL ON THE BAY RD ANNAPOLIS MD 21403","bldgnbr":"3023","predir":null,"streetname":"ARUNDEL ON THE BAY","streettype":"RD","suffdir":null,"city":"ANNAPOLIS","state_code":"MD","zip5":"21403","latitude":"38.9434386650000000","longitude":"-76.485611977000000","publicwifi":"U","url":null,"broadband_type_id":6}
{"id":null,"anchorname":"HEART HOMES AT BAY RIDGE II","address":"3023 ARUNDEL ON THE BAY RD ANNAPOLIS MD 21403","bldgnbr":"3023","predir":null,"streetname":"ARUNDEL ON THE BAY","streettype":"RD","suffdir":null,"city":"ANNAPOLIS","state_code":"MD","zip5":"21403","latitude":"38.9434386650000000","longitude":"-76.485611977000000","publicwifi":"U","url":null,"broadband_type_id":6}
{"id":null,"anchorname":"MARYLAND HIGHER EDUCATION COMMISSION","address":"839 BESTGATE RD ANNAPOLIS MD 21401","bldgnbr":"839","predir":null,"streetname":"BESTGATE","streettype":"RD","suffdir":null,"city":"ANNAPOLIS","state_code":"MD","zip5":"21401","latitude":"38.9923530000000000","longitude":"-76.544531000000000","publicwifi":"U","url":"HTTP://WWW.MHEC.STATE.MD.US/","broadband_type_id":6}
{"id":null,"anchorname":"ANNAPOLIS ENT SURGICAL CENTER","address":"2002 MEDICAL PKWY ANNAPOLIS MD 21401","bldgnbr":"2002","predir":null,"streetname":"MEDICAL","streettype":"PKWY","suffdir":null,"city":"ANNAPOLIS","state_code":"MD","zip5":"21401","latitude":"38.9906435490000000","longitude":"-76.537607269000000","publicwifi":"U","url":null,"broadband_type_id":6}
{"id":null,"anchorname":"US COAST GUARD STATION, THOMAS POINT","address":"3425 THOMAS POINT RD ANNAPOLIS MD 21403","bldgnbr":"3425","predir":null,"streetname":"THOMAS POINT","streettype":"RD","suffdir":null,"city":"ANNAPOLIS","state_code":"MD","zip5":"21403","latitude":"38.9259740000000000","longitude":"-76.474056000000000","publicwifi":"U","url":"HTTP://WWW.USCG.MIL/D5/STAANNAPOLIS/","broadband_type_id":null}
{"id":null,"anchorname":"CHESAPEAKE EYE SURGERY","address":"2002 MEDICAL PKWY ANNAPOLIS MD 21401","bldgnbr":"2002","predir":null,"streetname":"MEDICAL","streettype":"PKWY","suffdir":null,"city":"ANNAPOLIS","state_code":"MD","zip5":"21401","latitude":"38.9906435490000000","longitude":"-76.537607269000000","publicwifi":"U","url":null,"broadband_type_id":6}
{"id":null,"anchorname":"LISA RENFRO SURGERY CENTER, LL","address":"2002 MEDICAL PKWY ANNAPOLIS MD 21401","bldgnbr":"2002","predir":null,"streetname":"MEDICAL","streettype":"PKWY","suffdir":null,"city":"ANNAPOLIS","state_code":"MD","zip5":"21401","latitude":"38.9906435490000000","longitude":"-76.537607269000000","publicwifi":"U","url":null,"broadband_type_id":6}
{"id":null,"anchorname":"ANNE ARUNDEL DIAGNOSTICS INC","address":"2002 MEDICAL PKWY  ANNAPOLIS MD 21401","bldgnbr":"2002","predir":null,"streetname":"MEDICAL","streettype":"PKWY","suffdir":null,"city":"ANNAPOLIS","state_code":"MD","zip5":"21401","latitude":"38.9906435490000000","longitude":"-76.537607269000000","publicwifi":"U","url":null,"broadband_type_id":null}
