{"id":null,"anchorname":"DOH WIC/HCF (SALT LAKE COUNTY HEALTH BLDG) (WAN)","address":"3690 S MAIN ST, SALT LAKE CITY UT 84115","bldgnbr":"3690","predir":"S","streetname":"MAIN","streettype":"ST","suffdir":null,"city":"SALT LAKE CITY","state_code":"UT","zip5":"84115","latitude":"40.6911463200000000","longitude":"-111.89130673400000","publicwifi":"U","url":null,"broadband_type_id":3}
{"id":null,"anchorname":"CITY OF S SALT LAKE FIRE DEPARTMENT STATION 43 (EMS)","address":"3620 S WEST TEMPLE, SOUTH SALT LAKE CITY UT 84115","bldgnbr":"3620","predir":"S","streetname":"WEST TEMPLE","streettype":null,"suffdir":null,"city":"S SALT LAKE CITY","state_code":"UT","zip5":"84115","latitude":"40.6922230150000000","longitude":"-111.89444098200000","publicwifi":"U","url":null,"broadband_type_id":5}
{"id":null,"anchorname":"CITY OF SOUTH SALT LAKE FIRE DEPARTMENT STATION 43","address":"3640 SOUTH WEST TEMPLE, SOUTH SALT LAKE CITY UT 84115","bldgnbr":"3640","predir":"S","streetname":"WEST TEMPLE","streettype":null,"suffdir":null,"city":"SOUTH SALT LAKE CITY","state_code":"UT","zip5":"84115","latitude":"40.6922230150000000","longitude":"-111.89444098200000","publicwifi":"U","url":null,"broadband_type_id":5}
{"id":null,"anchorname":"SALT LAKE COUNTY UNIFIED POLICE DEPARTMENT","address":"3365 S 900 W, SALT LAKE CITY UT 84119","bldgnbr":"3365","predir":"S","streetname":"900","streettype":null,"suffdir":"W","city":"SALT LAKE CITY","state_code":"UT","zip5":"84119","latitude":"40.6986587460000000","longitude":"-111.91630773400000","publicwifi":"U","url":null,"broadband_type_id":4}
{"id":null,"anchorname":"UNIFIED FIRE AUTHORITY EOC","address":"3380 SOUTH 900 WEST, SALT LAKE CITY UT 84119","bldgnbr":"3380","predir":"S","streetname":"900","streettype":null,"suffdir":"W","city":"SALT LAKE CITY","state_code":"UT","zip5":"84119","latitude":"40.6974765610000000","longitude":"-111.91840429800000","publicwifi":"U","url":null,"broadband_type_id":5}
{"id":null,"anchorname":"VALLEY MENTAL HEALTH","address":"3610 SOUTH 1000 WEST, SOUTH SALT LAKE UT 84119","bldgnbr":"3610","predir":"S","streetname":"1000","streettype":null,"suffdir":"W","city":"SOUTH SALT LAKE","state_code":"UT","zip5":"84119","latitude":"40.6941758350000000","longitude":"-111.92030427200000","publicwifi":"U","url":null,"broadband_type_id":3}
{"id":null,"anchorname":"SCHRYVER MEDICAL SALES \u0026 MARKETING INC","address":"3555 SOUTH 700 WEST UNIT 4-C, SALT LAKE CITY UT 84119","bldgnbr":"3555","predir":"S","streetname":"700","streettype":null,"suffdir":"W","city":"SALT LAKE CITY","state_code":"UT","zip5":"84119","latitude":"40.6945255010000000","longitude":"-111.91100824800000","publicwifi":"U","url":null,"broadband_type_id":3}
{"id":null,"anchorname":"DIAGNOSTIC LABORATORIES","address":"3586 SOUTH 500 WEST, SALT LAKE CITY UT 84115","bldgnbr":"3586","predir":"S","streetname":"500","streettype":null,"suffdir":"W","city":"SALT LAKE CITY","state_code":"UT","zip5":"84115","latitude":"40.6934926960000000","longitude":"-111.90565837800000","publicwifi":"U","url":null,"broadband_type_id":3}
{"id":null,"anchorname":"YOUTH EDUCATIONAL SUPPORT SCHOOL (YIC) (UEN)","address":"450 E 3700 S, SALT LAKE CITY UT 84115","bldgnbr":"450","predir":"E","streetname":"3700","streettype":null,"suffdir":"S","city":"SALT LAKE CITY","state_code":"UT","zip5":"84115","latitude":"40.6903749440000000","longitude":"-111.87909650000000","publicwifi":"U","url":null,"broadband_type_id":6}
{"id":null,"anchorname":"LINCOLN SCHOOL (UEN)","address":"450 E 3700 S, SALT LAKE CITY UT 84115","bldgnbr":"450","predir":"E","streetname":"3700","streettype":null,"suffdir":"S","city":"SALT LAKE CITY","state_code":"UT","zip5":"84115","latitude":"40.6903749440000000","longitude":"-111.87909650000000","publicwifi":"U","url":null,"broadband_type_id":6}
{"id":null,"anchorname":"HARTVIGSEN SCHOOL (UEN)","address":"350 E 3605 S, SALT LAKE CITY UT 84115","bldgnbr":"350","predir":"E","streetname":"3605","streettype":null,"suffdir":"S","city":"SALT LAKE CITY","state_code":"UT","zip5":"84115","latitude":"40.6924273800000000","longitude":"-111.88212965000000","publicwifi":"U","url":null,"broadband_type_id":6}
{"id":null,"anchorname":"UTAH INTERNATIONAL CHARTER SCHOOL (UEN)","address":"350 E 3605 S, SOUTH SALT LAKE UT 84115","bldgnbr":"350","predir":"E","streetname":"3605","streettype":null,"suffdir":"S","city":"SOUTH SALT LAKE","state_code":"UT","zip5":"84115","latitude":"40.6927468530000000","longitude":"-111.88165405700000","publicwifi":"U","url":null,"broadband_type_id":6}
{"id":null,"anchorname":"DEPARTMENT OF HEALTH (DHS) (WAN)","address":"3534 S 700 E, SALT LAKE CITY UT 84106","bldgnbr":"3534","predir":"S","streetname":"700","streettype":null,"suffdir":"E","city":"SALT LAKE CITY","state_code":"UT","zip5":"84106","latitude":"40.6944467940000000","longitude":"-111.87151896000000","publicwifi":"U","url":null,"broadband_type_id":3}
{"id":null,"anchorname":"CENTRAL HIGH SCHOOL (UEN)","address":"501 E 3900 S, SOUTH SALT LAKE CITY UT 84106","bldgnbr":"501","predir":"E","streetname":"3900","streettype":null,"suffdir":"S","city":"SOUTH SALT LAKE CITY","state_code":"UT","zip5":"84106","latitude":"40.6881081480000000","longitude":"-111.87580960000000","publicwifi":"U","url":null,"broadband_type_id":6}
{"id":null,"anchorname":"New Mexico Department of Game and Fish - Jackson Lake Wildlife Area","address":"436 Hwy 170","bldgnbr":"436","predir":null,"streetname":"State Highway 170","streettype":null,"suffdir":null,"city":"Farmington","state_code":"NM","zip5":"87401","latitude":"36.8093870000000000","longitude":"-108.22030600000000","publicwifi":"U","url":"http://www.wildlife.state.nm.us/index.htm","broadband_type_id":6}
{"id":null,"anchorname":"SALT LAKE COUNTY EOC (WAN)","address":"3380 S 900 W, SALT LAKE CITY UT 84106","bldgnbr":"3380","predir":"S","streetname":"900","streettype":null,"suffdir":"W","city":"SALT LAKE CITY","state_code":"UT","zip5":"84106","latitude":"40.6979517760000000","longitude":"-111.86566115900000","publicwifi":"U","url":null,"broadband_type_id":1}
{"id":null,"anchorname":"SUMMIT CHRISTIAN ACADEMY","address":"965 E 3370 S, SALT LAKE CITY UT 84106","bldgnbr":"965","predir":"E","streetname":"3370","streettype":null,"suffdir":"S","city":"SALT LAKE CITY","state_code":"UT","zip5":"84106","latitude":"40.6985666280000000","longitude":"-111.86345748200000","publicwifi":"U","url":null,"broadband_type_id":6}
{"id":null,"anchorname":"ACCESS PRIVATE DUTY","address":"3080 S 1300 E RICHMOND STREET #106, SALT LAKE CITY UT 84106","bldgnbr":"3080","predir":"S","streetname":"1300","streettype":null,"suffdir":"E","city":"SALT LAKE CITY","state_code":"UT","zip5":"84106","latitude":"40.7039360610000000","longitude":"-111.85573037400000","publicwifi":"U","url":null,"broadband_type_id":6}
{"id":null,"anchorname":"MILLCREEK BY ENCORE SENIOR LIVING","address":"777 EAST 3900 SOUTH, SALT LAKE CITY UT 84106","bldgnbr":"777","predir":"E","streetname":"3900","streettype":null,"suffdir":"S","city":"SALT LAKE CITY","state_code":"UT","zip5":"84106","latitude":"40.6873911850000000","longitude":"-111.86861576000000","publicwifi":"U","url":null,"broadband_type_id":null}
{"id":null,"anchorname":"MILLCREEK BY ENCORE SENIOR LIVING ALII","address":"777 EAST 3900 SOUTH, SALT LAKE CITY UT 84106","bldgnbr":"777","predir":"E","streetname":"3900","streettype":null,"suffdir":"S","city":"SALT LAKE CITY","state_code":"UT","zip5":"84106","latitude":"40.6873911850000000","longitude":"-111.86861576000000","publicwifi":"U","url":null,"broadband_type_id":null}
{"id":null,"anchorname":"CENTRAL VALLEY DIALYSIS CENTER","address":"880 EAST 3900 SOUTH, SALT LAKE CITY UT 84107","bldgnbr":"880","predir":"E","streetname":"3900","streettype":null,"suffdir":"S","city":"SALT LAKE CITY","state_code":"UT","zip5":"84107","latitude":"40.6869334700000000","longitude":"-111.86630045900000","publicwifi":"U","url":null,"broadband_type_id":6}
{"id":null,"anchorname":"WASATCH WOMEN'S CENTER, INC","address":"3900 S 715 E, SUITE 203, SALT LAKE CITY UT 84106","bldgnbr":"3900","predir":"S","streetname":"715","streettype":null,"suffdir":"E","city":"SALT LAKE CITY","state_code":"UT","zip5":"84106","latitude":"40.6874271270000000","longitude":"-111.87091187300000","publicwifi":"U","url":null,"broadband_type_id":null}
{"id":null,"anchorname":"INDEPENDENT PLUS","address":"777 EAST 3900 SOUTH, SALT LAKE CITY UT 84106","bldgnbr":"777","predir":"E","streetname":"3900","streettype":null,"suffdir":"S","city":"SALT LAKE CITY","state_code":"UT","zip5":"84106","latitude":"40.6873911850000000","longitude":"-111.86861576000000","publicwifi":"U","url":null,"broadband_type_id":null}
{"id":null,"anchorname":"QUALITY SOLACE SERVICES - HOSPICE","address":"888 EAST 3900 SOUTH UNIT B, SALT LAKE CITY UT 84107","bldgnbr":"888","predir":"E","streetname":"3900","streettype":null,"suffdir":"S","city":"SALT LAKE CITY","state_code":"UT","zip5":"84107","latitude":"40.6869292000000000","longitude":"-111.86601708900000","publicwifi":"U","url":null,"broadband_type_id":6}
{"id":null,"anchorname":"NEWCOMER ACADEMY","address":"3900 S 501 E, SALT LAKE CITY UT 84106","bldgnbr":"3900","predir":"S","streetname":"501","streettype":null,"suffdir":"E","city":"SALT LAKE CITY","state_code":"UT","zip5":"84106","latitude":"40.6882290670000000","longitude":"-111.87625758400000","publicwifi":"U","url":null,"broadband_type_id":6}
{"id":null,"anchorname":"NEW LIFE ACADEMY","address":"1255 E 3900 S, SALT LAKE CITY UT 84124","bldgnbr":"1255","predir":"E","streetname":"3900","streettype":null,"suffdir":"S","city":"SALT LAKE CITY","state_code":"UT","zip5":"84124","latitude":"40.6875097440000000","longitude":"-111.85541594900000","publicwifi":"U","url":null,"broadband_type_id":6}
{"id":null,"anchorname":"BEEHIVE SCIENCE \u0026 TECH ACADEMY (BTSA) (UEN)","address":"3098 SOUTH HIGHLAND DR, SUITE 100, SALT LAKE CITY UT 84106","bldgnbr":"3098","predir":"S","streetname":"HIGHLAND","streettype":"DR","suffdir":null,"city":"SALT LAKE CITY","state_code":"UT","zip5":"84106","latitude":"40.7032732020000000","longitude":"-111.85313935400000","publicwifi":"U","url":null,"broadband_type_id":6}
{"id":null,"anchorname":"NIITSUMA LIVING CENTER","address":"4347 SOUTH 700 EAST, SALT LAKE CITY UT 84107","bldgnbr":"4347","predir":"S","streetname":"700","streettype":null,"suffdir":"E","city":"SALT LAKE CITY","state_code":"UT","zip5":"84107","latitude":"40.6769471940000000","longitude":"-111.87124392300000","publicwifi":"U","url":null,"broadband_type_id":null}
{"id":null,"anchorname":"PEAK SPECIALTY GROUP","address":"1220 EAST 3900 SOUTH, SUITE 4D, SALT LAKE CITY UT 84124","bldgnbr":"1220","predir":"E","streetname":"3900","streettype":null,"suffdir":"S","city":"SALT LAKE CITY","state_code":"UT","zip5":"84124","latitude":"40.6860165450000000","longitude":"-111.85624607800000","publicwifi":"U","url":null,"broadband_type_id":null}
{"id":null,"anchorname":"ST MARKS OUTPATIENT SURGERY CENTER","address":"1250 EAST 3900 SOUTH, SUITE 100, SALT LAKE CITY UT 84124","bldgnbr":"1250","predir":"E","streetname":"3900","streettype":null,"suffdir":"S","city":"SALT LAKE CITY","state_code":"UT","zip5":"84124","latitude":"40.6859305470000000","longitude":"-111.85569468800000","publicwifi":"U","url":null,"broadband_type_id":null}
{"id":null,"anchorname":"WASATCH ENDOSCOPY CENTER","address":"1220 EAST 3900 SOUTH, SUITE 1B, SALT LAKE CITY UT 84124","bldgnbr":"1220","predir":"E","streetname":"3900","streettype":null,"suffdir":"S","city":"SALT LAKE CITY","state_code":"UT","zip5":"84124","latitude":"40.6860165450000000","longitude":"-111.85624607800000","publicwifi":"U","url":null,"broadband_type_id":null}
{"id":null,"anchorname":"GARDEN TERRACE ALZHEIMER'S CENTER OF EXCELLENCE","address":"1201 EAST 4500 SOUTH, SALT LAKE CITY UT 84124","bldgnbr":"1201","predir":"E","streetname":"4500","streettype":null,"suffdir":"S","city":"SALT LAKE CITY","state_code":"UT","zip5":"84124","latitude":"40.6746633240000000","longitude":"-111.85692184500000","publicwifi":"U","url":null,"broadband_type_id":null}
{"id":null,"anchorname":"VALLEY MENTAL HEALTH","address":"1141 EAST 3900 SOUTH, SALT LAKE UT 84106","bldgnbr":"1141","predir":"E","streetname":"3900","streettype":null,"suffdir":"S","city":"SALT LAKE","state_code":"UT","zip5":"84106","latitude":"40.6875580970000000","longitude":"-111.85852584000000","publicwifi":"U","url":null,"broadband_type_id":3}
{"id":null,"anchorname":"MILL CREEK SCHOOL (UEN)","address":"3761 S 1100 E, SALT LAKE CITY UT 84106","bldgnbr":"3761","predir":"S","streetname":"1100","streettype":null,"suffdir":"E","city":"SALT LAKE CITY","state_code":"UT","zip5":"84106","latitude":"40.6893347140000000","longitude":"-111.85847254500000","publicwifi":"U","url":null,"broadband_type_id":6}
{"id":null,"anchorname":"THE SURGICARE CENTER OF UTAH","address":"755 EAST 3900 SOUTH, SALT LAKE CITY UT 84107","bldgnbr":"755","predir":"E","streetname":"3900","streettype":null,"suffdir":"S","city":"SALT LAKE CITY","state_code":"UT","zip5":"84107","latitude":"40.6871999880000000","longitude":"-111.86964949800000","publicwifi":"U","url":null,"broadband_type_id":3}
{"id":null,"anchorname":"DESERET CARE CENTER","address":"950 EAST 3300 SOUTH, SALT LAKE CITY UT 84106","bldgnbr":"950","predir":"E","streetname":"3300","streettype":null,"suffdir":"S","city":"SALT LAKE CITY","state_code":"UT","zip5":"84106","latitude":"40.6995763030000000","longitude":"-111.86389154800000","publicwifi":"U","url":null,"broadband_type_id":3}
{"id":null,"anchorname":"ROOSEVELT SCHOOL (UEN)","address":"3225 S 800 E, SALT LAKE CITY UT 84106","bldgnbr":"3225","predir":"S","streetname":"800","streettype":null,"suffdir":"E","city":"SALT LAKE CITY","state_code":"UT","zip5":"84106","latitude":"40.7011973130000000","longitude":"-111.86761376900000","publicwifi":"U","url":null,"broadband_type_id":6}
{"id":null,"anchorname":"VISTACARE HOSPICE - SALT LAKE","address":"111 BRICKYARD ROAD, SUITE 107, SALT LAKE CITY UT 84106","bldgnbr":"111","predir":null,"streetname":"BRICKYARD","streettype":"RD","suffdir":null,"city":"SALT LAKE CITY","state_code":"UT","zip5":"84106","latitude":"40.7021689750000000","longitude":"-111.85906155300000","publicwifi":"U","url":null,"broadband_type_id":3}
{"id":null,"anchorname":"CONCORDIA PREPARATORY SCHOOL","address":"4020 S 900 E, SALT LAKE CITY UT 84107","bldgnbr":"4020","predir":"S","streetname":"900","streettype":null,"suffdir":"E","city":"SALT LAKE CITY","state_code":"UT","zip5":"84107","latitude":"40.6851797200000000","longitude":"-111.86610307800000","publicwifi":"U","url":null,"broadband_type_id":6}
{"id":null,"anchorname":"QUALITY SOLACE SERVICES LIFECARE \u0026 HOSPICE","address":"888 EAST 3900 SOUTH, UNIT B, SALT LAKE CITY UT 84107","bldgnbr":"888","predir":"E","streetname":"3900","streettype":null,"suffdir":"S","city":"SALT LAKE CITY","state_code":"UT","zip5":"84107","latitude":"40.6869292000000000","longitude":"-111.86601708900000","publicwifi":"U","url":null,"broadband_type_id":3}
{"id":null,"anchorname":"WESTERN GOVERNORS UNIVERSITY (UEN)","address":"4001 S 700 E, MURRAY UT 84107","bldgnbr":"4001","predir":"S","streetname":"700","streettype":null,"suffdir":"E","city":"MURRAY","state_code":"UT","zip5":"84107","latitude":"40.6842717140000000","longitude":"-111.86986964900000","publicwifi":"U","url":null,"broadband_type_id":6}
{"id":null,"anchorname":"UNIFIED FIRE AUTHORITY STATION 101","address":"790 EAST 3900 SOUTH, SOUTH SALT LAKE UT 84107","bldgnbr":"790","predir":"E","streetname":"3900","streettype":null,"suffdir":"S","city":"SOUTH SALT LAKE","state_code":"UT","zip5":"84107","latitude":"40.6867047630000000","longitude":"-111.86873134400000","publicwifi":"U","url":null,"broadband_type_id":5}
{"id":null,"anchorname":"SALT LAKE WOUND CARE","address":"3949 S 700 E, STE 180, MURRAY UT 84107","bldgnbr":"3949","predir":"S","streetname":"700","streettype":null,"suffdir":"E","city":"MURRAY","state_code":"UT","zip5":"84107","latitude":"40.6858685240000000","longitude":"-111.87119039500000","publicwifi":"U","url":null,"broadband_type_id":3}
{"id":null,"anchorname":"ST MARKS HOSPITAL","address":"1200 EAST 3900 SOUTH, SALT LAKE CITY UT 84124","bldgnbr":"1200","predir":"E","streetname":"3900","streettype":null,"suffdir":"S","city":"SALT LAKE CITY","state_code":"UT","zip5":"84124","latitude":"40.6859486110000000","longitude":"-111.85684224400000","publicwifi":"U","url":null,"broadband_type_id":3}
{"id":null,"anchorname":"ST MARK'S HOSPITAL WOMEN'S DIAGNOSTIC CENTER","address":"1200 EAST 3900 SOUTH, SALT LAKE CITY UT 84124","bldgnbr":"1200","predir":"E","streetname":"3900","streettype":null,"suffdir":"S","city":"SALT LAKE CITY","state_code":"UT","zip5":"84124","latitude":"40.6859486110000000","longitude":"-111.85684224400000","publicwifi":"U","url":null,"broadband_type_id":3}
{"id":null,"anchorname":"ST. MARKS FAMILY MEDICINE","address":"1250 EAST 3900 SOUTH, #260, SALT LAKE CITY UT 84124","bldgnbr":"1250","predir":"E","streetname":"3900","streettype":null,"suffdir":"S","city":"SALT LAKE CITY","state_code":"UT","zip5":"84124","latitude":"40.6859305470000000","longitude":"-111.85569468800000","publicwifi":"U","url":null,"broadband_type_id":3}
{"id":null,"anchorname":"HOME OPTION PERSONAL CARE","address":"4465 SOUTH 900 EAST, SUITE 150, SALT LAKE CITY UT 84124","bldgnbr":"4465","predir":"S","streetname":"900","streettype":null,"suffdir":"E","city":"SALT LAKE CITY","state_code":"UT","zip5":"84124","latitude":"40.6748771250000000","longitude":"-111.86536072900000","publicwifi":"U","url":null,"broadband_type_id":3}
{"id":null,"anchorname":"MILLCREEK PRIMARY CARE","address":"4465 SOUTH 900 EAST, #200, SALT LAKE CITY UT 84124","bldgnbr":"4465","predir":"S","streetname":"900","streettype":null,"suffdir":"E","city":"SALT LAKE CITY","state_code":"UT","zip5":"84124","latitude":"40.6754618550000000","longitude":"-111.86519470900000","publicwifi":"U","url":null,"broadband_type_id":3}
{"id":null,"anchorname":"New Mexico Department of Workforce Solutions - Las Vegas","address":"833 Grand Ave","bldgnbr":"833","predir":null,"streetname":"GRAND","streettype":"AVE","suffdir":null,"city":"Las Vegas","state_code":"NM","zip5":"87701","latitude":"35.5993045640000000","longitude":"-105.21320548100000","publicwifi":"U","url":"http://www.dws.state.nm.us/index.html","broadband_type_id":4}
{"id":null,"anchorname":"HUMAN SERVICES HOLLADAY (WAN)","address":"645 E 4500 S, MURRAY UT 84107","bldgnbr":"645","predir":"E","streetname":"4500","streettype":null,"suffdir":"S","city":"MURRAY","state_code":"UT","zip5":"84107","latitude":"40.6744817910000000","longitude":"-111.87301197200000","publicwifi":"U","url":null,"broadband_type_id":6}
{"id":null,"anchorname":"BRIGHTSTAR MOUNTAINSIDE","address":"5330 SOUTH 900 EAST, SALT LAKE CITY UT 84107","bldgnbr":"5330","predir":"S","streetname":"900","streettype":null,"suffdir":"E","city":"SALT LAKE CITY","state_code":"UT","zip5":"84107","latitude":"40.6547628460000000","longitude":"-111.86611118200000","publicwifi":"U","url":null,"broadband_type_id":2}
{"id":null,"anchorname":"AGE CONNECTIONS, INC","address":"716 EAST 4500 SOUTH, SALT LAKE CITY UT 84107","bldgnbr":"716","predir":"E","streetname":"4500","streettype":null,"suffdir":"S","city":"SALT LAKE CITY","state_code":"UT","zip5":"84107","latitude":"40.6742012430000000","longitude":"-111.87080777600000","publicwifi":"U","url":null,"broadband_type_id":null}
{"id":null,"anchorname":"HENNEFERS HOME FOR THE ELDERLY","address":"1200 EAST 4500 SOUTH, SALT LAKE CITY UT 84117","bldgnbr":"1200","predir":"E","streetname":"4500","streettype":null,"suffdir":"S","city":"SALT LAKE CITY","state_code":"UT","zip5":"84117","latitude":"40.6739908510000000","longitude":"-111.85685868800000","publicwifi":"U","url":null,"broadband_type_id":null}
{"id":null,"anchorname":"THE WELLINGTON","address":"4522 SOUTH 1300 EAST, SALT LAKE CITY UT 84117","bldgnbr":"4522","predir":"S","streetname":"1300","streettype":null,"suffdir":"E","city":"SALT LAKE CITY","state_code":"UT","zip5":"84117","latitude":"40.6735481040000000","longitude":"-111.85477709500000","publicwifi":"U","url":null,"broadband_type_id":null}
{"id":null,"anchorname":"UTAH VIRTUAL ACADEMY (UEN)","address":"310 E 4500 S, MURRAY UT 84107","bldgnbr":"310","predir":"E","streetname":"4500","streettype":null,"suffdir":"S","city":"MURRAY","state_code":"UT","zip5":"84107","latitude":"40.6739476420000000","longitude":"-111.88192933700000","publicwifi":"U","url":null,"broadband_type_id":6}
{"id":null,"anchorname":"MOUNT VERNON ACADEMY","address":"184 E VINE ST, MURRAY UT 84107","bldgnbr":"184","predir":"E","streetname":"VINE","streettype":"ST","suffdir":null,"city":"MURRAY","state_code":"UT","zip5":"84107","latitude":"40.6634152390000000","longitude":"-111.88634154200000","publicwifi":"U","url":null,"broadband_type_id":6}
{"id":null,"anchorname":"COTTONWOOD CREEK","address":"1245 EAST MURRAY - HOLLADAY ROAD, SALT LAKE CITY UT 84117","bldgnbr":"1245","predir":"E","streetname":"MURRAY - HOLLADAY","streettype":"RD","suffdir":null,"city":"SALT LAKE CITY","state_code":"UT","zip5":"84117","latitude":"40.6658557350000000","longitude":"-111.85611629400000","publicwifi":"U","url":null,"broadband_type_id":null}
{"id":null,"anchorname":"WASATCH ARTIFICIAL KIDNEY CENTER","address":"650 EAST 4500 SOUTH, SUITE 150, MURRAY UT 84107","bldgnbr":"650","predir":"E","streetname":"4500","streettype":null,"suffdir":"S","city":"MURRAY","state_code":"UT","zip5":"84107","latitude":"40.6742113770000000","longitude":"-111.87291343300000","publicwifi":"U","url":null,"broadband_type_id":null}
{"id":null,"anchorname":"SL CAP HEAD START- HJ SCHULTZ (UEN)","address":"336 E 3900 S, SALT LAKE CITY UT 84107","bldgnbr":"336","predir":"E","streetname":"3900","streettype":null,"suffdir":"S","city":"SALT LAKE CITY","state_code":"UT","zip5":"84107","latitude":"40.6867996740000000","longitude":"-111.88164170800000","publicwifi":"U","url":null,"broadband_type_id":null}
{"id":null,"anchorname":"INSPIRATION HOSPICE, LLC","address":"835 EAST 4800 SOUTH, SUITE 110, MURRAY UT 84107","bldgnbr":"835","predir":"E","streetname":"4800","streettype":null,"suffdir":"S","city":"MURRAY","state_code":"UT","zip5":"84107","latitude":"40.6649353260000000","longitude":"-111.86783302200000","publicwifi":"U","url":null,"broadband_type_id":null}
{"id":null,"anchorname":"SILVERADO HOSPICE OF UTAH","address":"855 EAST 4800 SOUTH, SUITE 240, MURRAY UT 84107","bldgnbr":"855","predir":"E","streetname":"4800","streettype":null,"suffdir":"S","city":"MURRAY","state_code":"UT","zip5":"84107","latitude":"40.6656606060000000","longitude":"-111.86640595200000","publicwifi":"U","url":null,"broadband_type_id":null}
{"id":null,"anchorname":"REHAB WITHOUT WALLS","address":"4500 S 261 E, SALT LAKE CITY UT 84107","bldgnbr":"4500","predir":"S","streetname":"261","streettype":null,"suffdir":"E","city":"SALT LAKE CITY","state_code":"UT","zip5":"84107","latitude":"40.6745593480000000","longitude":"-111.88407014600000","publicwifi":"U","url":null,"broadband_type_id":null}
{"id":null,"anchorname":"SUMMIT HOSPICE","address":"5882 SOUTH 900 EAST, SUITE 101, SALT LAKE CITY UT 84121","bldgnbr":"5882","predir":"S","streetname":"900","streettype":null,"suffdir":"E","city":"SALT LAKE CITY","state_code":"UT","zip5":"84121","latitude":"40.6445718240000000","longitude":"-111.86613636500000","publicwifi":"U","url":null,"broadband_type_id":null}
{"id":null,"anchorname":"COTTONWOOD FAMILY PRACTICE","address":"5872 SOUTH 900 EAST, SALT LAKE UT 84107","bldgnbr":"5872","predir":"S","streetname":"900","streettype":null,"suffdir":"E","city":"SALT LAKE","state_code":"UT","zip5":"84107","latitude":"40.6434584710000000","longitude":"-111.86633721800000","publicwifi":"U","url":null,"broadband_type_id":null}
{"id":null,"anchorname":"MURRY BRANCH POST OFFICE","address":"4989 S STATE ST, MURRAY UT 84107","bldgnbr":"4989","predir":"S","streetname":"STATE","streettype":"ST","suffdir":null,"city":"MURRAY","state_code":"UT","zip5":"84107","latitude":"40.6632961930000000","longitude":"-111.88810562000000","publicwifi":"N","url":null,"broadband_type_id":null}
{"id":null,"anchorname":"MURRAY ADULT TRANSITION","address":"147 E 5065 S, MURRAY UT 84107","bldgnbr":"147","predir":"E","streetname":"5065","streettype":null,"suffdir":"S","city":"MURRAY","state_code":"UT","zip5":"84107","latitude":"40.6615490480000000","longitude":"-111.88690064200000","publicwifi":"U","url":null,"broadband_type_id":null}
{"id":null,"anchorname":"ASSOCIATION FOR UTAH COMMUNITY HEALTH","address":"860 E 4500 S, SALT LAKE CITY UT 84107","bldgnbr":"860","predir":"E","streetname":"4500","streettype":null,"suffdir":"S","city":"SALT LAKE CITY","state_code":"UT","zip5":"84107","latitude":"40.6739742370000000","longitude":"-111.86636401000000","publicwifi":"U","url":null,"broadband_type_id":3}
{"id":null,"anchorname":"PREMIER HOME HEALTH","address":"716 EAST 4500 SOUTH, SUITE N242, MURRAY UT 84107","bldgnbr":"716","predir":"E","streetname":"4500","streettype":null,"suffdir":"S","city":"MURRAY","state_code":"UT","zip5":"84107","latitude":"40.6742012430000000","longitude":"-111.87080777600000","publicwifi":"U","url":null,"broadband_type_id":3}
{"id":null,"anchorname":"WILLOW WOOD CARE CENTER","address":"1205 EAST 4725 SOUTH, SALT LAKE CITY UT 84117","bldgnbr":"1205","predir":"E","streetname":"4725","streettype":null,"suffdir":"S","city":"SALT LAKE CITY","state_code":"UT","zip5":"84117","latitude":"40.6676244930000000","longitude":"-111.85720795900000","publicwifi":"U","url":null,"broadband_type_id":3}
{"id":null,"anchorname":"PARAMOUNT HEALTH AND REHABILITATION","address":"4035 SOUTH 500 EAST, SALT LAKE CITY UT 84107","bldgnbr":"4035","predir":"S","streetname":"500","streettype":null,"suffdir":"E","city":"SALT LAKE CITY","state_code":"UT","zip5":"84107","latitude":"40.6839631150000000","longitude":"-111.87620253700000","publicwifi":"U","url":null,"broadband_type_id":3}
{"id":null,"anchorname":"JAMES E MOSS SCHOOL (UEN)","address":"4399 S 500 E, SALT LAKE CITY UT 84107","bldgnbr":"4399","predir":"S","streetname":"500","streettype":null,"suffdir":"E","city":"SALT LAKE CITY","state_code":"UT","zip5":"84107","latitude":"40.6760106580000000","longitude":"-111.87603013500000","publicwifi":"U","url":null,"broadband_type_id":6}
{"id":null,"anchorname":"MAXIM HEALTHCARE SERVICES, INC","address":"655 EAST 4500 SOUTH, SALT LAKE CITY UT 84107","bldgnbr":"655","predir":"E","streetname":"4500","streettype":null,"suffdir":"S","city":"SALT LAKE CITY","state_code":"UT","zip5":"84107","latitude":"40.6744814540000000","longitude":"-111.87280632400000","publicwifi":"U","url":null,"broadband_type_id":3}
{"id":null,"anchorname":"AGA HOME HEALTH, INC","address":"220 EAST 3900 SOUTH, UNIT 14, MURRAY UT 84107","bldgnbr":"220","predir":"E","streetname":"3900","streettype":null,"suffdir":"S","city":"MURRAY","state_code":"UT","zip5":"84107","latitude":"40.6869293950000000","longitude":"-111.88492697800000","publicwifi":"U","url":null,"broadband_type_id":3}
{"id":null,"anchorname":"CAREGIVER SUPPORT NETWORK, INC","address":"310 EAST 4500 SOUTH, SUITE 200, MURRAY UT 84107","bldgnbr":"310","predir":"E","streetname":"4500","streettype":null,"suffdir":"S","city":"MURRAY","state_code":"UT","zip5":"84107","latitude":"40.6741830900000000","longitude":"-111.88248831200000","publicwifi":"U","url":null,"broadband_type_id":3}
{"id":null,"anchorname":"ST MARKS HOSPITAL SURGERY CENTER AT 45TH SOUTH","address":"348 EAST 4500 SOUTH, SUITE 100, MURRAY UT 84107","bldgnbr":"348","predir":"E","streetname":"4500","streettype":null,"suffdir":"S","city":"MURRAY","state_code":"UT","zip5":"84107","latitude":"40.6741954760000000","longitude":"-111.88096083200000","publicwifi":"U","url":null,"broadband_type_id":3}
{"id":null,"anchorname":"CAREGIVER SUPPORT NETWORK HOSPICE","address":"310 EAST 4500 SOUTH, MURRAY UT 84107","bldgnbr":"310","predir":"E","streetname":"4500","streettype":null,"suffdir":"S","city":"MURRAY","state_code":"UT","zip5":"84107","latitude":"40.6741830900000000","longitude":"-111.88248831200000","publicwifi":"U","url":null,"broadband_type_id":3}
{"id":null,"anchorname":"THE PERSONAL CARE AGENCY","address":"310 EAST 4500 SOUTH, SUITE 200, MURRAY UT 84107","bldgnbr":"310","predir":"E","streetname":"4500","streettype":null,"suffdir":"S","city":"MURRAY","state_code":"UT","zip5":"84107","latitude":"40.6741830900000000","longitude":"-111.88248831200000","publicwifi":"U","url":null,"broadband_type_id":3}
{"id":null,"anchorname":"INSPIRATION HOME HEALTH LLC","address":"835 EAST 4800 SOUTH, #110, MURRAY UT 84107","bldgnbr":"835","predir":"E","streetname":"4800","streettype":null,"suffdir":"S","city":"MURRAY","state_code":"UT","zip5":"84107","latitude":"40.6649353260000000","longitude":"-111.86783302200000","publicwifi":"U","url":null,"broadband_type_id":3}
{"id":null,"anchorname":"RESCARE HOMECARE","address":"261 EAST 4500 SOUTH, SALT LAKE CITY UT 84107","bldgnbr":"261","predir":"E","streetname":"4500","streettype":null,"suffdir":"S","city":"SALT LAKE CITY","state_code":"UT","zip5":"84107","latitude":"40.6745593480000000","longitude":"-111.88407014600000","publicwifi":"U","url":null,"broadband_type_id":3}
{"id":null,"anchorname":"PARKSIDE SCHOOL (UEN)","address":"5175 S 495 E, MURRAY UT 84107","bldgnbr":"5175","predir":"S","streetname":"495","streettype":null,"suffdir":"E","city":"MURRAY","state_code":"UT","zip5":"84107","latitude":"40.6584147580000000","longitude":"-111.87701950400000","publicwifi":"U","url":null,"broadband_type_id":6}
{"id":null,"anchorname":"BRIGHTSTAR MOUNTAINSIDE - PERSONAL CARE","address":"5330 SOUTH 900 EAST, SUITE 260, SALT LAKE CITY UT 84107","bldgnbr":"5330","predir":"S","streetname":"900","streettype":null,"suffdir":"E","city":"SALT LAKE CITY","state_code":"UT","zip5":"84107","latitude":"40.6547628460000000","longitude":"-111.86611118200000","publicwifi":"U","url":null,"broadband_type_id":3}
{"id":null,"anchorname":"ROCKY MOUNTAIN CARE - MURRAY","address":"835 EAST VINE STREET, MURRAY UT 84121","bldgnbr":"835","predir":"E","streetname":"VINE","streettype":"ST","suffdir":null,"city":"MURRAY","state_code":"UT","zip5":"84121","latitude":"40.6440405760000000","longitude":"-111.86653373700000","publicwifi":"U","url":null,"broadband_type_id":3}
{"id":null,"anchorname":"SUMMIT HOME HEALTH","address":"5882 SOUTH 900 EAST, SUITE 101, SALT LAKE CITY UT 84121","bldgnbr":"5882","predir":"S","streetname":"900","streettype":null,"suffdir":"E","city":"SALT LAKE CITY","state_code":"UT","zip5":"84121","latitude":"40.6445718240000000","longitude":"-111.86613636500000","publicwifi":"U","url":null,"broadband_type_id":3}
{"id":null,"anchorname":"SALT LAKE VALLEY HEALTH DEPARTMENT (UTN)","address":"788 EAST WOODOAK LANE, MURRAY UT 84107","bldgnbr":"788","predir":"E","streetname":"WOODOAK","streettype":"LN","suffdir":null,"city":"MURRAY","state_code":"UT","zip5":"84107","latitude":"40.6535096150000000","longitude":"-111.86905410000000","publicwifi":"U","url":"http://www.utahtelehealth.net/","broadband_type_id":3}
{"id":null,"anchorname":"SALT LAKE VALLEY HEALTH DEPARTMENT","address":"788 EAST WOODOAK LANE, MURRAY UT 84107","bldgnbr":"788","predir":"E","streetname":"WOODOAK","streettype":"LN","suffdir":null,"city":"MURRAY","state_code":"UT","zip5":"84107","latitude":"40.6535096150000000","longitude":"-111.86905410000000","publicwifi":"U","url":null,"broadband_type_id":3}
{"id":null,"anchorname":"New Mexico Mounted Patrol - Troop 3","address":"301 Mills Avenue","bldgnbr":"301","predir":null,"streetname":"MILLS","streettype":"AVE","suffdir":null,"city":"Las Vegas","state_code":"NM","zip5":"87701","latitude":"35.6067140820000000","longitude":"-105.21589178100000","publicwifi":"U","url":"http://www.dps.nm.org/lawEnforcement/mountedPatrol/index.php","broadband_type_id":4}
{"id":null,"anchorname":"WESTERN STATES WATER COUNCIL (WAN)","address":"5296 COMMERCE DR, MURRAY UT 84107","bldgnbr":"5296","predir":null,"streetname":"COMMERCE","streettype":"DR","suffdir":null,"city":"MURRAY","state_code":"UT","zip5":"84107","latitude":"40.6550618370000000","longitude":"-111.90010499900000","publicwifi":"U","url":null,"broadband_type_id":6}
{"id":null,"anchorname":"AISU (UEN)","address":"4998 S GALLERIA (360 W), MURRAY UT 84123","bldgnbr":"4998","predir":"S","streetname":"GALLERIA","streettype":null,"suffdir":null,"city":"MURRAY","state_code":"UT","zip5":"84123","latitude":"40.6627309200000000","longitude":"-111.90329266400000","publicwifi":"U","url":null,"broadband_type_id":6}
{"id":null,"anchorname":"ASPEN RIDGE WEST TRANSITIONAL REHAB","address":"5323 SOUTH MURRAY BOULEVARD, MURRAY UT 84123","bldgnbr":"5323","predir":"S","streetname":"MURRAY","streettype":"BLVD","suffdir":null,"city":"MURRAY","state_code":"UT","zip5":"84123","latitude":"40.6552253530000000","longitude":"-111.91001057300000","publicwifi":"U","url":null,"broadband_type_id":6}
{"id":null,"anchorname":"RIVERVIEW JR HIGH (UEN)","address":"751 W TRIPP LN, MURRAY UT 84123","bldgnbr":"751","predir":"W","streetname":"TRIPP","streettype":"LN","suffdir":null,"city":"MURRAY","state_code":"UT","zip5":"84123","latitude":"40.6451683040000000","longitude":"-111.91170251700000","publicwifi":"U","url":null,"broadband_type_id":6}
{"id":null,"anchorname":"ABC #9 (WAN)","address":"5056 S STATE ST, MURRAY UT 84107","bldgnbr":"5056","predir":"S","streetname":"STATE","streettype":"ST","suffdir":null,"city":"MURRAY","state_code":"UT","zip5":"84107","latitude":"40.6617420690000000","longitude":"-111.88846344400000","publicwifi":"U","url":null,"broadband_type_id":null}
{"id":null,"anchorname":"MURRAY HIGH (UEN)","address":"5440 S STATE ST, MURRAY UT 84107","bldgnbr":"5440","predir":"S","streetname":"STATE","streettype":"ST","suffdir":null,"city":"MURRAY","state_code":"UT","zip5":"84107","latitude":"40.6543481900000000","longitude":"-111.88962994500000","publicwifi":"U","url":null,"broadband_type_id":6}
{"id":null,"anchorname":"A STEP FORWARD","address":"5284 SOUTH COMMERCE DRIVE, SUITE C-124, SALT LAKE CITY UT 84107","bldgnbr":"5284","predir":"S","streetname":"COMMERCE","streettype":"DR","suffdir":null,"city":"SALT LAKE CITY","state_code":"UT","zip5":"84107","latitude":"40.6553742350000000","longitude":"-111.90011913400000","publicwifi":"U","url":null,"broadband_type_id":null}
{"id":null,"anchorname":"A STEP FORWARD HOSPICE","address":"5284 SOUTH COMMERCE DRIVE, SUITE C-124, MURRAY UT 84107","bldgnbr":"5284","predir":"S","streetname":"COMMERCE","streettype":"DR","suffdir":null,"city":"MURRAY","state_code":"UT","zip5":"84107","latitude":"40.6553742350000000","longitude":"-111.90011913400000","publicwifi":"U","url":null,"broadband_type_id":null}
{"id":null,"anchorname":"ATTORNEY GENERAL (WAN)","address":"5272 COLLEGE DR, MURRAY UT 84123","bldgnbr":"5272","predir":null,"streetname":"COLLEGE","streettype":"DR","suffdir":null,"city":"MURRAY","state_code":"UT","zip5":"84123","latitude":"40.6563932550000000","longitude":"-111.90569917800000","publicwifi":"U","url":null,"broadband_type_id":null}
{"id":null,"anchorname":"HAVEN HOSPICE","address":"5292 SOUTH COLLEGE DRIVE, SUITE 304, MURRAY UT 84123","bldgnbr":"5292","predir":"S","streetname":"COLLEGE","streettype":"DR","suffdir":null,"city":"MURRAY","state_code":"UT","zip5":"84123","latitude":"40.6559148490000000","longitude":"-111.90542987100000","publicwifi":"U","url":null,"broadband_type_id":null}
{"id":null,"anchorname":"HAVEN PRIVATE DUTY","address":"5292 SOUTH COLLEGE DRIVE, SUITE 304, MURRAY UT 84123","bldgnbr":"5292","predir":"S","streetname":"COLLEGE","streettype":"DR","suffdir":null,"city":"MURRAY","state_code":"UT","zip5":"84123","latitude":"40.6559148490000000","longitude":"-111.90542987100000","publicwifi":"U","url":null,"broadband_type_id":null}
{"id":null,"anchorname":"ENCOMPASS HOSPICE OF UTAH","address":"990 WEST 5350 SOUTH, MURRAY UT 84123","bldgnbr":"990","predir":"W","streetname":"5350","streettype":null,"suffdir":"S","city":"MURRAY","state_code":"UT","zip5":"84123","latitude":"40.6537124030000000","longitude":"-111.91981651500000","publicwifi":"U","url":null,"broadband_type_id":null}
{"id":null,"anchorname":"HARMONY HOSPICE","address":"5650 GREEN STREET, MURRAY UT 84123","bldgnbr":"5650","predir":null,"streetname":"GREEN","streettype":"ST","suffdir":null,"city":"MURRAY","state_code":"UT","zip5":"84123","latitude":"40.6486725920000000","longitude":"-111.90321672800000","publicwifi":"U","url":null,"broadband_type_id":null}
{"id":null,"anchorname":"HARMONY CUSTOM ADVANTAGE","address":"5650 SOUTH GREEN STREET, MURRAY UT 84123","bldgnbr":"5650","predir":"S","streetname":"GREEN","streettype":"ST","suffdir":null,"city":"MURRAY","state_code":"UT","zip5":"84123","latitude":"40.6486725920000000","longitude":"-111.90321672800000","publicwifi":"U","url":null,"broadband_type_id":null}
{"id":null,"anchorname":"HP SECTION 19/HP TRAINING (WAN)","address":"5757 COMMERCE DR, MURRAY UT 84107","bldgnbr":"5757","predir":null,"streetname":"COMMERCE","streettype":"DR","suffdir":null,"city":"MURRAY","state_code":"UT","zip5":"84107","latitude":"40.6461173740000000","longitude":"-111.90163919100000","publicwifi":"U","url":null,"broadband_type_id":null}
{"id":null,"anchorname":"MURRAY SCHOOL DISTRICT OFFICE (UEN)","address":"147 E 5065 S, MURRAY UT 84107","bldgnbr":"147","predir":"E","streetname":"5065","streettype":null,"suffdir":"S","city":"MURRAY","state_code":"UT","zip5":"84107","latitude":"40.6615208200000000","longitude":"-111.88698674400000","publicwifi":"U","url":null,"broadband_type_id":6}
{"id":null,"anchorname":"INTERMOUNTAIN MEDICAL CENTER","address":"5121 SOUTH COTTONWOOD STREET, MURRAY UT 84107","bldgnbr":"5121","predir":"S","streetname":"COTTONWOOD","streettype":"ST","suffdir":null,"city":"MURRAY","state_code":"UT","zip5":"84107","latitude":"40.6601098710000000","longitude":"-111.89164453500000","publicwifi":"U","url":null,"broadband_type_id":3}
{"id":null,"anchorname":"INTERMOUNTAIN MEDICAL CENTER","address":"5121 S COTTONWOOD STREET, MURRAY UT 84107","bldgnbr":"5121","predir":"S","streetname":"COTTONWOOD","streettype":"ST","suffdir":null,"city":"MURRAY","state_code":"UT","zip5":"84107","latitude":"40.6601098710000000","longitude":"-111.89164453500000","publicwifi":"U","url":null,"broadband_type_id":3}
{"id":null,"anchorname":"INTERMOUNTAIN MEDICAL CENTER MAMMOGRAPHY","address":"5121 SOUTH COTTONWOOD STREET, MURRAY UT 84107","bldgnbr":"5121","predir":"S","streetname":"COTTONWOOD","streettype":"ST","suffdir":null,"city":"MURRAY","state_code":"UT","zip5":"84107","latitude":"40.6601098710000000","longitude":"-111.89164453500000","publicwifi":"U","url":null,"broadband_type_id":3}
{"id":null,"anchorname":"MURRAY CITY FIRE DEPARTMENT STATION 81 - HEADQUARTERS (EMS)","address":"40 E 4800 S, MURRAY UT 84107","bldgnbr":"40","predir":"E","streetname":"4800","streettype":null,"suffdir":"S","city":"MURRAY","state_code":"UT","zip5":"84107","latitude":"40.6665834960000000","longitude":"-111.89036631200000","publicwifi":"U","url":null,"broadband_type_id":5}
{"id":null,"anchorname":"MURRAY CITY FIRE DEPARTMENT STATION 81 - HEADQUARTERS","address":"40 EAST 4800 SOUTH, MURRAY UT 84107","bldgnbr":"40","predir":"E","streetname":"4800","streettype":null,"suffdir":"S","city":"MURRAY","state_code":"UT","zip5":"84107","latitude":"40.6665834960000000","longitude":"-111.89036631200000","publicwifi":"U","url":null,"broadband_type_id":5}
{"id":null,"anchorname":"STEVENS HENAGER COLLEGE","address":"1181 S GLENDALE DR, SALT LAKE CITY UT 84123","bldgnbr":"1181","predir":"S","streetname":"GLENDALE","streettype":"DR","suffdir":null,"city":"SALT LAKE CITY","state_code":"UT","zip5":"84123","latitude":"40.6595905730000000","longitude":"-111.90205327200000","publicwifi":"U","url":null,"broadband_type_id":6}
{"id":null,"anchorname":"STATE FIRE MARSHAL","address":"5272 S COLLEGE DR W, MURRAY UT 84123","bldgnbr":"5272","predir":"S","streetname":"COLLEGE","streettype":"DR","suffdir":null,"city":"MURRAY","state_code":"UT","zip5":"84123","latitude":"40.6562235490000000","longitude":"-111.90606464400000","publicwifi":"U","url":null,"broadband_type_id":5}
{"id":null,"anchorname":"HAVEN HOME HEALTH","address":"5292 SOUTH COLLEGE DRIVE, MURRAY UT 84123","bldgnbr":"5292","predir":"S","streetname":"COLLEGE","streettype":"DR","suffdir":null,"city":"MURRAY","state_code":"UT","zip5":"84123","latitude":"40.6559148490000000","longitude":"-111.90542987100000","publicwifi":"U","url":null,"broadband_type_id":3}
{"id":null,"anchorname":"R AND L AT HOME PERSONAL CARE","address":"5242 COLLEGE DRIVE, SUITE 210, MURRAY UT 84123","bldgnbr":"5242","predir":null,"streetname":"COLLEGE","streettype":"DR","suffdir":null,"city":"MURRAY","state_code":"UT","zip5":"84123","latitude":"40.6570792530000000","longitude":"-111.90586093300000","publicwifi":"U","url":null,"broadband_type_id":3}
{"id":null,"anchorname":"ASPEN RIDGE HOME HEALTH","address":"5323 SOUTH MURRAY BOULEVARD, MURRAY UT 84123","bldgnbr":"5323","predir":"S","streetname":"MURRAY","streettype":"BLVD","suffdir":null,"city":"MURRAY","state_code":"UT","zip5":"84123","latitude":"40.6552253530000000","longitude":"-111.91001057300000","publicwifi":"U","url":null,"broadband_type_id":3}
{"id":null,"anchorname":"ENCOMPASS HOME HEALTH \u0026 HOSPICE OF UTAH","address":"990 W 5370 S, MURRAY UT 84123","bldgnbr":"990","predir":"W","streetname":"5370","streettype":null,"suffdir":"S","city":"MURRAY","state_code":"UT","zip5":"84123","latitude":"40.6537124030000000","longitude":"-111.91981651500000","publicwifi":"U","url":null,"broadband_type_id":3}
{"id":null,"anchorname":"HORIZON SCHOOL (UEN)","address":"5180 S 700 W, MURRAY UT 84123","bldgnbr":"5180","predir":"S","streetname":"700","streettype":null,"suffdir":"W","city":"MURRAY","state_code":"UT","zip5":"84123","latitude":"40.6589247140000000","longitude":"-111.91064178600000","publicwifi":"U","url":null,"broadband_type_id":6}
{"id":null,"anchorname":"HARMONY HOME HEALTH SERVICES, LLC","address":"5650 SOUTH GREEN STREET, MURRAY UT 84123","bldgnbr":"5650","predir":"S","streetname":"GREEN","streettype":"ST","suffdir":null,"city":"MURRAY","state_code":"UT","zip5":"84123","latitude":"40.6486725920000000","longitude":"-111.90321672800000","publicwifi":"U","url":null,"broadband_type_id":3}
{"id":null,"anchorname":"GRANT SCHOOL (UEN)","address":"662 W 6140 S, MURRAY UT 84123","bldgnbr":"662","predir":"W","streetname":"6140","streettype":null,"suffdir":"S","city":"MURRAY","state_code":"UT","zip5":"84123","latitude":"40.6375948920000000","longitude":"-111.90894225600000","publicwifi":"U","url":null,"broadband_type_id":6}
{"id":null,"anchorname":"MURRAY CITY FIRE DEPARTMENT STATION 83 (EMS)","address":"484 W 5900 S, MURRAY UT 84123","bldgnbr":"851","predir":"W","streetname":"BULLION","streettype":"ST","suffdir":null,"city":"MURRAY","state_code":"UT","zip5":"84123","latitude":"40.6432351230000000","longitude":"-111.90395922200000","publicwifi":"U","url":null,"broadband_type_id":5}
{"id":null,"anchorname":"MURRAY POLICE DEPARTMENT SPECIAL OPERATIONS","address":"851 W BULLION ST, MURRAY UT 84123","bldgnbr":"851","predir":"W","streetname":"BULLION","streettype":"ST","suffdir":null,"city":"MURRAY","state_code":"UT","zip5":"84123","latitude":"40.6485998200000000","longitude":"-111.91492030800000","publicwifi":"U","url":null,"broadband_type_id":4}
{"id":null,"anchorname":"MURRAY CITY FIRE DEPARTMENT STATION 83","address":"484 W 5900 S, MURRAY UT 84123","bldgnbr":"484","predir":"W","streetname":"5900","streettype":null,"suffdir":"S","city":"MURRAY","state_code":"UT","zip5":"84123","latitude":"40.6432351230000000","longitude":"-111.90395922200000","publicwifi":"U","url":null,"broadband_type_id":5}
{"id":null,"anchorname":"VIEWMONT SCHOOL (UEN)","address":"745 W 5720 S, MURRAY UT 84123","bldgnbr":"745","predir":"W","streetname":"5720","streettype":null,"suffdir":"S","city":"MURRAY","state_code":"UT","zip5":"84123","latitude":"40.6470310820000000","longitude":"-111.91161432600000","publicwifi":"U","url":null,"broadband_type_id":6}
{"id":null,"anchorname":"UDOT MAINTENANCE SHED (WAN)","address":"5823 S COMMERCE DR, MURRAY UT 84107","bldgnbr":"5823","predir":"S","streetname":"COMMERCE","streettype":"DR","suffdir":null,"city":"MURRAY","state_code":"UT","zip5":"84107","latitude":"40.6447210570000000","longitude":"-111.90178668500000","publicwifi":"U","url":null,"broadband_type_id":null}
{"id":null,"anchorname":"Luis E. Armijo Elementary","address":"600 Porter Ave","bldgnbr":"600","predir":null,"streetname":"Porter","streettype":"Ave","suffdir":null,"city":"Las Vegas","state_code":"NM","zip5":"87701","latitude":"35.5985468140000000","longitude":"-105.23875712100000","publicwifi":"U","url":"http://wlvs.aes.schooldesk.net/","broadband_type_id":6}
{"id":null,"anchorname":"ENLIGHTENED DAYS, LP","address":"6100 S 5 E, MURRAY UT 84107","bldgnbr":"6100","predir":"S","streetname":"5","streettype":null,"suffdir":"E","city":"MURRAY","state_code":"UT","zip5":"84107","latitude":"40.6386926610000000","longitude":"-111.89104078800000","publicwifi":"U","url":null,"broadband_type_id":null}
{"id":null,"anchorname":"SL CAP HEAD START- MURRAY (UEN)","address":"73 W 6100 S, MURRAY UT 84107","bldgnbr":"73","predir":"W","streetname":"6100","streettype":null,"suffdir":"S","city":"MURRAY","state_code":"UT","zip5":"84107","latitude":"40.6382491340000000","longitude":"-111.89353982100000","publicwifi":"U","url":null,"broadband_type_id":null}
{"id":null,"anchorname":"New Mexico Human Services Department - Child Support Enforcement Division - County Office 4","address":"2536 Ridge Runner Rd","bldgnbr":"2536","predir":null,"streetname":"RIDGE RUNNER","streettype":"RD","suffdir":null,"city":"Las Vegas","state_code":"NM","zip5":"87701","latitude":"35.6183451130000000","longitude":"-105.22751359400000","publicwifi":"U","url":"http://www.hsd.state.nm.us/csed/","broadband_type_id":4}
{"id":null,"anchorname":"FAMILY SURGICAL SUITE - MURRAY","address":"151 EAST 5600 SOUTH, MURRAY UT 84107","bldgnbr":"151","predir":"E","streetname":"5600","streettype":null,"suffdir":"S","city":"MURRAY","state_code":"UT","zip5":"84107","latitude":"40.6493785060000000","longitude":"-111.88699389500000","publicwifi":"U","url":null,"broadband_type_id":null}
{"id":null,"anchorname":"CHRIST LUTHERAN ELEM","address":"240 E 5600 S, MURRAY UT 84107","bldgnbr":"240","predir":"E","streetname":"5600","streettype":null,"suffdir":"S","city":"MURRAY","state_code":"UT","zip5":"84107","latitude":"40.6485699370000000","longitude":"-111.88465114500000","publicwifi":"U","url":null,"broadband_type_id":6}
{"id":null,"anchorname":"S.L. COUNTY-RUTH VINE TYLER BRANCH (UEN)","address":"8041 S WOOD ST, MIDVALE UT 84047","bldgnbr":"8041","predir":"S","streetname":"WOOD","streettype":"ST","suffdir":null,"city":"MIDVALE","state_code":"UT","zip5":"84047","latitude":"40.6051627820000000","longitude":"-111.89324439500000","publicwifi":"Y","url":null,"broadband_type_id":1}
{"id":null,"anchorname":"COPPERVIEW ELEMENTARY (UEN)","address":"8449 S 150 W, MIDVALE UT 84047","bldgnbr":"8449","predir":"S","streetname":"150","streettype":null,"suffdir":"W","city":"MIDVALE","state_code":"UT","zip5":"84047","latitude":"40.5976827300000000","longitude":"-111.89493746800000","publicwifi":"U","url":null,"broadband_type_id":6}
{"id":null,"anchorname":"SOUTH VALLEY DIALYSIS CENTER","address":"8750 SOUTH SANDY PARKWAY, SANDY UT 84070","bldgnbr":"8750","predir":"S","streetname":"SANDY","streettype":"PKWY","suffdir":null,"city":"SANDY","state_code":"UT","zip5":"84070","latitude":"40.5930911110000000","longitude":"-111.90515393200000","publicwifi":"U","url":null,"broadband_type_id":6}
{"id":null,"anchorname":"WORK FORCE SERVICES (WAN)","address":"7292 S STATE ST, MIDVALE UT 84047","bldgnbr":"7292","predir":"S","streetname":"STATE","streettype":"ST","suffdir":null,"city":"MIDVALE","state_code":"UT","zip5":"84047","latitude":"40.6189751290000000","longitude":"-111.89079871300000","publicwifi":"U","url":null,"broadband_type_id":4}
{"id":null,"anchorname":"SL CAP HEAD START- COPPERVIEW COMMUNITY CENTER (UEN)","address":"8446 S HARRISON ST (300 W), MIDVALE UT 84047","bldgnbr":"8446","predir":"S","streetname":"HARRISON","streettype":"ST","suffdir":null,"city":"MIDVALE","state_code":"UT","zip5":"84047","latitude":"40.5980210450000000","longitude":"-111.90107349700000","publicwifi":"U","url":null,"broadband_type_id":1}
{"id":null,"anchorname":"INSTITUTE OF FACIAL AND COSMETIC SURGERY","address":"5929 FASHION BOULEVARD, MURRAY UT 84107","bldgnbr":"5929","predir":null,"streetname":"FASHION","streettype":"BLVD","suffdir":null,"city":"MURRAY","state_code":"UT","zip5":"84107","latitude":"40.6413747040000000","longitude":"-111.88282003900000","publicwifi":"U","url":null,"broadband_type_id":null}
{"id":null,"anchorname":"COTTONWOOD SURGERY CENTER","address":"6053 SOUTH FASHION SQUARE DRIVE, SUITE 100, MURRAY UT 84107","bldgnbr":"6053","predir":"S","streetname":"FASHION SQUARE","streettype":"DR","suffdir":null,"city":"MURRAY","state_code":"UT","zip5":"84107","latitude":"40.6392589520000000","longitude":"-111.88500680600000","publicwifi":"U","url":null,"broadband_type_id":null}
{"id":null,"anchorname":"SUPERIOR HOSPICE","address":"184 EAST 5900 SOUTH, MURRAY UT 84107","bldgnbr":"184","predir":"E","streetname":"5900","streettype":null,"suffdir":"S","city":"MURRAY","state_code":"UT","zip5":"84107","latitude":"40.6425808820000000","longitude":"-111.88579468900000","publicwifi":"U","url":null,"broadband_type_id":null}
{"id":null,"anchorname":"BOARD OF PARDONS (WAN)","address":"449 E WINCHESTER ST, MURRAY UT 84107","bldgnbr":"449","predir":"E","streetname":"WINCHESTER","streettype":"ST","suffdir":null,"city":"MURRAY","state_code":"UT","zip5":"84107","latitude":"40.6325462060000000","longitude":"-111.87797892900000","publicwifi":"U","url":null,"broadband_type_id":null}
{"id":null,"anchorname":"UDOT TRANSCORE (WAN)","address":"488 E 6400 S, SALT LAKE CITY UT 84107","bldgnbr":"488","predir":"E","streetname":"6400","streettype":null,"suffdir":"S","city":"SALT LAKE CITY","state_code":"UT","zip5":"84107","latitude":"40.6322251770000000","longitude":"-111.87729811500000","publicwifi":"U","url":null,"broadband_type_id":null}
{"id":null,"anchorname":"MIDVALE MAIN POST OFFICE","address":"35 W CENTER ST, MIDVALE UT 84047","bldgnbr":"35","predir":"W","streetname":"CENTER","streettype":"ST","suffdir":null,"city":"MIDVALE","state_code":"UT","zip5":"84047","latitude":"40.6108057090000000","longitude":"-111.89233828300000","publicwifi":"N","url":null,"broadband_type_id":null}
{"id":null,"anchorname":"MURRAY CITY LIBRARY (UEN)","address":"166 E 5300 S, MURRAY UT 84107","bldgnbr":"166","predir":"E","streetname":"5300","streettype":null,"suffdir":"S","city":"MURRAY","state_code":"UT","zip5":"84107","latitude":"40.6557133220000000","longitude":"-111.88635434000000","publicwifi":"U","url":null,"broadband_type_id":6}
{"id":null,"anchorname":"MCMILLAN SCHOOL (UEN)","address":"315 E 5900 S, MURRAY UT 84107","bldgnbr":"315","predir":"E","streetname":"5900","streettype":null,"suffdir":"S","city":"MURRAY","state_code":"UT","zip5":"84107","latitude":"40.6430514360000000","longitude":"-111.88198896100000","publicwifi":"U","url":null,"broadband_type_id":6}
{"id":null,"anchorname":"MURRAY CITY FIRE DEPARTMENT STATION 84","address":"163 E 5900 S, MURRAY UT 84107","bldgnbr":"163","predir":"E","streetname":"5900","streettype":null,"suffdir":"S","city":"MURRAY","state_code":"UT","zip5":"84107","latitude":"40.6431005250000000","longitude":"-111.88700018600000","publicwifi":"U","url":null,"broadband_type_id":5}
{"id":null,"anchorname":"VALEO HOME HEALTHCARE SERVICES","address":"6076 SOUTH 900 EAST, SUITE 150, SALT LAKE CITY UT 84121","bldgnbr":"6076","predir":"S","streetname":"900","streettype":null,"suffdir":"E","city":"SALT LAKE CITY","state_code":"UT","zip5":"84121","latitude":"40.6411981700000000","longitude":"-111.86611345000000","publicwifi":"U","url":null,"broadband_type_id":3}
{"id":null,"anchorname":"ECLIPSE HOME HEALTH, INC","address":"746 EAST WINCHESTER, SUITE G10, MURRAY UT 84107","bldgnbr":"746","predir":"E","streetname":"WINCHESTER","streettype":null,"suffdir":null,"city":"MURRAY","state_code":"UT","zip5":"84107","latitude":"40.6317822080000000","longitude":"-111.87119542700000","publicwifi":"U","url":null,"broadband_type_id":3}
{"id":null,"anchorname":"SUPERIOR HOME CARE INC","address":"184 EAST 5900 SOUTH, MURRAY UT 84107","bldgnbr":"184","predir":"E","streetname":"5900","streettype":null,"suffdir":"S","city":"MURRAY","state_code":"UT","zip5":"84107","latitude":"40.6425808820000000","longitude":"-111.88579468900000","publicwifi":"U","url":null,"broadband_type_id":3}
{"id":null,"anchorname":"LONGVIEW SCHOOL (UEN)","address":"6240 LONGVIEW DR, MURRAY UT 84107","bldgnbr":"6240","predir":null,"streetname":"LONGVIEW","streettype":"DR","suffdir":null,"city":"MURRAY","state_code":"UT","zip5":"84107","latitude":"40.6368441750000000","longitude":"-111.87539968400000","publicwifi":"U","url":null,"broadband_type_id":6}
{"id":null,"anchorname":"INTERMOUNTAIN MEDICAL GROUP INSTACARE - MURRY","address":"196 EAST WINCHESTER ST, SALT LAKE CITY UT 84107","bldgnbr":"196","predir":"E","streetname":"WINCHESTER","streettype":"ST","suffdir":null,"city":"SALT LAKE CITY","state_code":"UT","zip5":"84107","latitude":"40.6324146070000000","longitude":"-111.88683061300000","publicwifi":"U","url":null,"broadband_type_id":3}
{"id":null,"anchorname":"MIDVALE MIDDLE SCHOOL (UEN)","address":"7852 S PIONEER ST, MIDVALE UT 84047","bldgnbr":"7852","predir":"S","streetname":"PIONEER","streettype":"ST","suffdir":null,"city":"MIDVALE","state_code":"UT","zip5":"84047","latitude":"40.6076678030000000","longitude":"-111.90116795300000","publicwifi":"U","url":null,"broadband_type_id":6}
{"id":null,"anchorname":"COPPERVIEW COMMUNITY HEALTH CENTER","address":"8446 SOUTH HARRISON STREET, MIDVALE UT 84047","bldgnbr":"8446","predir":"S","streetname":"HARRISON","streettype":"ST","suffdir":null,"city":"MIDVALE","state_code":"UT","zip5":"84047","latitude":"40.5980414700000000","longitude":"-111.90086883600000","publicwifi":"U","url":null,"broadband_type_id":3}
{"id":null,"anchorname":"UNIFIED FIRE AUTHORITY STATION 125 (EMS)","address":"7683 S HOLDEN ST, MIDVALE UT 84047","bldgnbr":"7683","predir":"S","streetname":"HOLDEN","streettype":"ST","suffdir":null,"city":"MIDVALE","state_code":"UT","zip5":"84047","latitude":"40.6112587650000000","longitude":"-111.91260441000000","publicwifi":"U","url":null,"broadband_type_id":5}
{"id":null,"anchorname":"UNIFIED FIRE AUTHORITY STATION 125","address":"7683 SOUTH HOLDEN STREET, MIDVALE UT 84047","bldgnbr":"7683","predir":"S","streetname":"HOLDEN","streettype":"ST","suffdir":null,"city":"MIDVALE","state_code":"UT","zip5":"84047","latitude":"40.6112587650000000","longitude":"-111.91260441000000","publicwifi":"U","url":null,"broadband_type_id":5}
{"id":null,"anchorname":"SALT LAKE COUNTY UNIFIED POLICE DEPARTMENT - MIDVALE PRECINCT","address":"7912 S MAIN ST, MIDVALE UT 84047","bldgnbr":"7912","predir":"S","streetname":"MAIN","streettype":"ST","suffdir":null,"city":"MIDVALE","state_code":"UT","zip5":"84047","latitude":"40.6073777330000000","longitude":"-111.91089334200000","publicwifi":"U","url":null,"broadband_type_id":4}
{"id":null,"anchorname":"72ND ST CLINIC","address":"220 WEST 7200 SOUTH, MIDVALE UT 84047","bldgnbr":"220","predir":"W","streetname":"7200","streettype":null,"suffdir":"S","city":"MIDVALE","state_code":"UT","zip5":"84047","latitude":"40.6210166090000000","longitude":"-111.89922279300000","publicwifi":"U","url":null,"broadband_type_id":3}
{"id":null,"anchorname":"VALLEY MENTAL HEALTH, ARTEC SOUTH (YIC) (UEN)","address":"175 W 7200 S, MIDVALE UT 84047","bldgnbr":"175","predir":"W","streetname":"7200","streettype":null,"suffdir":"S","city":"MIDVALE","state_code":"UT","zip5":"84047","latitude":"40.6194837970000000","longitude":"-111.89604552900000","publicwifi":"U","url":null,"broadband_type_id":3}
{"id":null,"anchorname":"HIGHLAND RIDGE HOSPITAL","address":"7309 SOUTH 180 WEST, MIDVALE UT 84047","bldgnbr":"7309","predir":"S","streetname":"180","streettype":null,"suffdir":"W","city":"MIDVALE","state_code":"UT","zip5":"84047","latitude":"40.6178459460000000","longitude":"-111.89662397300000","publicwifi":"U","url":null,"broadband_type_id":3}
{"id":null,"anchorname":"VALLEY MENTAL HEALTH","address":"7434 SOUTH STATE STREET, MIDVALE UT 84047","bldgnbr":"7434","predir":"S","streetname":"STATE","streettype":"ST","suffdir":null,"city":"MIDVALE","state_code":"UT","zip5":"84047","latitude":"40.6162695510000000","longitude":"-111.89096280000000","publicwifi":"U","url":null,"broadband_type_id":3}
{"id":null,"anchorname":"Tony Serna Jr.  Elementary","address":"1725 New Mexico Ave","bldgnbr":"1725","predir":null,"streetname":"NEW MEXICO","streettype":"AVE","suffdir":null,"city":"Las Vegas","state_code":"NM","zip5":"87701","latitude":"35.5900549750000000","longitude":"-105.23038431400000","publicwifi":"U","url":"http://wlvs.tsje.schooldesk.net/","broadband_type_id":6}
{"id":null,"anchorname":"EAST MIDVALE ELEMENTARY (UEN)","address":"6990 S 300 E, MIDVALE UT 84047","bldgnbr":"6990","predir":"S","streetname":"300","streettype":null,"suffdir":"E","city":"MIDVALE","state_code":"UT","zip5":"84047","latitude":"40.6250237440000000","longitude":"-111.88301922300000","publicwifi":"U","url":null,"broadband_type_id":6}
{"id":null,"anchorname":"MIDVALLEY ELEMENTARY (UEN)","address":"217 E 7800 S, MIDVALE UT 84047","bldgnbr":"217","predir":"E","streetname":"7800","streettype":null,"suffdir":"S","city":"MIDVALE","state_code":"UT","zip5":"84047","latitude":"40.6111631320000000","longitude":"-111.88337919400000","publicwifi":"U","url":null,"broadband_type_id":6}
{"id":null,"anchorname":"EDGEMONT ELEMENTARY (UEN)","address":"1085 E 9800 S, SANDY UT 84094","bldgnbr":"1085","predir":"E","streetname":"9800","streettype":null,"suffdir":"S","city":"SANDY","state_code":"UT","zip5":"84094","latitude":"40.5740393080000000","longitude":"-111.86005353500000","publicwifi":"U","url":null,"broadband_type_id":6}
{"id":null,"anchorname":"PEREGRINE HOSPICE, LLC","address":"75 EAST FORT UNION BOULEVARD, SUITE 143, MIDVALE UT 84047","bldgnbr":"75","predir":"E","streetname":"FORT UNION","streettype":"BLVD","suffdir":null,"city":"MIDVALE","state_code":"UT","zip5":"84047","latitude":"40.6209367820000000","longitude":"-111.88852797800000","publicwifi":"U","url":null,"broadband_type_id":null}
{"id":null,"anchorname":"BEEHIVE SCIENCE \u0026 TECHNOLOGY ACADEMY (BSTA) (UEN)","address":"830 E 9400 S, SANDY UT 84094","bldgnbr":"830","predir":"E","streetname":"9400","streettype":null,"suffdir":"S","city":"SANDY","state_code":"UT","zip5":"84094","latitude":"40.5777032270000000","longitude":"-111.86822203200000","publicwifi":"U","url":null,"broadband_type_id":1}
{"id":null,"anchorname":"ENVISION HOSPICE","address":"9661 SOUTH 700 EAST, SANDY UT 84094","bldgnbr":"9661","predir":"S","streetname":"700","streettype":null,"suffdir":"E","city":"SANDY","state_code":"UT","zip5":"84094","latitude":"40.5757821010000000","longitude":"-111.87201477800000","publicwifi":"U","url":null,"broadband_type_id":6}
{"id":null,"anchorname":"BELL VIEW ELEMENTARY (UEN)","address":"9800 S 800 E, SANDY UT 84094","bldgnbr":"9800","predir":"S","streetname":"800","streettype":null,"suffdir":"E","city":"SANDY","state_code":"UT","zip5":"84094","latitude":"40.5738740190000000","longitude":"-111.86859903100000","publicwifi":"U","url":null,"broadband_type_id":6}
{"id":null,"anchorname":"OUR HOUSE OF WEST SANDY","address":"115 WEST 9400 SOUTH, SANDY UT 84070","bldgnbr":"115","predir":"W","streetname":"9400","streettype":null,"suffdir":"S","city":"SANDY","state_code":"UT","zip5":"84070","latitude":"40.5804442300000000","longitude":"-111.89493359200000","publicwifi":"U","url":null,"broadband_type_id":6}
{"id":null,"anchorname":"CARING HEARTS OF WASATCH","address":"9192 SOUTH 300 WEST, SUITE 21, SANDY UT 84070","bldgnbr":"9192","predir":"S","streetname":"300","streettype":null,"suffdir":"W","city":"SANDY","state_code":"UT","zip5":"84070","latitude":"40.5846243220000000","longitude":"-111.90087287700000","publicwifi":"U","url":null,"broadband_type_id":3}
{"id":null,"anchorname":"HEATHER RIDGE HOME OF MIDVALE","address":"163 EAST 7800 SUTH, MIDVALE UT 84047","bldgnbr":"163","predir":"E","streetname":"7800 SUTH","streettype":null,"suffdir":null,"city":"MIDVALE","state_code":"UT","zip5":"84047","latitude":"40.6097284850000000","longitude":"-111.88715368800000","publicwifi":"U","url":null,"broadband_type_id":null}
{"id":null,"anchorname":"TOTAL KNEE AND HIP REHABILITATION","address":"850 EAST 9400 SOUTH, SANDY UT 84094","bldgnbr":"850","predir":"E","streetname":"9400","streettype":null,"suffdir":"S","city":"SANDY","state_code":"UT","zip5":"84094","latitude":"40.5804593900000000","longitude":"-111.86773849100000","publicwifi":"U","url":null,"broadband_type_id":null}
{"id":null,"anchorname":"SL CAP HEAD START- BELL VIEW (UEN)","address":"9800 S 800 E, SANDY UT 84094","bldgnbr":"9800","predir":"S","streetname":"800","streettype":null,"suffdir":"E","city":"SANDY","state_code":"UT","zip5":"84094","latitude":"40.5738897330000000","longitude":"-111.86890534600000","publicwifi":"U","url":null,"broadband_type_id":null}
{"id":null,"anchorname":"OUR HOUSE OF CENTRAL SANDY","address":"9532 SOUTH 700 EAST, SANDY UT 84070","bldgnbr":"9532","predir":"S","streetname":"700","streettype":null,"suffdir":"E","city":"SANDY","state_code":"UT","zip5":"84070","latitude":"40.5783112340000000","longitude":"-111.87237017400000","publicwifi":"U","url":null,"broadband_type_id":null}
{"id":null,"anchorname":"ABC #16 (WAN)","address":"125 W 9000 S, SANDY UT 84070","bldgnbr":"125","predir":"W","streetname":"9000","streettype":null,"suffdir":"S","city":"SANDY","state_code":"UT","zip5":"84070","latitude":"40.5879343060000000","longitude":"-111.89514841400000","publicwifi":"U","url":null,"broadband_type_id":null}
{"id":null,"anchorname":"LARRY H MILLER COMPLEX (POST) (WAN)","address":"9750 S 300 W, SANDY UT 84070","bldgnbr":"9750","predir":"S","streetname":"300","streettype":null,"suffdir":"W","city":"SANDY","state_code":"UT","zip5":"84070","latitude":"40.5744846960000000","longitude":"-111.90094692000000","publicwifi":"U","url":null,"broadband_type_id":null}
{"id":null,"anchorname":"OUR HOUSE OF EAST SANDY","address":"8670 SOUTH 1325 EAST, SANDY UT 84093","bldgnbr":"8670","predir":"S","streetname":"1325","streettype":null,"suffdir":"E","city":"SANDY","state_code":"UT","zip5":"84093","latitude":"40.5937722980000000","longitude":"-111.85271592800000","publicwifi":"U","url":null,"broadband_type_id":null}
{"id":null,"anchorname":"UNIFIED FIRE AUTHORITY STATION 126 (EMS)","address":"607 E 7200 S, MIDVALE UT 84047","bldgnbr":"607","predir":"E","streetname":"7200","streettype":null,"suffdir":"S","city":"MIDVALE","state_code":"UT","zip5":"84047","latitude":"40.6211017420000000","longitude":"-111.87441051600000","publicwifi":"U","url":null,"broadband_type_id":5}
{"id":null,"anchorname":"UNIFIED FIRE AUTHORITY STATION 126","address":"607 EAST 7200 SOUTH, MIDVALE UT 84047","bldgnbr":"607","predir":"E","streetname":"7200","streettype":null,"suffdir":"S","city":"MIDVALE","state_code":"UT","zip5":"84047","latitude":"40.6211017420000000","longitude":"-111.87441051600000","publicwifi":"U","url":null,"broadband_type_id":5}
{"id":null,"anchorname":"PEREGRINE HOME HEALTH, LLC","address":"75 EAST FORT UNION BOULEVARD, SUITE 143, MIDVALE UT 84047","bldgnbr":"75","predir":"E","streetname":"FORT UNION","streettype":"BLVD","suffdir":null,"city":"MIDVALE","state_code":"UT","zip5":"84047","latitude":"40.6209367820000000","longitude":"-111.88852797800000","publicwifi":"U","url":null,"broadband_type_id":3}
{"id":null,"anchorname":"HILLCREST HIGH SCHOOL (UEN)","address":"7350 S 900 E, MIDVALE UT 84047","bldgnbr":"7350","predir":"S","streetname":"900","streettype":null,"suffdir":"E","city":"MIDVALE","state_code":"UT","zip5":"84047","latitude":"40.6180480200000000","longitude":"-111.86871141200000","publicwifi":"U","url":null,"broadband_type_id":6}
{"id":null,"anchorname":"JORDAN VALLEY SCHOOL (UEN)","address":"7501 S 1000 E, MIDVALE UT 84047","bldgnbr":"7501","predir":"S","streetname":"1000","streettype":null,"suffdir":"E","city":"MIDVALE","state_code":"UT","zip5":"84047","latitude":"40.6150097240000000","longitude":"-111.86151143900000","publicwifi":"U","url":null,"broadband_type_id":6}
{"id":null,"anchorname":"PRESCHOOL (SP ED)","address":"7501 S 1000 E, MIDVALE UT 84047","bldgnbr":"7501","predir":"S","streetname":"1000","streettype":null,"suffdir":"E","city":"MIDVALE","state_code":"UT","zip5":"84047","latitude":"40.6150065380000000","longitude":"-111.86146765800000","publicwifi":"U","url":null,"broadband_type_id":6}
{"id":null,"anchorname":"GREENWOOD HEALTH CENTER (UTN)","address":"7495 SO STATE STREET, MIDVALE UT 84047","bldgnbr":"7495","predir":"S","streetname":"STATE","streettype":"ST","suffdir":null,"city":"MIDVALE","state_code":"UT","zip5":"84047","latitude":"40.6159391770000000","longitude":"-111.88921280200000","publicwifi":"U","url":"http://www.utahtelehealth.net/","broadband_type_id":3}
{"id":null,"anchorname":"UNIV OF UTAH HOSP AND CLINICS GREENWOOD CENTER","address":"7495 SOUTH STATE STREET, MIDVALE UT 84047","bldgnbr":"7495","predir":"S","streetname":"STATE","streettype":"ST","suffdir":null,"city":"MIDVALE","state_code":"UT","zip5":"84047","latitude":"40.6155075230000000","longitude":"-111.89004937800000","publicwifi":"U","url":null,"broadband_type_id":3}
{"id":null,"anchorname":"ALTA VIEW HOSPITAL","address":"9660 SOUTH 1300 EAST, SANDY UT 84094","bldgnbr":"9660","predir":"S","streetname":"1300","streettype":null,"suffdir":"E","city":"SANDY","state_code":"UT","zip5":"84094","latitude":"40.5759051740000000","longitude":"-111.85396139000000","publicwifi":"U","url":null,"broadband_type_id":3}
{"id":null,"anchorname":"INTERMOUNTAIN MEDICAL GROUP MOUNTAIN VIEW KIDS CARE","address":"9720 SOUTH 1300 EAST, SANDY UT 84094","bldgnbr":"9720","predir":"S","streetname":"1300","streettype":null,"suffdir":"E","city":"SANDY","state_code":"UT","zip5":"84094","latitude":"40.5748139890000000","longitude":"-111.85390663700000","publicwifi":"U","url":null,"broadband_type_id":3}
{"id":null,"anchorname":"EASTMONT MIDDLE SCHOOL (UEN)","address":"10100 S 1300 E, SANDY UT 84094","bldgnbr":"10100","predir":"S","streetname":"1300","streettype":null,"suffdir":"E","city":"SANDY","state_code":"UT","zip5":"84094","latitude":"40.5669985780000000","longitude":"-111.85444886800000","publicwifi":"U","url":null,"broadband_type_id":6}
{"id":null,"anchorname":"INTERMOUNTAIN MEDICAL GROUP INSTACARE - SANDY","address":"9493 SOUTH 700 EAST, SANDY UT 84070","bldgnbr":"9493","predir":"S","streetname":"700","streettype":null,"suffdir":"E","city":"SANDY","state_code":"UT","zip5":"84070","latitude":"40.5789604430000000","longitude":"-111.87179209600000","publicwifi":"U","url":null,"broadband_type_id":3}
{"id":null,"anchorname":"COUNTRY CARE HOMES","address":"465 EAST SEGO LILY DRIVE, SANDY UT 84070","bldgnbr":"465","predir":"E","streetname":"SEGO LILY","streettype":"DR","suffdir":null,"city":"SANDY","state_code":"UT","zip5":"84070","latitude":"40.5735622290000000","longitude":"-111.87794133800000","publicwifi":"U","url":null,"broadband_type_id":3}
{"id":null,"anchorname":"A CARING HAND HOME HEALTH CARE","address":"9160 S 300 W, SANDY UT 84070","bldgnbr":"9160","predir":"S","streetname":"300","streettype":null,"suffdir":"W","city":"SANDY","state_code":"UT","zip5":"84070","latitude":"40.5851991100000000","longitude":"-111.90097275800000","publicwifi":"U","url":null,"broadband_type_id":3}
{"id":null,"anchorname":"SALT LAKE COMMUNITY COLLEGE - LH MILLER CAMPUS (UEN)","address":"9750 S 300 W, SANDY UT 84070","bldgnbr":"9750","predir":"S","streetname":"300","streettype":null,"suffdir":"W","city":"SANDY","state_code":"UT","zip5":"84070","latitude":"40.5749069640000000","longitude":"-111.90251270000000","publicwifi":"U","url":null,"broadband_type_id":6}
{"id":null,"anchorname":"SALT LAKE COMMUNITY COLLEGE - MILLER LIBRARY","address":"9750 W 300 W, SANDY UT 84070","bldgnbr":"9750","predir":"W","streetname":"300","streettype":null,"suffdir":"W","city":"SANDY","state_code":"UT","zip5":"84070","latitude":"40.5745700270000000","longitude":"-111.90129104000000","publicwifi":"U","url":"http://libweb.slcc.edu/","broadband_type_id":6}
{"id":null,"anchorname":"SANDY POLICE DEPARTMENT","address":"10000 SOUTH CENTENNIAL PKWY, SANDY UT 84070","bldgnbr":"10000","predir":"S","streetname":"CENTENNIAL","streettype":"PKWY","suffdir":null,"city":"SANDY","state_code":"UT","zip5":"84070","latitude":"40.5704098310000000","longitude":"-111.89529678000000","publicwifi":"U","url":null,"broadband_type_id":4}
{"id":null,"anchorname":"CHALLENGER SCHOOL-CORPORATE OFFICE","address":"9735 S 500 W, SANDY UT 84070","bldgnbr":"9735","predir":"S","streetname":"500","streettype":null,"suffdir":"W","city":"SANDY","state_code":"UT","zip5":"84070","latitude":"40.5748946640000000","longitude":"-111.90517849400000","publicwifi":"U","url":null,"broadband_type_id":6}
{"id":null,"anchorname":"GUARDIAN HOME HEALTH CARE","address":"8649 SOUTH 1300 EAST, SUITE 100, SANDY UT 84093","bldgnbr":"8649","predir":"S","streetname":"1300","streettype":null,"suffdir":"E","city":"SANDY","state_code":"UT","zip5":"84093","latitude":"40.5941778180000000","longitude":"-111.85282070600000","publicwifi":"U","url":null,"broadband_type_id":3}
{"id":null,"anchorname":"New Mexico Motor Vehicle Division - Pecos","address":"92 S Main St","bldgnbr":"92","predir":"S","streetname":"MAIN","streettype":"ST","suffdir":null,"city":"Pecos","state_code":"NM","zip5":"87552","latitude":"35.5672225730000000","longitude":"-105.67765039300000","publicwifi":"U","url":"http://www.mvd.newmexico.gov/Pages/Home.aspx","broadband_type_id":6}
{"id":null,"anchorname":"MICHELLE'S RETREAT","address":"9682 SOUTH OAKWOOD LANE, SANDY UT 84092","bldgnbr":"9682","predir":"S","streetname":"OAKWOOD","streettype":"LN","suffdir":null,"city":"SANDY","state_code":"UT","zip5":"84092","latitude":"40.5751260390000000","longitude":"-111.79917814700000","publicwifi":"U","url":null,"broadband_type_id":null}
{"id":null,"anchorname":"ALTA CANYON POST OFFICE","address":"9265 S HIGHLAND DR, SANDY UT 84093","bldgnbr":"9265","predir":"S","streetname":"HIGHLAND","streettype":"DR","suffdir":null,"city":"SANDY","state_code":"UT","zip5":"84093","latitude":"40.5828201750000000","longitude":"-111.83381525600000","publicwifi":"N","url":null,"broadband_type_id":null}
{"id":null,"anchorname":"Memorial Middle","address":"Old National Road","bldgnbr":"N/A","predir":null,"streetname":"OLD NATIONAL","streettype":"RD","suffdir":null,"city":"Las Vegas","state_code":"NM","zip5":"87701","latitude":"35.6114237260000000","longitude":"-105.22897644200000","publicwifi":"U","url":"http://www.cybercardinal.net/schools/memorial","broadband_type_id":6}
{"id":null,"anchorname":"SENECA COUNTY - Office of Emergency Management","address":"1 DiPronio Drive","bldgnbr":"1","predir":null,"streetname":"DiPronio","streettype":"Drive","suffdir":null,"city":"Waterloo","state_code":"NY","zip5":"13165","latitude":"42.9082375650000000","longitude":"-76.843395310000000","publicwifi":"U","url":null,"broadband_type_id":1}
{"id":null,"anchorname":"VISITING ANGELS","address":"8300 SOUTH 700 EAST #102, SANDY UT 84070","bldgnbr":"8300","predir":"S","streetname":"700","streettype":null,"suffdir":"E","city":"SANDY","state_code":"UT","zip5":"84070","latitude":"40.6004257250000000","longitude":"-111.87232573300000","publicwifi":"U","url":null,"broadband_type_id":6}
{"id":null,"anchorname":"SYLVAN LEARNING CENTERS","address":"7942 S 1300 E, SANDY UT 84094","bldgnbr":"7942","predir":"S","streetname":"1300","streettype":null,"suffdir":"E","city":"SANDY","state_code":"UT","zip5":"84094","latitude":"40.6062239700000000","longitude":"-111.85443301100000","publicwifi":"U","url":null,"broadband_type_id":6}
{"id":null,"anchorname":"WILLOW CANYON ELEMENTARY (UEN)","address":"9650 S 1700 E, SANDY UT 84092","bldgnbr":"9650","predir":"S","streetname":"1700","streettype":null,"suffdir":"E","city":"SANDY","state_code":"UT","zip5":"84092","latitude":"40.5760042490000000","longitude":"-111.84649817800000","publicwifi":"U","url":null,"broadband_type_id":6}
{"id":null,"anchorname":"ALTA RIDGE ASSISTED LIVING","address":"1360 EAST 9400 SOUTH, SANDY UT 84093","bldgnbr":"1360","predir":"E","streetname":"9400","streettype":null,"suffdir":"S","city":"SANDY","state_code":"UT","zip5":"84093","latitude":"40.5803061620000000","longitude":"-111.85150359700000","publicwifi":"U","url":null,"broadband_type_id":6}
{"id":null,"anchorname":"S.L. COUNTY-SANDY BRANCH (UEN)","address":"10100 S PETUNIA WAY, SANDY UT 84092","bldgnbr":"10100","predir":"S","streetname":"PETUNIA","streettype":"WAY","suffdir":null,"city":"SANDY","state_code":"UT","zip5":"84092","latitude":"40.5677110040000000","longitude":"-111.85082201900000","publicwifi":"Y","url":null,"broadband_type_id":1}
{"id":null,"anchorname":"OXFORD LEARNING SOURCE - SANDY","address":"8615 S HIGHLAND DR, SANDY UT 84093","bldgnbr":"8615","predir":"S","streetname":"HIGHLAND","streettype":"DR","suffdir":null,"city":"SANDY","state_code":"UT","zip5":"84093","latitude":"40.5947029480000000","longitude":"-111.83143083600000","publicwifi":"U","url":null,"broadband_type_id":6}
{"id":null,"anchorname":"ENTRADA","address":"825 E 9085 S, SANDY UT 84094","bldgnbr":"825","predir":"E","streetname":"9085","streettype":null,"suffdir":"S","city":"SANDY","state_code":"UT","zip5":"84094","latitude":"40.5870541280000000","longitude":"-111.86841149100000","publicwifi":"U","url":null,"broadband_type_id":null}
{"id":null,"anchorname":"JORDAN TECHNICAL CENTER (UEN)","address":"825 E 9085 S, SANDY UT 84094","bldgnbr":"825","predir":"E","streetname":"9085","streettype":null,"suffdir":"S","city":"SANDY","state_code":"UT","zip5":"84094","latitude":"40.5876378130000000","longitude":"-111.86830229100000","publicwifi":"U","url":null,"broadband_type_id":null}
{"id":null,"anchorname":"QUAIL HOLLOW ELEMENTARY (UEN)","address":"2625 E NEWCASTLE DR (9070 S), SANDY UT 84093","bldgnbr":"2625","predir":"E","streetname":"NEWCASTLE","streettype":"DR","suffdir":null,"city":"SANDY","state_code":"UT","zip5":"84093","latitude":"40.5871472660000000","longitude":"-111.81634602300000","publicwifi":"U","url":null,"broadband_type_id":6}
{"id":null,"anchorname":"CTEC (UEN)","address":"825 E 9085 S, SANDY UT 84094","bldgnbr":"825","predir":"E","streetname":"9085","streettype":null,"suffdir":"S","city":"SANDY","state_code":"UT","zip5":"84094","latitude":"40.5875292590000000","longitude":"-111.86827819800000","publicwifi":"U","url":null,"broadband_type_id":null}
{"id":null,"anchorname":"SUNRISE OF SANDY","address":"2130 EAST 9400 SOUTH, SANDY UT 84093","bldgnbr":"2130","predir":"E","streetname":"9400","streettype":null,"suffdir":"S","city":"SANDY","state_code":"UT","zip5":"84093","latitude":"40.5803433920000000","longitude":"-111.83001379700000","publicwifi":"U","url":null,"broadband_type_id":6}
{"id":null,"anchorname":"GRANITE ELEMENTARY (UEN)","address":"9760 S 3100 E, SANDY UT 84092","bldgnbr":"9760","predir":"S","streetname":"3100","streettype":null,"suffdir":"E","city":"SANDY","state_code":"UT","zip5":"84092","latitude":"40.5738580120000000","longitude":"-111.80746223300000","publicwifi":"U","url":null,"broadband_type_id":6}
{"id":null,"anchorname":"ALTA RIDGE ALZHEIMERS COMMUNITY","address":"1375 EAST 9400 SOUTH, SANDY UT 84093","bldgnbr":"1375","predir":"E","streetname":"9400","streettype":null,"suffdir":"S","city":"SANDY","state_code":"UT","zip5":"84093","latitude":"40.5805728590000000","longitude":"-111.85089942100000","publicwifi":"U","url":null,"broadband_type_id":1}
{"id":null,"anchorname":"GRANITE PEAKS ENDOSCOPY, LLC","address":"10150 SOUTH PETUNIA WAY, SANDY UT 84092","bldgnbr":"10150","predir":"S","streetname":"PETUNIA","streettype":"WAY","suffdir":null,"city":"SANDY","state_code":"UT","zip5":"84092","latitude":"40.5667111690000000","longitude":"-111.85016707500000","publicwifi":"U","url":null,"broadband_type_id":null}
{"id":null,"anchorname":"THE WENTWORTH AT WILLOW CREEK","address":"8325 SOUTH HIGHLAND DRIVE, SANDY UT 84093","bldgnbr":"8325","predir":"S","streetname":"HIGHLAND","streettype":"DR","suffdir":null,"city":"SANDY","state_code":"UT","zip5":"84093","latitude":"40.6001175470000000","longitude":"-111.83171917400000","publicwifi":"U","url":null,"broadband_type_id":null}
{"id":null,"anchorname":"UNION MIDDLE SCHOOL (UEN)","address":"615 E 8000 S, SANDY UT 84070","bldgnbr":"615","predir":"E","streetname":"8000","streettype":null,"suffdir":"S","city":"SANDY","state_code":"UT","zip5":"84070","latitude":"40.6071338870000000","longitude":"-111.87436081700000","publicwifi":"U","url":null,"broadband_type_id":6}
{"id":null,"anchorname":"HILLCREST CARE CENTER","address":"348 EAST 8000 SOUTH, SANDY UT 84070","bldgnbr":"348","predir":"E","streetname":"8000","streettype":null,"suffdir":"S","city":"SANDY","state_code":"UT","zip5":"84070","latitude":"40.6057077470000000","longitude":"-111.88045258700000","publicwifi":"U","url":null,"broadband_type_id":3}
{"id":null,"anchorname":"HEALTHSOUTH REHABILITATION HOSPITAL OF UTAH","address":"8074 SOUTH 1300 EAST, SANDY UT 84094","bldgnbr":"8074","predir":"S","streetname":"1300","streettype":null,"suffdir":"E","city":"SANDY","state_code":"UT","zip5":"84094","latitude":"40.6048200460000000","longitude":"-111.85478722100000","publicwifi":"U","url":null,"broadband_type_id":3}
{"id":null,"anchorname":"HEALTHSOUTH TRANSITIONAL CARE UNIT","address":"8074 S 1300 E, SANDY UT 84094","bldgnbr":"8074","predir":"S","streetname":"1300","streettype":null,"suffdir":"E","city":"SANDY","state_code":"UT","zip5":"84094","latitude":"40.6046124410000000","longitude":"-111.85329468600000","publicwifi":"U","url":null,"broadband_type_id":3}
{"id":null,"anchorname":"HEALTHSOUTH HOME CARE","address":"8074 SOUTH 1300 EAST, SANDY UT 84094","bldgnbr":"8074","predir":"S","streetname":"1300","streettype":null,"suffdir":"E","city":"SANDY","state_code":"UT","zip5":"84094","latitude":"40.6046124410000000","longitude":"-111.85329468600000","publicwifi":"U","url":null,"broadband_type_id":3}
{"id":null,"anchorname":"SANDY CITY FIRE DEPARTMENT STATION 35 (EMS)","address":"8186 S 1300 E, SANDY UT 84094","bldgnbr":"8186","predir":"S","streetname":"1300","streettype":null,"suffdir":"E","city":"SANDY","state_code":"UT","zip5":"84094","latitude":"40.6026323270000000","longitude":"-111.85359962100000","publicwifi":"U","url":null,"broadband_type_id":5}
{"id":null,"anchorname":"UTAH SCHOOL SUPERINTENDENTS ASSOCIATION (UEN)","address":"860 E 9085 S, SANDY UT 84094","bldgnbr":"860","predir":"E","streetname":"9085","streettype":null,"suffdir":"S","city":"SANDY","state_code":"UT","zip5":"84094","latitude":"40.5869538480000000","longitude":"-111.86832924900000","publicwifi":"U","url":null,"broadband_type_id":6}
{"id":null,"anchorname":"GRACE LUTHERAN SCHOOL \u0026 PRESCHOOL","address":"1815 E 9800 S, SANDY UT 84092","bldgnbr":"1815","predir":"E","streetname":"9800","streettype":null,"suffdir":"S","city":"SANDY","state_code":"UT","zip5":"84092","latitude":"40.5739865230000000","longitude":"-111.84027193400000","publicwifi":"U","url":null,"broadband_type_id":6}
{"id":null,"anchorname":"BLESSED SACRAMENT SCHOOL","address":"1745 E 9800 S, SANDY UT 84092","bldgnbr":"1745","predir":"E","streetname":"9800","streettype":null,"suffdir":"S","city":"SANDY","state_code":"UT","zip5":"84092","latitude":"40.5736299560000000","longitude":"-111.84227603700000","publicwifi":"U","url":null,"broadband_type_id":6}
{"id":null,"anchorname":"WATERFORD SCHOOL (UEN)","address":"1480 E 9400 S, SANDY UT 84093","bldgnbr":"1480","predir":"E","streetname":"9400","streettype":null,"suffdir":"S","city":"SANDY","state_code":"UT","zip5":"84093","latitude":"40.5800513190000000","longitude":"-111.84694335900000","publicwifi":"U","url":null,"broadband_type_id":6}
{"id":null,"anchorname":"ALTA VIEW HOSPITAL MAMMOGRAPHY","address":"9660 SOUTH 1300 EAST, SANDY UT 84092","bldgnbr":"9660","predir":"S","streetname":"1300","streettype":null,"suffdir":"E","city":"SANDY","state_code":"UT","zip5":"84092","latitude":"40.5755200420000000","longitude":"-111.85295047000000","publicwifi":"U","url":null,"broadband_type_id":3}
{"id":null,"anchorname":"BROOKWOOD ELEMENTARY SCHOOL (UEN)","address":"8640 S SNOWBIRD DR, SANDY UT 84093","bldgnbr":"8640","predir":"S","streetname":"SNOWBIRD","streettype":"DR","suffdir":null,"city":"SANDY","state_code":"UT","zip5":"84093","latitude":"40.5942700540000000","longitude":"-111.82053740800000","publicwifi":"U","url":null,"broadband_type_id":6}
{"id":null,"anchorname":"SANDY CITY FIRE DEPARTMENT STATION 32","address":"9475 SOUTH 2000 EAST (HIGHLAND DRIVE), SANDY UT 84092","bldgnbr":"9475","predir":"S","streetname":"2000","streettype":null,"suffdir":"E","city":"SANDY","state_code":"UT","zip5":"84092","latitude":"40.5788902960000000","longitude":"-111.83370194600000","publicwifi":"U","url":null,"broadband_type_id":5}
{"id":null,"anchorname":"ALWAYS BEST CARE SENIOR SERVICES","address":"9638 SOUTH 2980 EAST, SANDY UT 84092","bldgnbr":"9638","predir":"S","streetname":"2980","streettype":null,"suffdir":"E","city":"SANDY","state_code":"UT","zip5":"84092","latitude":"40.5757667430000000","longitude":"-111.80861502800000","publicwifi":"U","url":null,"broadband_type_id":3}
{"id":null,"anchorname":"LIFE CHOICE HOME HEALTH CARE, INC","address":"3066 GRANITE SLOPE LANE, SANDY UT 84092","bldgnbr":"3066","predir":null,"streetname":"GRANITE SLOPE","streettype":"LN","suffdir":null,"city":"SANDY","state_code":"UT","zip5":"84092","latitude":"40.5750782120000000","longitude":"-111.80652629600000","publicwifi":"U","url":null,"broadband_type_id":3}
{"id":null,"anchorname":"PARK LANE ELEMENTARY SCHOOL (UEN)","address":"9955 EASTDELL DR, SANDY UT 84092","bldgnbr":"9955","predir":null,"streetname":"EASTDELL","streettype":"DR","suffdir":null,"city":"SANDY","state_code":"UT","zip5":"84092","latitude":"40.5702623200000000","longitude":"-111.82350646000000","publicwifi":"U","url":null,"broadband_type_id":6}
{"id":null,"anchorname":"DYNAMIC GRACE HOME HEALTH","address":"10339 SOUTH 2420 EAST, SANDY UT 84092","bldgnbr":"10339","predir":"S","streetname":"2420","streettype":null,"suffdir":"E","city":"SANDY","state_code":"UT","zip5":"84092","latitude":"40.5631639550000000","longitude":"-111.82163292400000","publicwifi":"U","url":null,"broadband_type_id":3}
{"id":null,"anchorname":"Village of Lodi","address":"8440 Main St","bldgnbr":"8440","predir":null,"streetname":"Main","streettype":"St","suffdir":null,"city":"Lodi","state_code":"NY","zip5":"14521","latitude":"42.6152375590000000","longitude":"-76.823342918000000","publicwifi":"U","url":null,"broadband_type_id":1}
{"id":null,"anchorname":"OAKDALE ELEMENTARY (UEN)","address":"1900 E CREEK RD, SANDY UT 84093","bldgnbr":"1900","predir":"E","streetname":"CREEK","streettype":"RD","suffdir":null,"city":"SANDY","state_code":"UT","zip5":"84093","latitude":"40.6034766630000000","longitude":"-111.83674054700000","publicwifi":"U","url":null,"broadband_type_id":6}
{"id":null,"anchorname":"COTTONWOOD IMPROVEMENT (WAN)","address":"8620 S HIGHLAND DR, SANDY UT 84093","bldgnbr":"8620","predir":"S","streetname":"HIGHLAND","streettype":"DR","suffdir":null,"city":"SANDY","state_code":"UT","zip5":"84093","latitude":"40.5946035570000000","longitude":"-111.83273479400000","publicwifi":"U","url":null,"broadband_type_id":null}
{"id":null,"anchorname":"CENTER FOR INFECTIOUS DISEASES (WAN)","address":"SALT LAKE CITY UT 84093","bldgnbr":"unknown","predir":null,"streetname":"unknown","streettype":null,"suffdir":null,"city":"SALT LAKE CITY","state_code":"UT","zip5":"84093","latitude":"40.5944877710000000","longitude":"-111.83215060900000","publicwifi":"U","url":null,"broadband_type_id":6}
{"id":null,"anchorname":"SANDY MAIN POST OFFICE","address":"8850 S 700 E, SANDY UT 84070","bldgnbr":"8850","predir":"S","streetname":"700","streettype":null,"suffdir":"E","city":"SANDY","state_code":"UT","zip5":"84070","latitude":"40.5904414980000000","longitude":"-111.87272621400000","publicwifi":"N","url":null,"broadband_type_id":null}
{"id":null,"anchorname":"ALTARA ELEMENTARY (UEN)","address":"800 E 11000 S, SANDY UT 84094","bldgnbr":"800","predir":"E","streetname":"11000","streettype":null,"suffdir":"S","city":"SANDY","state_code":"UT","zip5":"84094","latitude":"40.5507903150000000","longitude":"-111.86861247200000","publicwifi":"U","url":null,"broadband_type_id":6}
{"id":null,"anchorname":"STRATFORD ASSISTED LIVING COMMUNITY AT DRAPER","address":"11637 SOUTH 700 EAST, DRAPER UT 84020","bldgnbr":"11637","predir":"S","streetname":"700","streettype":null,"suffdir":"E","city":"DRAPER","state_code":"UT","zip5":"84020","latitude":"40.5402522900000000","longitude":"-111.87086165400000","publicwifi":"U","url":null,"broadband_type_id":6}
{"id":null,"anchorname":"SOUTH MOUNTAIN REHABILITATION","address":"12226 SOUTH 1000 EAST, SUITE 1, DRAPER UT 84020","bldgnbr":"12226","predir":"S","streetname":"1000","streettype":null,"suffdir":"E","city":"DRAPER","state_code":"UT","zip5":"84020","latitude":"40.5287352920000000","longitude":"-111.86254576400000","publicwifi":"U","url":null,"broadband_type_id":2}
{"id":null,"anchorname":"SPRUCEWOOD ELEMENTARY (UEN)","address":"12025 S 1000 E, SANDY UT 84094","bldgnbr":"12025","predir":"S","streetname":"1000","streettype":null,"suffdir":"E","city":"SANDY","state_code":"UT","zip5":"84094","latitude":"40.5326930130000000","longitude":"-111.86160813400000","publicwifi":"U","url":null,"broadband_type_id":6}
{"id":null,"anchorname":"OXFORD LEARNING SOURCE","address":"1259 E DRAPER PKWY, DRAPER UT 84020","bldgnbr":"1259","predir":"E","streetname":"DRAPER","streettype":"PKWY","suffdir":null,"city":"DRAPER","state_code":"UT","zip5":"84020","latitude":"40.5287235880000000","longitude":"-111.85552901900000","publicwifi":"U","url":null,"broadband_type_id":6}
{"id":null,"anchorname":"ALTA VIEW ELEMENTARY (UEN)","address":"10333 CROCUS ST (865 E), SANDY UT 84094","bldgnbr":"10333","predir":null,"streetname":"CROCUS","streettype":"ST","suffdir":null,"city":"SANDY","state_code":"UT","zip5":"84094","latitude":"40.5636842850000000","longitude":"-111.86607050700000","publicwifi":"U","url":null,"broadband_type_id":6}
{"id":null,"anchorname":"CANYONS TRANSITION ACADEMY","address":"9361 S 300 E, SANDY UT 84070","bldgnbr":"9361","predir":"S","streetname":"300","streettype":null,"suffdir":"E","city":"SANDY","state_code":"UT","zip5":"84070","latitude":"40.5814511810000000","longitude":"-111.88078112200000","publicwifi":"U","url":null,"broadband_type_id":6}
{"id":null,"anchorname":"OXFORD ACADEMY","address":"1259 E DRAPER PKWY, DRAPER UT 84020","bldgnbr":"1259","predir":"E","streetname":"DRAPER","streettype":"PKWY","suffdir":null,"city":"DRAPER","state_code":"UT","zip5":"84020","latitude":"40.5287235880000000","longitude":"-111.85552901900000","publicwifi":"U","url":null,"broadband_type_id":6}
{"id":null,"anchorname":"NORTH STAR ACADEMY (UEN)","address":"2920 W 14010 S, BLUFFDALE UT 84065","bldgnbr":"2920","predir":"W","streetname":"14010","streettype":null,"suffdir":"S","city":"BLUFFDALE","state_code":"UT","zip5":"84065","latitude":"40.4973543570000000","longitude":"-111.96133891200000","publicwifi":"U","url":null,"broadband_type_id":6}
{"id":null,"anchorname":"HOSPICE FOR UTAH","address":"11639 SOUTH 700 EAST, DRAPER UT 84020","bldgnbr":"11639","predir":"S","streetname":"700","streettype":null,"suffdir":"E","city":"DRAPER","state_code":"UT","zip5":"84020","latitude":"40.5400075690000000","longitude":"-111.87083144300000","publicwifi":"U","url":null,"broadband_type_id":null}
{"id":null,"anchorname":"PERUVIAN PARK ELEMENTARY (UEN)","address":"1545 E 8425 S, SANDY UT 84093","bldgnbr":"1545","predir":"E","streetname":"8425","streettype":null,"suffdir":"S","city":"SANDY","state_code":"UT","zip5":"84093","latitude":"40.5990061560000000","longitude":"-111.84750543400000","publicwifi":"U","url":null,"broadband_type_id":2}
{"id":null,"anchorname":"MOUNT JORDAN MIDDLE SCHOOL (UEN)","address":"9360 S 300 E, SANDY UT 84070","bldgnbr":"9360","predir":"S","streetname":"300","streettype":null,"suffdir":"E","city":"SANDY","state_code":"UT","zip5":"84070","latitude":"40.5817693390000000","longitude":"-111.88282671100000","publicwifi":"U","url":null,"broadband_type_id":6}
{"id":null,"anchorname":"SANDY CITY FIRE DEPARTMENT STATION 31 (EMS)","address":"9010 S 150 E, SANDY UT 84070","bldgnbr":"9010","predir":"S","streetname":"150","streettype":null,"suffdir":"E","city":"SANDY","state_code":"UT","zip5":"84070","latitude":"40.5874732820000000","longitude":"-111.88653432000000","publicwifi":"U","url":null,"broadband_type_id":5}
{"id":null,"anchorname":"SANDY CITY FIRE DEPARTMENT STATION 31","address":"9010 SOUTH 150 EAST, SANDY UT 84070","bldgnbr":"9010","predir":"S","streetname":"150","streettype":null,"suffdir":"E","city":"SANDY","state_code":"UT","zip5":"84070","latitude":"40.5874732820000000","longitude":"-111.88653432000000","publicwifi":"U","url":null,"broadband_type_id":5}
{"id":null,"anchorname":"SANDY HEALTH AND REHAB","address":"50 EAST 9000 SOUTH, SANDY UT 84070","bldgnbr":"50","predir":"E","streetname":"9000","streettype":null,"suffdir":"S","city":"SANDY","state_code":"UT","zip5":"84070","latitude":"40.5868320110000000","longitude":"-111.88906998400000","publicwifi":"U","url":null,"broadband_type_id":3}
{"id":null,"anchorname":"HOME SCHOOL (CANYONS)","address":"9361 S 300 E, SANDY UT 84070","bldgnbr":"9361","predir":"S","streetname":"300","streettype":null,"suffdir":"E","city":"SANDY","state_code":"UT","zip5":"84070","latitude":"40.5814511810000000","longitude":"-111.88078112200000","publicwifi":"U","url":null,"broadband_type_id":6}
{"id":null,"anchorname":"PRIVATE SCHOOL (CANYONS)","address":"9361 S 300 E, SANDY UT 84070","bldgnbr":"9361","predir":"S","streetname":"300","streettype":null,"suffdir":"E","city":"SANDY","state_code":"UT","zip5":"84070","latitude":"40.5814511810000000","longitude":"-111.88078112200000","publicwifi":"U","url":null,"broadband_type_id":6}
{"id":null,"anchorname":"SPECIAL ED PRESCHOOL","address":"9361 S 300 E, SANDY UT 84070","bldgnbr":"9361","predir":"S","streetname":"300","streettype":null,"suffdir":"E","city":"SANDY","state_code":"UT","zip5":"84070","latitude":"40.5814511810000000","longitude":"-111.88078112200000","publicwifi":"U","url":null,"broadband_type_id":6}
{"id":null,"anchorname":"CANYONS SCHOOL DISTRICT OFFICE (UEN)","address":"9361 S 300 E, SANDY UT 84070","bldgnbr":"9361","predir":"S","streetname":"300","streettype":null,"suffdir":"E","city":"SANDY","state_code":"UT","zip5":"84070","latitude":"40.5815491740000000","longitude":"-111.88050048400000","publicwifi":"U","url":null,"broadband_type_id":6}
{"id":null,"anchorname":"SANDY CITY FIRE DEPARTMENT STATION 34 (EMS)","address":"10765 S 700 E, SANDY UT 84070","bldgnbr":"10765","predir":"S","streetname":"700","streettype":null,"suffdir":"E","city":"SANDY","state_code":"UT","zip5":"84070","latitude":"40.5557753690000000","longitude":"-111.87190691400000","publicwifi":"U","url":null,"broadband_type_id":5}
{"id":null,"anchorname":"SANDY CITY FIRE DEPARTMENT STATION 34","address":"10765 SOUTH 700 EAST, SANDY UT 84094","bldgnbr":"10765","predir":"S","streetname":"700","streettype":null,"suffdir":"E","city":"SANDY","state_code":"UT","zip5":"84094","latitude":"40.5557611670000000","longitude":"-111.87186692600000","publicwifi":"U","url":null,"broadband_type_id":5}
{"id":null,"anchorname":"CHALLENGER SCHOOL","address":"10685 S 1000 E, SANDY UT 84094","bldgnbr":"10685","predir":"S","streetname":"1000","streettype":null,"suffdir":"E","city":"SANDY","state_code":"UT","zip5":"84094","latitude":"40.5570538010000000","longitude":"-111.86201557600000","publicwifi":"U","url":null,"broadband_type_id":6}
{"id":null,"anchorname":"SOUTH SANDY HEALTH CENTER","address":"955 EAST 11400 SOUTH, SANDY UT 84094","bldgnbr":"955","predir":"E","streetname":"11400","streettype":null,"suffdir":"S","city":"SANDY","state_code":"UT","zip5":"84094","latitude":"40.5447138730000000","longitude":"-111.86362767600000","publicwifi":"U","url":null,"broadband_type_id":3}
{"id":null,"anchorname":"ALTA HIGH SCHOOL (UEN)","address":"11055 S 1000 E, SANDY UT 84094","bldgnbr":"11055","predir":"S","streetname":"1000","streettype":null,"suffdir":"E","city":"SANDY","state_code":"UT","zip5":"84094","latitude":"40.5495337390000000","longitude":"-111.86101070100000","publicwifi":"U","url":null,"broadband_type_id":6}
{"id":null,"anchorname":"INDIAN HILLS MIDDLE SCHOOL (UEN)","address":"1180 E SANDERS RD, SANDY UT 84094","bldgnbr":"1180","predir":"E","streetname":"SANDERS","streettype":"RD","suffdir":null,"city":"SANDY","state_code":"UT","zip5":"84094","latitude":"40.5387241500000000","longitude":"-111.85684591200000","publicwifi":"U","url":null,"broadband_type_id":6}
{"id":null,"anchorname":"AFTER HOURS MEDICAL - DRAPER","address":"1126 EAST 12300 SOUTH, DRAPER UT 84020","bldgnbr":"1126","predir":"E","streetname":"12300","streettype":null,"suffdir":"S","city":"DRAPER","state_code":"UT","zip5":"84020","latitude":"40.5273698920000000","longitude":"-111.85768391800000","publicwifi":"U","url":null,"broadband_type_id":3}
{"id":null,"anchorname":"BLUFFDALE FIRE DEPARTMENT (EMS)","address":"14400 S 2200 W, BLUFFDALE UT 84065","bldgnbr":"14400","predir":"S","streetname":"2200","streettype":null,"suffdir":"W","city":"BLUFFDALE","state_code":"UT","zip5":"84065","latitude":"40.4907865810000000","longitude":"-111.94887723200000","publicwifi":"U","url":null,"broadband_type_id":5}
{"id":null,"anchorname":"BLUFFDALE FIRE DEPARTMENT","address":"14400 SOUTH 2200 WEST, BLUFFDALE UT 84065","bldgnbr":"14400","predir":"S","streetname":"2200","streettype":null,"suffdir":"W","city":"BLUFFDALE","state_code":"UT","zip5":"84065","latitude":"40.4907865810000000","longitude":"-111.94887723200000","publicwifi":"U","url":null,"broadband_type_id":5}
{"id":null,"anchorname":"BLUFFDALE ELEMENTARY SCHOOL (UEN)","address":"14323 S 2700 W, RIVERTON UT 84065","bldgnbr":"14323","predir":"S","streetname":"2700","streettype":null,"suffdir":"W","city":"RIVERTON","state_code":"UT","zip5":"84065","latitude":"40.4912042290000000","longitude":"-111.95642900600000","publicwifi":"U","url":null,"broadband_type_id":6}
{"id":null,"anchorname":"SUMMIT ACADEMY HIGH SCHOOL (UEN)","address":"14942 S 560 W, BLUFFDALE UT 84065","bldgnbr":"14942","predir":"S","streetname":"560","streettype":null,"suffdir":"W","city":"BLUFFDALE","state_code":"UT","zip5":"84065","latitude":"40.4799413260000000","longitude":"-111.90875181200000","publicwifi":"U","url":null,"broadband_type_id":6}
{"id":null,"anchorname":"ALL ABOUT HOME CARE","address":"903 EAST CARNATION DRIVE, SANDY UT 84094","bldgnbr":"903","predir":"E","streetname":"CARNATION","streettype":"DR","suffdir":null,"city":"SANDY","state_code":"UT","zip5":"84094","latitude":"40.5655370660000000","longitude":"-111.86511545100000","publicwifi":"U","url":null,"broadband_type_id":3}
{"id":null,"anchorname":"HILLTOP CHRISTIAN SCHOOL","address":"985 E 10600 S, SANDY UT 84094","bldgnbr":"985","predir":"E","streetname":"10600","streettype":null,"suffdir":"S","city":"SANDY","state_code":"UT","zip5":"84094","latitude":"40.5593301660000000","longitude":"-111.86295287200000","publicwifi":"U","url":null,"broadband_type_id":6}
{"id":null,"anchorname":"SANDY CITY FIRE DEPARTMENT STATION 33 (EMS)","address":"11270 SOUTH 2015 EAST, SANDY UT 84092","bldgnbr":"11270","predir":"S","streetname":"2015","streettype":null,"suffdir":"E","city":"SANDY","state_code":"UT","zip5":"84092","latitude":"40.5464001050000000","longitude":"-111.83339587000000","publicwifi":"U","url":null,"broadband_type_id":5}
{"id":null,"anchorname":"New Mexico Human Services Department - Income Support Division - San Miguel County (Las Vegas Area)","address":"2536 Ridge Runner","bldgnbr":"2536","predir":null,"streetname":"RUNNER","streettype":null,"suffdir":null,"city":"Las Vegas","state_code":"NM","zip5":"87701","latitude":"35.6200225880000000","longitude":"-105.23111216400000","publicwifi":"U","url":"http://www.hsd.state.nm.us/isd/","broadband_type_id":6}
{"id":null,"anchorname":"S.L. COUNTY-DRAPER BRANCH (UEN)","address":"1136 E PIONEER RD, DRAPER UT 84020","bldgnbr":"1136","predir":"E","streetname":"PIONEER","streettype":"RD","suffdir":null,"city":"DRAPER","state_code":"UT","zip5":"84020","latitude":"40.5245198450000000","longitude":"-111.85825629000000","publicwifi":"Y","url":null,"broadband_type_id":1}
{"id":null,"anchorname":"DRAPER ELEMENTARY (UEN)","address":"1080 E 12660 S, DRAPER UT 84020","bldgnbr":"1080","predir":"E","streetname":"12660","streettype":null,"suffdir":"S","city":"DRAPER","state_code":"UT","zip5":"84020","latitude":"40.5207743820000000","longitude":"-111.86105932900000","publicwifi":"U","url":null,"broadband_type_id":6}
{"id":null,"anchorname":"SOUTH VALLEY ASSISTED LIVING","address":"12702 SOUTH FORT STREET, DRAPER UT 84020","bldgnbr":"12702","predir":"S","streetname":"FORT","streettype":"ST","suffdir":null,"city":"DRAPER","state_code":"UT","zip5":"84020","latitude":"40.5208102910000000","longitude":"-111.86509252700000","publicwifi":"U","url":null,"broadband_type_id":6}
{"id":null,"anchorname":"SUMMIT ACADEMY ELEMENTARY (UEN)","address":"1285 E 13200 S, DRAPER UT 84020","bldgnbr":"1285","predir":"E","streetname":"13200","streettype":null,"suffdir":"S","city":"DRAPER","state_code":"UT","zip5":"84020","latitude":"40.5118773770000000","longitude":"-111.85369719700000","publicwifi":"U","url":null,"broadband_type_id":6}
{"id":null,"anchorname":"CANYON CREST SURGICAL","address":"11762 SOUTH STATE, DRAPER UT 84020","bldgnbr":"11762","predir":"S","streetname":"STATE","streettype":null,"suffdir":null,"city":"DRAPER","state_code":"UT","zip5":"84020","latitude":"40.5379770260000000","longitude":"-111.89149754500000","publicwifi":"U","url":null,"broadband_type_id":6}
{"id":null,"anchorname":"SUCCESS POINTE","address":"352 W 12300 S, DRAPER UT 84020","bldgnbr":"352","predir":"W","streetname":"12300","streettype":null,"suffdir":"S","city":"DRAPER","state_code":"UT","zip5":"84020","latitude":"40.5275995640000000","longitude":"-111.90140797500000","publicwifi":"U","url":null,"broadband_type_id":6}
{"id":null,"anchorname":"ABC #31 (WAN)","address":"14445 S MINUTEMAN DR, DRAPER UT 84020","bldgnbr":"14445","predir":"S","streetname":"MINUTEMAN","streettype":"DR","suffdir":null,"city":"DRAPER","state_code":"UT","zip5":"84020","latitude":"40.4888398170000000","longitude":"-111.89290880500000","publicwifi":"U","url":null,"broadband_type_id":null}
{"id":null,"anchorname":"CORRECTIONS FRED HOUSE (WAN)","address":"14591 MINUTEMAN DR, DRAPER UT 84020","bldgnbr":"14591","predir":null,"streetname":"MINUTEMAN","streettype":"DR","suffdir":null,"city":"DRAPER","state_code":"UT","zip5":"84020","latitude":"40.4838856290000000","longitude":"-111.89484619800000","publicwifi":"U","url":null,"broadband_type_id":null}
{"id":null,"anchorname":"SANDY CITY (WAN)","address":"10000 S STATE ST, SANDY UT 84070","bldgnbr":"10000","predir":"S","streetname":"STATE","streettype":"ST","suffdir":null,"city":"SANDY","state_code":"UT","zip5":"84070","latitude":"40.5696881350000000","longitude":"-111.89099809100000","publicwifi":"U","url":null,"broadband_type_id":1}
{"id":null,"anchorname":"EYESURG OF UTAH","address":"10011 SOUTH CENTENNIAL PARKWAY, SUITE 400, SANDY UT 84070","bldgnbr":"10011","predir":"S","streetname":"CENTENNIAL","streettype":"PKWY","suffdir":null,"city":"SANDY","state_code":"UT","zip5":"84070","latitude":"40.5694670070000000","longitude":"-111.89478118900000","publicwifi":"U","url":null,"broadband_type_id":6}
