{"id":null,"anchorname":"WAL-MART STORES EAST LP; WAL-MART PHARMACY 10-1939-001","address":"15 TIBBETTS DR, BRUNSWICK","bldgnbr":"15","predir":null,"streetname":"TIBBETTS","streettype":"DR","suffdir":null,"city":"BRUNSWICK","state_code":"ME","zip5":"4011","latitude":"43.9079349530000000","longitude":"-69.910410642000000","publicwifi":"U","url":null,"broadband_type_id":3}
{"id":null,"anchorname":"HARRISONVILLE UNITED METHODIST CHURCH","address":"2600 E. Mechanic","bldgnbr":"2600","predir":null,"streetname":"E. Mechanic","streettype":null,"suffdir":null,"city":"HARRISONVILLE","state_code":"MO","zip5":"64701","latitude":"38.6582088310000000","longitude":"-94.326605655000000","publicwifi":null,"url":null,"broadband_type_id":6}
{"id":null,"anchorname":"CLEVELAND CHRISTIAN CHURCH","address":"308 Main St.","bldgnbr":"308","predir":null,"streetname":"Main St.","streettype":null,"suffdir":null,"city":"CLEVELAND","state_code":"MO","zip5":"64734","latitude":"38.6792640560000000","longitude":"-94.593934638000000","publicwifi":null,"url":null,"broadband_type_id":6}
{"id":null,"anchorname":"1139th MP CO (-DET 1)","address":"1503 Jefferson Parkway, Harrisonville MO 64701-3704","bldgnbr":"1503","predir":null,"streetname":"Jefferson","streettype":"Parkway","suffdir":null,"city":"Harrisonville","state_code":"MO","zip5":"64701","latitude":"38.6669326650000000","longitude":"-94.350918468000000","publicwifi":"U","url":null,"broadband_type_id":null}
{"id":null,"anchorname":"WESTLINE CHRISTIAN CHURCH","address":"2 HWY to Westline","bldgnbr":"2","predir":null,"streetname":"HWY to Westline","streettype":null,"suffdir":null,"city":"CLEVELAND","state_code":"MO","zip5":"64734","latitude":"38.6792600000000000","longitude":"-94.593900000000000","publicwifi":null,"url":null,"broadband_type_id":6}
{"id":null,"anchorname":"PECULIAR ELEMENTARY","address":"201 E. 3rd St.","bldgnbr":"201","predir":null,"streetname":"E. 3rd St.","streettype":null,"suffdir":null,"city":"PECULIAR","state_code":"MO","zip5":"64078","latitude":"38.7182643270000000","longitude":"-94.456512752000000","publicwifi":null,"url":null,"broadband_type_id":6}
{"id":null,"anchorname":"Raymore-Peculiar Freshmen Center","address":"21001 South School Road, Peculiar MO 64078-0366","bldgnbr":"21001","predir":"S","streetname":"School","streettype":"Road","suffdir":null,"city":"Peculiar","state_code":"MO","zip5":"64078","latitude":"38.7473759220000000","longitude":"-94.456553307000000","publicwifi":"U","url":"http://www.raypec.k12.mo.us/","broadband_type_id":6}
{"id":null,"anchorname":"SHULL 6TH GRADE CENTER","address":"11706 E. 211 St.","bldgnbr":"11706","predir":null,"streetname":"E. 211 St.","streettype":null,"suffdir":null,"city":"PECULIAR","state_code":"MO","zip5":"64078","latitude":"38.7400996400000000","longitude":"-94.458574745000000","publicwifi":null,"url":null,"broadband_type_id":null}
{"id":null,"anchorname":"Peculiar Lion's Club","address":"500 Schug Ave.","bldgnbr":"500","predir":null,"streetname":"Schug Ave.","streettype":null,"suffdir":null,"city":"PECULIAR","state_code":"MO","zip5":"64078","latitude":"38.7221699010000000","longitude":"-94.458304457000000","publicwifi":null,"url":null,"broadband_type_id":null}
{"id":null,"anchorname":"Central Cass County Fire Protection District Station 2","address":"20012 East 215th Street, Harrisonville MO 64701","bldgnbr":"20012","predir":"E","streetname":"315th","streettype":"Street","suffdir":null,"city":"Harrisonville","state_code":"MO","zip5":"64701","latitude":"38.7288457050000000","longitude":"-94.362422888000000","publicwifi":"U","url":null,"broadband_type_id":5}
{"id":null,"anchorname":"Central Cass County Fire Protection District Station 2","address":"201 East Pine Street, Archie MO 64725","bldgnbr":"201","predir":"E","streetname":"Pine","streettype":"Street","suffdir":null,"city":"Archie","state_code":"MO","zip5":"64725","latitude":"38.4793305790000000","longitude":"-94.352148492000000","publicwifi":"Y","url":null,"broadband_type_id":5}
{"id":null,"anchorname":"NORTH PARK ACTIVITY CENTER","address":"1501 Jefferson Pkwy.","bldgnbr":"1501","predir":null,"streetname":"Jefferson Pkwy.","streettype":null,"suffdir":null,"city":"HARRISONVILLE","state_code":"MO","zip5":"64701","latitude":"38.6635014310000000","longitude":"-94.351852390000000","publicwifi":null,"url":null,"broadband_type_id":2}
{"id":null,"anchorname":"Harrisonville High School","address":"1504 East Elm, Harrisonville MO 64701-2022","bldgnbr":"1504","predir":"E","streetname":"Elm","streettype":null,"suffdir":null,"city":"Harrisonville","state_code":"MO","zip5":"64701","latitude":"38.6580180560000000","longitude":"-94.335785368000000","publicwifi":"U","url":"http://harrisonvilleschools.org/education/components/scrapbook/default.php?sectionid=1","broadband_type_id":6}
{"id":null,"anchorname":"Cass Career Center","address":"1600 East Elm, Harrisonville MO 64701-2024","bldgnbr":"1600","predir":"E","streetname":"Elm","streettype":null,"suffdir":null,"city":"Harrisonville","state_code":"MO","zip5":"64701","latitude":"38.6601728710000000","longitude":"-94.333714642000000","publicwifi":"U","url":"http://www.harrisonvilleschools.org/education/school/school.php?sectionid=1270","broadband_type_id":3}
{"id":null,"anchorname":"HARRISONVILLE SENIOR HIGH SCHOOL","address":"1504 E. Elm","bldgnbr":"1504","predir":null,"streetname":"E. Elm","streettype":null,"suffdir":null,"city":"HARRISONVILLE","state_code":"MO","zip5":"64701","latitude":"38.6570293990000000","longitude":"-94.336681073000000","publicwifi":null,"url":null,"broadband_type_id":6}
{"id":null,"anchorname":"HARRISONVILLE SENIOR HIGH SCHOOL","address":"1504 E. Elm","bldgnbr":"1504","predir":null,"streetname":"E. Elm","streettype":null,"suffdir":null,"city":"HARRISONVILLE","state_code":"MO","zip5":"64701","latitude":"38.6570293990000000","longitude":"-94.336681073000000","publicwifi":null,"url":null,"broadband_type_id":6}
{"id":null,"anchorname":"Cass Medical Center","address":"1800 East Mechanic, Harrisonville MO 64701","bldgnbr":"1800","predir":"E","streetname":"Mechanic","streettype":null,"suffdir":null,"city":"Harrisonville","state_code":"MO","zip5":"64701","latitude":"38.6556792280000000","longitude":"-94.333449935000000","publicwifi":"U","url":"http://www.cassregional.org/","broadband_type_id":3}
{"id":null,"anchorname":"CASS CAREER CENTER","address":"1600 E. Elm","bldgnbr":"1600","predir":null,"streetname":"E. Elm","streettype":null,"suffdir":null,"city":"HARRISONVILLE","state_code":"MO","zip5":"64701","latitude":"38.6570163090000000","longitude":"-94.336052777000000","publicwifi":null,"url":null,"broadband_type_id":3}
{"id":null,"anchorname":"Harrisonville City Hall","address":"300 East Pearl Street, Harrisonville, MO 64701-1850","bldgnbr":"303","predir":"E","streetname":"Pearl","streettype":"Street","suffdir":null,"city":"Harrisonville","state_code":"MO","zip5":"64701","latitude":"38.6551605680000000","longitude":"-94.347100193000000","publicwifi":"U","url":"http://ci.harrisonville.mo.us/","broadband_type_id":1}
{"id":null,"anchorname":"Harrisonville Police Deptartment","address":"285 East Pearl Street, Harrisonville MO 64701","bldgnbr":"300","predir":"E","streetname":"Pearl","streettype":"Street","suffdir":null,"city":"Harrisonville","state_code":"MO","zip5":"64701","latitude":"38.6551576310000000","longitude":"-94.347388211000000","publicwifi":"U","url":"http://ci.harrisonville.mo.us/","broadband_type_id":4}
{"id":null,"anchorname":"Cass County Library - Genealogy","address":"400 East Mechanic Street, Harrisonville MO 64701-2428","bldgnbr":"400","predir":"E","streetname":"Mechanic","streettype":"Street","suffdir":null,"city":"Harrisonville","state_code":"MO","zip5":"64701","latitude":"38.6533237800000000","longitude":"-94.346039863000000","publicwifi":"U","url":"http://www.casscolibrary.org/","broadband_type_id":6}
{"id":null,"anchorname":"Cass County Courthouse","address":"102 East Wall Street, Harrisonville MO 64701","bldgnbr":"102","predir":"E","streetname":"Wall","streettype":"Street","suffdir":null,"city":"Harrisonville","state_code":"MO","zip5":"64701","latitude":"38.6545403230000000","longitude":"-94.348252463000000","publicwifi":"U","url":"http://www.courts.mo.gov/","broadband_type_id":1}
{"id":null,"anchorname":"Cass County Health Department","address":"100 West Wall, Harrisonville MO 64101","bldgnbr":"100","predir":"West","streetname":"Wall","streettype":null,"suffdir":null,"city":"Harrisonville","state_code":"MO","zip5":"64101","latitude":"38.6541392230000000","longitude":"-94.348143215000000","publicwifi":"U","url":"http://www.casscountyhealth.com/","broadband_type_id":3}
{"id":null,"anchorname":"CLEVELAND COMMUNITY COLLEGE","address":"205 Main Box 140","bldgnbr":"205","predir":null,"streetname":"Main Box 140","streettype":null,"suffdir":null,"city":"CLEVELAND","state_code":"MO","zip5":"64734","latitude":"38.6792538960000000","longitude":"-94.593715859000000","publicwifi":null,"url":null,"broadband_type_id":6}
{"id":null,"anchorname":"Cleveland City Hall","address":"209 West Main Street Cleveland, MO 64734-7106","bldgnbr":"209","predir":"W","streetname":"Main","streettype":"Street","suffdir":null,"city":"Cleveland","state_code":"MO","zip5":"64734","latitude":"38.6789974010000000","longitude":"-94.593366490000000","publicwifi":"N","url":null,"broadband_type_id":1}
{"id":null,"anchorname":"Cleveland Police Department","address":"209 West Main Street, Cleveland MO 64734","bldgnbr":"209","predir":"W","streetname":"Main","streettype":"Street","suffdir":null,"city":"Cleveland","state_code":"MO","zip5":"64734","latitude":"38.6789971410000000","longitude":"-94.593372105000000","publicwifi":"N","url":null,"broadband_type_id":4}
{"id":null,"anchorname":"Western Cass Fire Protection District Station 6","address":"5 Roger Street, Cleveland MO 64734","bldgnbr":"5","predir":null,"streetname":"Roger","streettype":"Street","suffdir":null,"city":"Cleveland","state_code":"MO","zip5":"64734","latitude":"38.6787006170000000","longitude":"-94.590922069000000","publicwifi":"U","url":null,"broadband_type_id":5}
{"id":null,"anchorname":"Peculiar City Hall","address":"600 Schug Avenue, Peculiar, MO 64078-9101","bldgnbr":"600","predir":null,"streetname":"Schug","streettype":"Avenue","suffdir":null,"city":"Peculiar","state_code":"MO","zip5":"64078","latitude":"38.7243010650000000","longitude":"-94.458216474000000","publicwifi":"N","url":"http://www.cityofpeculiar.com/","broadband_type_id":1}
{"id":null,"anchorname":"Peculiar Elementary School","address":"201 East 3rd Street, Peculiar MO 64078-0366","bldgnbr":"201","predir":"E","streetname":"3rd","streettype":"Street","suffdir":null,"city":"Peculiar","state_code":"MO","zip5":"64078","latitude":"38.7181311400000000","longitude":"-94.455163558000000","publicwifi":"U","url":"http://www.raypec.k12.mo.us/","broadband_type_id":6}
{"id":null,"anchorname":"West Peculiar Fire Protection District","address":"200 South Main Street, Peculiar MO 64078","bldgnbr":"200","predir":"S","streetname":"Main","streettype":"Street","suffdir":null,"city":"Peculiar","state_code":"MO","zip5":"64078","latitude":"38.7197444650000000","longitude":"-94.460841965000000","publicwifi":"U","url":"http://www.westpeculiarfire.org/","broadband_type_id":5}
{"id":null,"anchorname":"Peculiar Police Department","address":"224 Main Street, Peculiar MO 64078","bldgnbr":"224","predir":null,"streetname":"Main","streettype":"Street","suffdir":null,"city":"Peculiar","state_code":"MO","zip5":"64078","latitude":"38.7188214060000000","longitude":"-94.460043472000000","publicwifi":"U","url":"http://www.cityofpeculiar.com/police.aspx","broadband_type_id":4}
{"id":null,"anchorname":"Shull Elementary School","address":"11706 E 211th St, Peculiar MO 64078-0366","bldgnbr":"11706","predir":"E","streetname":"211th","streettype":"Street","suffdir":null,"city":"Peculiar","state_code":"MO","zip5":"64078","latitude":"38.7407301930000000","longitude":"-94.456681049000000","publicwifi":"U","url":"http://www.raypec.k12.mo.us/","broadband_type_id":6}
{"id":null,"anchorname":"Raymore-Peculiar Middle School","address":"20501 South School Road, Peculiar MO 64078-0366","bldgnbr":"21001","predir":"S","streetname":"School","streettype":"Road","suffdir":null,"city":"Peculiar","state_code":"MO","zip5":"64078","latitude":"38.7487544810000000","longitude":"-94.457074001000000","publicwifi":"U","url":"http://www.raypec.k12.mo.us/","broadband_type_id":6}
{"id":null,"anchorname":"SEVENTH-DAY ADVENTIST CHURCH","address":"333 MAINE ST BRUNSWICK ME 04011","bldgnbr":"333","predir":null,"streetname":"MAINE","streettype":"ST","suffdir":null,"city":"BRUNSWICK","state_code":"ME","zip5":"04011","latitude":"43.8944183660000000","longitude":"-69.971977859000000","publicwifi":"U","url":null,"broadband_type_id":6}
{"id":null,"anchorname":"MAINE OPTOMETRY PA; STANDISH-008","address":"82 MAINE ST, BRUNSWICK","bldgnbr":"82","predir":null,"streetname":"MAINE","streettype":"ST","suffdir":null,"city":"BRUNSWICK","state_code":"ME","zip5":"4011","latitude":"43.9168639940000000","longitude":"-69.966121141000000","publicwifi":"U","url":null,"broadband_type_id":6}
{"id":null,"anchorname":"POST OFFICE-NAPLES","address":"17 VILLAGE GREEN LN NAPLES ME 04055","bldgnbr":"17","predir":null,"streetname":"VILLAGE GREEN","streettype":"LN","suffdir":null,"city":"NAPLES","state_code":"ME","zip5":"04055","latitude":"43.9709400010000000","longitude":"-70.610720001000000","publicwifi":"U","url":null,"broadband_type_id":6}
{"id":null,"anchorname":"FREEMAN BAPTIST CHURCH","address":"303 N. Washington St.","bldgnbr":"303","predir":null,"streetname":"N. Washington St.","streettype":null,"suffdir":null,"city":"FREEMAN","state_code":"MO","zip5":"64746","latitude":"38.6191281620000000","longitude":"-94.506455798000000","publicwifi":null,"url":null,"broadband_type_id":6}
{"id":null,"anchorname":"AUSTIN BAPTIST CHURCH","address":"33700 S. Bates St.","bldgnbr":"33700","predir":null,"streetname":"S. Bates St.","streettype":null,"suffdir":null,"city":"ARCHIE","state_code":"MO","zip5":"64725","latitude":"38.5038904760000000","longitude":"-94.298158930000000","publicwifi":null,"url":null,"broadband_type_id":6}
{"id":null,"anchorname":"ARCHIE UNITED METHODIST CHURCH","address":"W. Chestnut and S. Ohio St.","bldgnbr":"W.","predir":null,"streetname":"Chestnut and S. Ohio St.","streettype":null,"suffdir":null,"city":"ARCHIE","state_code":"MO","zip5":"64725","latitude":"38.4807630000000000","longitude":"-94.356204000000000","publicwifi":null,"url":null,"broadband_type_id":6}
{"id":null,"anchorname":"Cass County Jail / Cass County Juvenile Center","address":"2501 West Mechanic Suite 100, Harrisonville MO 64701","bldgnbr":"2501","predir":"W","streetname":"Mechanic","streettype":"Street","suffdir":null,"city":"Harrisonville","state_code":"MO","zip5":"64701","latitude":"38.6490318760000000","longitude":"-94.368286658000000","publicwifi":"N","url":"http://www.cassmosheriff.org/","broadband_type_id":1}
{"id":null,"anchorname":"Freeman Community Center","address":"103 E. Main St.","bldgnbr":"103","predir":null,"streetname":"E. Main St.","streettype":null,"suffdir":null,"city":"FREEMAN","state_code":"MO","zip5":"64746","latitude":"38.6174089880000000","longitude":"-94.506180239000000","publicwifi":null,"url":null,"broadband_type_id":1}
{"id":null,"anchorname":"Drexel High School","address":"207 South 4th Street, Drexel MO 64742-0860","bldgnbr":"207","predir":"S","streetname":"4th","streettype":"Street","suffdir":null,"city":"Drexel","state_code":"MO","zip5":"64742","latitude":"38.4791442610000000","longitude":"-94.604735129000000","publicwifi":"U","url":"http://www.drexel.k12.mo.us/","broadband_type_id":6}
{"id":null,"anchorname":"Drexel Elementary School","address":"207 South 4th Street, Drexel MO 64742-0860","bldgnbr":"207","predir":"S","streetname":"4th","streettype":"Street","suffdir":null,"city":"Drexel","state_code":"MO","zip5":"64742","latitude":"38.4791431760000000","longitude":"-94.604740079000000","publicwifi":"U","url":"http://www.drexel.k12.mo.us/","broadband_type_id":6}
{"id":null,"anchorname":"Drexel Police Department","address":"120 South 2nd Street, Drexel MO 64742","bldgnbr":"120","predir":"S","streetname":"2nd","streettype":"Street","suffdir":null,"city":"Drexel","state_code":"MO","zip5":"64742","latitude":"38.4791544590000000","longitude":"-94.609072350000000","publicwifi":"N","url":"www.drexelmo.com","broadband_type_id":4}
{"id":null,"anchorname":"Drexel Community Fire Protection Association","address":"113 East Cass Street, Drexel MO 64742","bldgnbr":"113","predir":"E","streetname":"Cass","streettype":"Street","suffdir":null,"city":"Drexel","state_code":"MO","zip5":"64742","latitude":"38.4786485810000000","longitude":"-94.609594228000000","publicwifi":"U","url":null,"broadband_type_id":5}
{"id":null,"anchorname":"Lake Annette City Hall","address":"7809 East 258th Street, Freeman, Mo, 64746-9770","bldgnbr":"7809","predir":"E","streetname":"258th","streettype":"Street","suffdir":null,"city":"Freeman","state_code":"MO","zip5":"64746","latitude":"38.6506869640000000","longitude":"-94.512883227000000","publicwifi":"U","url":null,"broadband_type_id":1}
{"id":null,"anchorname":"Dolan-West Dolan Fire Protection District - Main Station","address":"204 East 2nd Street, Freeman MO 64746","bldgnbr":"204","predir":"E","streetname":"2nd","streettype":"Street","suffdir":null,"city":"Freeman","state_code":"MO","zip5":"64746","latitude":"38.6184957700000000","longitude":"-94.504656549000000","publicwifi":"U","url":null,"broadband_type_id":5}
{"id":null,"anchorname":"Freeman Police Department","address":"106 East Main Street, Freeman MO 64746","bldgnbr":"106","predir":"E","streetname":"Main","streettype":"Street","suffdir":null,"city":"Freeman","state_code":"MO","zip5":"64746","latitude":"38.6171095750000000","longitude":"-94.506165477000000","publicwifi":"N","url":null,"broadband_type_id":4}
{"id":null,"anchorname":"Freeman City Hall","address":"106 East Main Street, Freeman, MO 64746-9705","bldgnbr":"106","predir":"E","streetname":"Main","streettype":"Street","suffdir":null,"city":"Freeman","state_code":"MO","zip5":"64746","latitude":"38.6175569510000000","longitude":"-94.506111453000000","publicwifi":"N","url":null,"broadband_type_id":1}
{"id":null,"anchorname":"Midway High School","address":"5801 East State Route 2, Cleveland MO 64734-8109","bldgnbr":"5801","predir":"E","streetname":"State Route 2","streettype":"Route","suffdir":null,"city":"Cleveland","state_code":"MO","zip5":"64734","latitude":"38.6352992710000000","longitude":"-94.539009493000000","publicwifi":"U","url":"http://www.midway.k12.mo.us/","broadband_type_id":6}
{"id":null,"anchorname":"Midway Elementary School","address":"5801 East State Route 2, Cleveland MO 64734-8109","bldgnbr":"5801","predir":"E","streetname":"State Route 2","streettype":"Route","suffdir":null,"city":"Cleveland","state_code":"MO","zip5":"64734","latitude":"38.6353071740000000","longitude":"-94.539093673000000","publicwifi":"U","url":"http://www.midway.k12.mo.us/","broadband_type_id":6}
{"id":null,"anchorname":"Dolan-West Dolan Fire Protection District Station 2","address":"301 South Main Street, Cleveland MO 64734","bldgnbr":"301","predir":"S","streetname":"Main","streettype":"Street","suffdir":null,"city":"Cleveland","state_code":"MO","zip5":"64734","latitude":"38.6278868180000000","longitude":"-94.587248745000000","publicwifi":"U","url":null,"broadband_type_id":5}
{"id":null,"anchorname":"Sherwood High School","address":"33300 S Sherwood Dr, Creighton MO 64739-0098","bldgnbr":"33300","predir":"S","streetname":"Sherwood","streettype":"Drive","suffdir":null,"city":"Creighton","state_code":"MO","zip5":"64739","latitude":"38.5077071670000000","longitude":"-94.087082104000000","publicwifi":"U","url":null,"broadband_type_id":6}
{"id":null,"anchorname":"Sherwood Middle School","address":"33300 S Sherwood Dr, Creighton MO 64739-0098","bldgnbr":"33300","predir":"S","streetname":"Sherwood","streettype":"Drive","suffdir":null,"city":"Creighton","state_code":"MO","zip5":"64739","latitude":"38.5080470210000000","longitude":"-94.087361394000000","publicwifi":"U","url":null,"broadband_type_id":6}
{"id":null,"anchorname":"Sherwood Elementary School- Cass R-8 School District","address":"33300 S Sherwood Dr, Creighton MO 64739-0098","bldgnbr":"33300","predir":"S","streetname":"Sherwood","streettype":"Drive","suffdir":null,"city":"Creighton","state_code":"MO","zip5":"64739","latitude":"38.5084753850000000","longitude":"-94.087328412000000","publicwifi":"U","url":"http://springfieldpublicschoolsmo.org/sherwood/index.htm","broadband_type_id":6}
{"id":null,"anchorname":"SHERWOOD SCHOOL","address":"33300 S. Sherwood Dr.","bldgnbr":"33300","predir":null,"streetname":"S. Sherwood Dr.","streettype":null,"suffdir":null,"city":"CREIGHTON","state_code":"MO","zip5":"64739","latitude":"38.5179598500000000","longitude":"-94.084659944000000","publicwifi":null,"url":null,"broadband_type_id":6}
{"id":null,"anchorname":"Creighton Fire Protection District","address":"501 Short Street, Creighton MO 64739","bldgnbr":"501","predir":null,"streetname":"Short","streettype":"Street","suffdir":null,"city":"Creighton","state_code":"MO","zip5":"64739","latitude":"38.4988842700000000","longitude":"-94.069507000000000","publicwifi":"U","url":null,"broadband_type_id":5}
{"id":null,"anchorname":"Creighton Police Department","address":"104 West 2nd Street, Creighton MO 64739","bldgnbr":"104","predir":"W","streetname":"2nd","streettype":"Street","suffdir":null,"city":"Creighton","state_code":"MO","zip5":"64739","latitude":"38.4943935360000000","longitude":"-94.074020365000000","publicwifi":"N","url":null,"broadband_type_id":4}
{"id":null,"anchorname":"Creighton City Hall","address":"104 West 2nd Street Creighton, MO 64739","bldgnbr":"104","predir":"W","streetname":"2nd","streettype":"Street","suffdir":null,"city":"Creighton","state_code":"MO","zip5":"64739","latitude":"38.4943799840000000","longitude":"-94.074024121000000","publicwifi":"N","url":null,"broadband_type_id":1}
{"id":null,"anchorname":"CASS COUNTY R-V SCHOOL DISTRICT","address":"302 W. State Route A","bldgnbr":"302","predir":null,"streetname":"W. State Route A","streettype":null,"suffdir":null,"city":"ARCHIE","state_code":"MO","zip5":"64725","latitude":"38.4832432360000000","longitude":"-94.350733044000000","publicwifi":null,"url":null,"broadband_type_id":6}
{"id":null,"anchorname":"Archie High School","address":"302 West State Route A, Archie MO 64725-0106","bldgnbr":"302","predir":"W","streetname":"State Route A","streettype":"Route","suffdir":null,"city":"Archie","state_code":"MO","zip5":"64725","latitude":"38.4837809650000000","longitude":"-94.355887824000000","publicwifi":"U","url":"http://www.archie.k12.mo.us/index.aspx?nid=82","broadband_type_id":6}
{"id":null,"anchorname":"Cass County Elementary School","address":"302 West State Route A, Archie MO 64725-0106","bldgnbr":"302","predir":"W","streetname":"State Route A","streettype":"Route","suffdir":null,"city":"Archie","state_code":"MO","zip5":"64725","latitude":"38.4841681550000000","longitude":"-94.355837445000000","publicwifi":"U","url":null,"broadband_type_id":6}
{"id":null,"anchorname":"CASS COUNTY R V SCHOOL","address":"302 High School Ave.","bldgnbr":"302","predir":null,"streetname":"High School Ave.","streettype":null,"suffdir":null,"city":"ARCHIE","state_code":"MO","zip5":"64725","latitude":"38.4833533480000000","longitude":"-94.355759572000000","publicwifi":null,"url":null,"broadband_type_id":6}
{"id":null,"anchorname":"Cass County Library - Archie Branch","address":"315 South Main Street, Archie MO 64725-0064","bldgnbr":"315","predir":"S","streetname":"Main","streettype":"Street","suffdir":null,"city":"Archie","state_code":"MO","zip5":"64725","latitude":"38.4809063010000000","longitude":"-94.353719126000000","publicwifi":"U","url":"http://www.casscolibrary.org/","broadband_type_id":6}
{"id":null,"anchorname":"Archie Police Department","address":"401 South Main Street, Archie MO 64725","bldgnbr":"401","predir":"S","streetname":"Main","streettype":"Street","suffdir":null,"city":"Archie","state_code":"MO","zip5":"64725","latitude":"38.4799458740000000","longitude":"-94.353629339000000","publicwifi":"N","url":"www.cityofarchie.org","broadband_type_id":4}
{"id":null,"anchorname":"Archie City Hall","address":"401 South Main Street, Archie, MO 64725-9611","bldgnbr":"401","predir":"S","streetname":"Main","streettype":"Street","suffdir":null,"city":"Archie","state_code":"MO","zip5":"64725","latitude":"38.4804800610000000","longitude":"-94.353738346000000","publicwifi":"N","url":"www.cityofarchie.org","broadband_type_id":1}
{"id":null,"anchorname":"Belton Fire Department Station 1","address":"223 Main Street, Belton MO 64012","bldgnbr":"223","predir":null,"streetname":"Main","streettype":"Street","suffdir":null,"city":"Belton","state_code":"MO","zip5":"64012","latitude":"38.8129532000000000","longitude":"-94.533113315000000","publicwifi":"N","url":"www.belton.org","broadband_type_id":5}
{"id":null,"anchorname":"Belton City Hall","address":"506 Main Street, Belton, MO 64012","bldgnbr":"506","predir":null,"streetname":"Main","streettype":"Street","suffdir":null,"city":"Belton","state_code":"MO","zip5":"64012","latitude":"38.8107775120000000","longitude":"-94.531393505000000","publicwifi":"U","url":"http://www.belton.org/","broadband_type_id":1}
{"id":null,"anchorname":"FIRST CHURCH OF CHRIST SCNTST","address":"288 MAINE ST BRUNSWICK ME 04011","bldgnbr":"288","predir":null,"streetname":"MAINE","streettype":"ST","suffdir":null,"city":"BRUNSWICK","state_code":"ME","zip5":"04011","latitude":"43.9027950970000000","longitude":"-69.966838879000000","publicwifi":"U","url":null,"broadband_type_id":6}
{"id":null,"anchorname":"SMITHTON BAPTIST CHURCH","address":"NW corner of Walnut \u0026 Webster","bldgnbr":"NW","predir":null,"streetname":"corner of Walnut \u0026 Webster","streettype":null,"suffdir":null,"city":"FLEMINGTON","state_code":"MO","zip5":"65650","latitude":"37.8030894800000000","longitude":"-93.743207105000000","publicwifi":null,"url":null,"broadband_type_id":6}
{"id":null,"anchorname":"Harvest Assembly Church","address":"311 N. Poplar St.","bldgnbr":"311","predir":null,"streetname":"N. Poplar St.","streettype":null,"suffdir":null,"city":"FAIR PLAY","state_code":"MO","zip5":"65649","latitude":"37.6368459300000000","longitude":"-93.690460482000000","publicwifi":null,"url":null,"broadband_type_id":6}
{"id":null,"anchorname":"Southwest Missouri Psychiatric Rehabilitation Center","address":"1301 Industrial Parkway East, El Dorado Springs MO 64744","bldgnbr":"1301","predir":null,"streetname":"Industrial","streettype":"Parkway","suffdir":"E","city":"El Dorado Springs","state_code":"MO","zip5":"64744","latitude":"37.8728471900000000","longitude":"-94.032379496000000","publicwifi":"U","url":"http://heartlandbehavioral.com/","broadband_type_id":6}
{"id":null,"anchorname":"Everett Wade Juvenile Center","address":"503 South Lexington, Harrisonville MO 64701-2415","bldgnbr":"503","predir":"S","streetname":"Lexington","streettype":null,"suffdir":null,"city":"Harrisonville","state_code":"MO","zip5":"64701","latitude":"38.6526694080000000","longitude":"-94.342903929000000","publicwifi":"U","url":null,"broadband_type_id":null}
{"id":null,"anchorname":"EARLY CHILDHOOD CENTER","address":"500 Polar Ln.","bldgnbr":"500","predir":null,"streetname":"Polar Ln.","streettype":null,"suffdir":null,"city":"HARRISONVILLE","state_code":"MO","zip5":"64701","latitude":"38.6513200000000000","longitude":"-94.343531000000000","publicwifi":null,"url":null,"broadband_type_id":null}
{"id":null,"anchorname":"Humansville Senior Center","address":"102 W. Tilden St.","bldgnbr":"102","predir":null,"streetname":"W. Tilden St.","streettype":null,"suffdir":null,"city":"HUMANSVILLE","state_code":"MO","zip5":"65674","latitude":"37.7964787300000000","longitude":"-93.694290182000000","publicwifi":null,"url":null,"broadband_type_id":null}
{"id":null,"anchorname":"Springs Of Life Family Worship Center","address":"700 E. Hospital Rd.","bldgnbr":"700","predir":null,"streetname":"E. Hospital Rd.","streettype":null,"suffdir":null,"city":"EL DORADO SPRINGS","state_code":"MO","zip5":"64744","latitude":"37.8594040000000000","longitude":"-94.014372000000000","publicwifi":null,"url":null,"broadband_type_id":null}
{"id":null,"anchorname":"Eldorado Springs Senior Center","address":"604 S. Forrest","bldgnbr":"604","predir":null,"streetname":"S. Forrest","streettype":null,"suffdir":null,"city":"EL DORADO SPRINGS","state_code":"MO","zip5":"64744","latitude":"37.8709340000000000","longitude":"-94.017044000000000","publicwifi":null,"url":null,"broadband_type_id":null}
{"id":null,"anchorname":"Central Cass County Fire Protection District Station 1","address":"2507 East Outer Road South, Harrisonville MO 64701","bldgnbr":"2507","predir":"E","streetname":"Outer Road","streettype":"Road","suffdir":"S","city":"Harrisonville","state_code":"MO","zip5":"64701","latitude":"38.6367402540000000","longitude":"-94.351647549000000","publicwifi":"U","url":null,"broadband_type_id":5}
{"id":null,"anchorname":"Briarwood State School","address":"1801 South James Street Harrisonville, MO 64701-3469","bldgnbr":"1801","predir":"S","streetname":"Hames","streettype":"Street","suffdir":null,"city":"Harrisonville","state_code":"MO","zip5":"64701","latitude":"38.6422790650000000","longitude":"-94.337485640000000","publicwifi":"U","url":null,"broadband_type_id":6}
{"id":null,"anchorname":"McEowen Elementary School","address":"1901 South Halsey Avenue, Harrisonville MO 64701-3471","bldgnbr":"1901","predir":"S","streetname":"Halsey","streettype":"Avenue","suffdir":null,"city":"Harrisonville","state_code":"MO","zip5":"64701","latitude":"38.6418799650000000","longitude":"-94.338598929000000","publicwifi":"U","url":null,"broadband_type_id":6}
{"id":null,"anchorname":"Early Childhood Center- Harrisonville R-9 School District","address":"500 Polar Lane, Harrisonville MO 64701-2504","bldgnbr":"500","predir":null,"streetname":"Polar","streettype":"Lane","suffdir":null,"city":"Harrisonville","state_code":"MO","zip5":"64701","latitude":"38.6519377960000000","longitude":"-94.344227968000000","publicwifi":"U","url":"http://harrisonvilleschools.org","broadband_type_id":6}
{"id":null,"anchorname":"HARRISONVILLE MIDDLE SCHOOL","address":"601 S. Highland","bldgnbr":"601","predir":null,"streetname":"S. Highland","streettype":null,"suffdir":null,"city":"HARRISONVILLE","state_code":"MO","zip5":"64701","latitude":"38.6518764340000000","longitude":"-94.345839365000000","publicwifi":null,"url":null,"broadband_type_id":6}
{"id":null,"anchorname":"HUMANSVILLE HIGH SCHOOL","address":"100 N. Oak","bldgnbr":"100","predir":null,"streetname":"N. Oak","streettype":null,"suffdir":null,"city":"Humansville","state_code":"MO","zip5":"65674","latitude":"37.7986679970000000","longitude":"-93.690875513000000","publicwifi":null,"url":null,"broadband_type_id":6}
{"id":null,"anchorname":"Caplinger Mills Volunteer Fire Department","address":"6565 South 1445 Road, Stockton MO 65785","bldgnbr":"6565","predir":"S","streetname":"1445 Road","streettype":"Road","suffdir":null,"city":"Stockton","state_code":"MO","zip5":"65785","latitude":"37.7974112130000000","longitude":"-93.805130079000000","publicwifi":"U","url":null,"broadband_type_id":5}
{"id":null,"anchorname":"Chapel Hills Volunteer Fire Department","address":"215 S 1425 Road, Stockton, Mo 65785","bldgnbr":"215","predir":"S","streetname":"1425 Road","streettype":"Road","suffdir":null,"city":"Stockton","state_code":"MO","zip5":"65785","latitude":"37.7394100140000000","longitude":"-93.811289074000000","publicwifi":"N","url":null,"broadband_type_id":5}
{"id":null,"anchorname":"Olympia Rural Fire Department","address":"10900 State Highway 97, El Dorado Springs MO 64744","bldgnbr":"10900","predir":null,"streetname":"State Hwy 97","streettype":"State Highway","suffdir":null,"city":"El Dorado Springs","state_code":"MO","zip5":"64744","latitude":"37.7425604900000000","longitude":"-94.028485378000000","publicwifi":"U","url":null,"broadband_type_id":5}
{"id":null,"anchorname":"Jerico Springs City Hall","address":"308 South Main Street, Jerico Springs, MO 64756","bldgnbr":"308","predir":"S","streetname":"Main","streettype":"Street","suffdir":null,"city":"Jerico Springs","state_code":"MO","zip5":"64576","latitude":"37.6185762590000000","longitude":"-94.011320520000000","publicwifi":"U","url":null,"broadband_type_id":1}
{"id":null,"anchorname":"Jerico Springs Fire Department","address":"21649 South 525 Road, Jerico Springs MO 64756","bldgnbr":"21649","predir":"S","streetname":"525","streettype":"Road","suffdir":null,"city":"Jerico Springs","state_code":"MO","zip5":"64576","latitude":"37.5851659220000000","longitude":"-93.983451625000000","publicwifi":"N","url":null,"broadband_type_id":5}
{"id":null,"anchorname":"Dunnegan Rural Fire Department Station 1","address":"3815 South 21st Road, Dunnegan MO 65640","bldgnbr":"3815","predir":"S","streetname":"21st","streettype":"Road","suffdir":null,"city":"Dunnegan","state_code":"MO","zip5":"65640","latitude":"37.7058243950000000","longitude":"-93.695907449000000","publicwifi":"U","url":null,"broadband_type_id":5}
{"id":null,"anchorname":"FAIR PLAY HIGH SCHOOL AND ELEMENTARY","address":"305 N. Walnut St., Route 1 PO Box 1020","bldgnbr":"305","predir":null,"streetname":"N. Walnut St., Route 1 PO Box 1020","streettype":null,"suffdir":null,"city":"FAIR PLAY","state_code":"MO","zip5":"65649","latitude":"37.6367629300000000","longitude":"-93.693774482000000","publicwifi":null,"url":null,"broadband_type_id":6}
{"id":null,"anchorname":"Dunnegan Rural Fire Department Station 2","address":"East 460th Road, Fair Play MO 65649","bldgnbr":"N/A","predir":"E","streetname":"460th","streettype":"Road","suffdir":null,"city":"Fair Play","state_code":"MO","zip5":"65649","latitude":"37.5883908040000000","longitude":"-93.670399578000000","publicwifi":"U","url":null,"broadband_type_id":5}
{"id":null,"anchorname":"Cedar County Health Department","address":"1317 S. Hwy 32, El Dorado Springs MO 64744","bldgnbr":"1317","predir":"S","streetname":"Highway 32","streettype":"Highway","suffdir":null,"city":"El Dorado Springs","state_code":"MO","zip5":"64744","latitude":"37.8623357740000000","longitude":"-94.011634402000000","publicwifi":"Y","url":"http://heartlandbehavioral.com/","broadband_type_id":3}
{"id":null,"anchorname":"Cedar County Memorial Hospital","address":"1401 South Park Street, El Dorado Springs MO 64744","bldgnbr":"1401","predir":"S","streetname":"Park","streettype":"Street","suffdir":null,"city":"El Dorado Springs","state_code":"MO","zip5":"64744","latitude":"37.8602904700000000","longitude":"-94.017569874000000","publicwifi":"Y","url":"http://www.cedarcountyhospital.org/index.php","broadband_type_id":3}
{"id":null,"anchorname":"Cedar County Memorial Hospital - Morgue","address":"1401 South Park St., El Dorado Springs MO 64744","bldgnbr":"1401","predir":"S","streetname":"Park","streettype":"Street","suffdir":null,"city":"El Dorado Springs","state_code":"MO","zip5":"64744","latitude":"37.8609600000000000","longitude":"-94.018150000000000","publicwifi":"Y","url":"http://www.cedarcountyhospital.org/index.php","broadband_type_id":3}
{"id":null,"anchorname":"El Dorado Springs Volunteer Fire Department - Rural Station","address":"409 West Fields Street, El Dorado Springs MO 64744","bldgnbr":"409","predir":"W","streetname":"Fields","streettype":"Street","suffdir":null,"city":"El Dorado Springs","state_code":"MO","zip5":"64744","latitude":"37.8700185140000000","longitude":"-94.017584308000000","publicwifi":"N","url":null,"broadband_type_id":5}
{"id":null,"anchorname":"El Dorado Springs Elementary School","address":"901 S Grand Ave, El Dorado Springs MO 64744-1903","bldgnbr":"901","predir":"S","streetname":"Grand","streettype":"Avenue","suffdir":null,"city":"El Dorado Springs","state_code":"MO","zip5":"64744","latitude":"37.8666869900000000","longitude":"-94.018905216000000","publicwifi":"Y","url":"http://www.eldo.k12.mo.us/","broadband_type_id":6}
{"id":null,"anchorname":"El Dorado Springs Middle School","address":"901 S Grand Ave, El Dorado Springs MO 64744-1903","bldgnbr":"901","predir":"S","streetname":"Grand","streettype":"Avenue","suffdir":null,"city":"El Dorado Springs","state_code":"MO","zip5":"64744","latitude":"37.8677088350000000","longitude":"-94.018772201000000","publicwifi":"Y","url":"http://www.eldo.k12.mo.us/","broadband_type_id":6}
{"id":null,"anchorname":"El Dorado Springs High School","address":"901 S Grand Ave, El Dorado Springs MO 64744-1903","bldgnbr":"901","predir":"S","streetname":"Grand","streettype":"Avenue","suffdir":null,"city":"El Dorado Springs","state_code":"MO","zip5":"64744","latitude":"37.8685241680000000","longitude":"-94.018809364000000","publicwifi":"Y","url":"http://www.eldo.k12.mo.us/","broadband_type_id":6}
{"id":null,"anchorname":"El Dorado Springs Police Department","address":"1207 South Main Street, El Dorado Springs MO 64744","bldgnbr":"1207","predir":"S","streetname":"Main","streettype":"Street","suffdir":null,"city":"El Dorado Springs","state_code":"MO","zip5":"64744","latitude":"37.8641991960000000","longitude":"-94.021860273000000","publicwifi":"N","url":"http://www.cityofeldoradospringsmo.com/eldoradosprings-police.html","broadband_type_id":4}
{"id":null,"anchorname":"El Dorado Springs Volunteer Fire Department","address":"1205 South Main Street, El Dorado Springs MO 64744","bldgnbr":"1205","predir":"S","streetname":"Main","streettype":"Street","suffdir":null,"city":"El Dorado Springs","state_code":"MO","zip5":"64744","latitude":"37.8642767060000000","longitude":"-94.021873144000000","publicwifi":"U","url":null,"broadband_type_id":5}
{"id":null,"anchorname":"MID-COAST BAPTIST CHURCH","address":"119 BATH RD BRUNSWICK ME 04011","bldgnbr":"119","predir":null,"streetname":"BATH","streettype":"RD","suffdir":null,"city":"BRUNSWICK","state_code":"ME","zip5":"04011","latitude":"43.9066160300000000","longitude":"-69.930423418000000","publicwifi":"U","url":null,"broadband_type_id":6}
{"id":null,"anchorname":"Cedar County Jail","address":"110 South Street, Stockton MO 65785","bldgnbr":"110","predir":null,"streetname":"South","streettype":"Street","suffdir":null,"city":"Stockton","state_code":"MO","zip5":"65785","latitude":"37.6985382890000000","longitude":"-93.796345520000000","publicwifi":"N","url":null,"broadband_type_id":1}
{"id":null,"anchorname":"Cedar County MU Extension Center","address":"113 South St. Stockton, MO 65785","bldgnbr":"113","predir":null,"streetname":"South","streettype":"Street","suffdir":null,"city":"Stockton","state_code":"MO","zip5":"65785","latitude":"37.6977044240000000","longitude":"-93.795943097000000","publicwifi":"N","url":"http://extension.missouri.edu/cedar","broadband_type_id":1}
{"id":null,"anchorname":"First Southern Baptist Church","address":"1861 HWY H, Leasburg MO 65535","bldgnbr":"1861","predir":null,"streetname":"HWY H, Leasburg MO 65535","streettype":null,"suffdir":null,"city":"LEASBURG","state_code":"MO","zip5":"65535","latitude":"37.6984700000000000","longitude":"-90.412289000000000","publicwifi":"U","url":null,"broadband_type_id":6}
{"id":null,"anchorname":"Assembly Of God Church","address":"1505 S. 3rd St.","bldgnbr":"1505","predir":null,"streetname":"S. 3rd St.","streettype":null,"suffdir":null,"city":"STOCKTON","state_code":"MO","zip5":"65785","latitude":"37.6813970000000000","longitude":"-93.804273000000000","publicwifi":null,"url":null,"broadband_type_id":null}
{"id":null,"anchorname":"Assembly Of God Church","address":"701 E. Collier on HWY 60 (by Bull's Eye gas station)","bldgnbr":"701","predir":null,"streetname":"E. Collier on HWY 60 (by Bull's Eye gas station)","streettype":null,"suffdir":null,"city":"MARIONVILLE","state_code":"MO","zip5":"65705","latitude":"37.0189579290000000","longitude":"-93.748582483000000","publicwifi":null,"url":null,"broadband_type_id":null}
{"id":null,"anchorname":"Assembly Of God Church","address":"1608 N Oak Street, Rolla, MO 65401","bldgnbr":"1608","predir":"N","streetname":"Oak","streettype":"Street","suffdir":null,"city":"Rolla","state_code":"MO","zip5":"65401","latitude":"37.9567568690000000","longitude":"-91.768860720000000","publicwifi":"Y","url":"http://www.rolla-FirstAssembly.org","broadband_type_id":null}
{"id":null,"anchorname":"Korth Senior Center","address":"309 W. Englewood","bldgnbr":"309","predir":null,"streetname":"W. Englewood","streettype":null,"suffdir":null,"city":"STOCKTON","state_code":"MO","zip5":"65785","latitude":"37.6883980000000000","longitude":"-93.800832000000000","publicwifi":null,"url":null,"broadband_type_id":null}
{"id":null,"anchorname":"El Dorado Springs City Hall","address":"135 W Spring St, El Dorado Springs, MO 64744","bldgnbr":"135","predir":"W","streetname":"Spring","streettype":"Street","suffdir":null,"city":"El Dorado Springs","state_code":"MO","zip5":"64744","latitude":"37.8763763230000000","longitude":"-94.022598258000000","publicwifi":"Y","url":"http://www.eldomo.org/index.php","broadband_type_id":1}
{"id":null,"anchorname":"Stockton Middle School","address":"906 South St, Stockton MO 65785-0190","bldgnbr":"906","predir":null,"streetname":"South","streettype":"Street","suffdir":null,"city":"Stockton","state_code":"MO","zip5":"65785","latitude":"37.6910371800000000","longitude":"-93.795436468000000","publicwifi":"N","url":"http://www.stockton.k12.mo.us/","broadband_type_id":6}
{"id":null,"anchorname":"Stockton High School","address":"31 Tiger Drive, Stockton MO 65785","bldgnbr":"31","predir":null,"streetname":"Tiger","streettype":"Drive","suffdir":null,"city":"Stockton","state_code":"MO","zip5":"65785","latitude":"37.6913752760000000","longitude":"-93.795087053000000","publicwifi":"N","url":"http://www.stockton.k12.mo.us/","broadband_type_id":6}
{"id":null,"anchorname":"Stockton Elementary School","address":"906 South St, Stockton MO 65785-0190","bldgnbr":"906","predir":null,"streetname":"South","streettype":"Street","suffdir":null,"city":"Stockton","state_code":"MO","zip5":"65785","latitude":"37.6904930360000000","longitude":"-93.795599723000000","publicwifi":"N","url":"http://www.stockton.k12.mo.us/","broadband_type_id":6}
{"id":null,"anchorname":"Stockton State Park Rangers Station","address":"19100 South State Highway 215, Dadeville MO 65635","bldgnbr":"19100","predir":"S","streetname":"Highway 215","streettype":"Highway","suffdir":null,"city":"Dadeville","state_code":"MO","zip5":"65635","latitude":"37.6182924030000000","longitude":"-93.751658484000000","publicwifi":"N","url":"http://mostateparks.com/park/stockton-state-park","broadband_type_id":2}
{"id":null,"anchorname":"Cedar County Family Clinic","address":"807 Owen Mill Rd, Stockton MO 65785","bldgnbr":"807","predir":null,"streetname":"Owen Mill","streettype":"Road","suffdir":null,"city":"Stockton","state_code":"MO","zip5":"65785","latitude":"37.7063398380000000","longitude":"-93.785202141000000","publicwifi":"N","url":"http://www.cedarcountyhospital.org/index.php","broadband_type_id":3}
{"id":null,"anchorname":"Cedar County Library - Stockton Branch","address":"717 East St, Stockton MO 65785-0097","bldgnbr":"717","predir":null,"streetname":"East","streettype":"Street","suffdir":null,"city":"Stockton","state_code":"MO","zip5":"65785","latitude":"37.6991214820000000","longitude":"-93.787600044000000","publicwifi":"Y","url":"http://www.cedarcountylibrary.org/","broadband_type_id":6}
{"id":null,"anchorname":"Cedar County Courthouse","address":"113 South Street, Stockton MO 65785","bldgnbr":"113","predir":null,"streetname":"South","streettype":"Street","suffdir":null,"city":"Stockton","state_code":"MO","zip5":"65785","latitude":"37.6981061650000000","longitude":"-93.796545875000000","publicwifi":"N","url":"http://www.courts.mo.gov/","broadband_type_id":1}
{"id":null,"anchorname":"Cedar County Sheriffs Department","address":"110 South Street, Stockton MO 65785","bldgnbr":"110","predir":null,"streetname":"South","streettype":"Street","suffdir":null,"city":"Stockton","state_code":"MO","zip5":"65785","latitude":"37.6985457080000000","longitude":"-93.796352551000000","publicwifi":"N","url":null,"broadband_type_id":4}
{"id":null,"anchorname":"Stockton City Hall","address":"1424 South Street, Stockton, MO 65785","bldgnbr":"1424","predir":null,"streetname":"South","streettype":"Street","suffdir":null,"city":"Stockton","state_code":"MO","zip5":"65785","latitude":"37.6977619900000000","longitude":"-93.797779785000000","publicwifi":"Y","url":"www.cityofstocktonmo.com","broadband_type_id":1}
{"id":null,"anchorname":"Bynumville Fire Department Station 2","address":"12520 Saint Marys Avenue, New Cambria MO 63558","bldgnbr":"12520","predir":null,"streetname":"Saint Mary's","streettype":"Avenue","suffdir":null,"city":"New Cambria","state_code":"MO","zip5":"63558","latitude":"39.6629185240000000","longitude":"-92.783292276000000","publicwifi":"U","url":null,"broadband_type_id":5}
{"id":null,"anchorname":"Bynumville Fire Department Station 1","address":"36465 Bynum Road, Salisbury MO 65281","bldgnbr":"36465","predir":null,"streetname":"Bynum","streettype":"Road","suffdir":null,"city":"Salisbury","state_code":"MO","zip5":"65281","latitude":"39.6126387750000000","longitude":"-92.775144451000000","publicwifi":"U","url":null,"broadband_type_id":5}
{"id":null,"anchorname":"Sumner Community Fire Department","address":"212 West Centre Street, Sumner MO 64681","bldgnbr":"212","predir":"W","streetname":"Center","streettype":"Street","suffdir":null,"city":"Sumner","state_code":"MO","zip5":"64681","latitude":"39.6564615000000000","longitude":"-93.244869536000000","publicwifi":"N","url":null,"broadband_type_id":5}
{"id":null,"anchorname":"Yellow Creek Fire Protection District","address":"504 Main Street, Rothville MO 64676","bldgnbr":"504","predir":null,"streetname":"Main","streettype":"Street","suffdir":null,"city":"Rothville","state_code":"MO","zip5":"64676","latitude":"39.6537086260000000","longitude":"-93.070190579000000","publicwifi":"U","url":null,"broadband_type_id":5}
{"id":null,"anchorname":"Rothville City Hall","address":"112 South Street, Rothville, MO 64676","bldgnbr":"112","predir":null,"streetname":"South","streettype":"Street","suffdir":null,"city":"Rothville","state_code":"MO","zip5":"64676","latitude":"39.6533849030000000","longitude":"-93.061364871000000","publicwifi":"U","url":null,"broadband_type_id":1}
{"id":null,"anchorname":"Northwestern Elementary School","address":"18475 Hwy 11, Mendon MO 64660-0043","bldgnbr":"18475","predir":null,"streetname":"Highway 11","streettype":"Highway","suffdir":null,"city":"Mendon","state_code":"MO","zip5":"64660","latitude":"39.5873996670000000","longitude":"-93.130214233000000","publicwifi":"U","url":null,"broadband_type_id":6}
{"id":null,"anchorname":"Northwestern High School","address":"18475 Hwy 11, Mendon MO 64660-0043","bldgnbr":"18475","predir":null,"streetname":"Highway 11","streettype":"Highway","suffdir":null,"city":"Mendon","state_code":"MO","zip5":"64660","latitude":"39.5874264150000000","longitude":"-93.130699766000000","publicwifi":"U","url":null,"broadband_type_id":6}
{"id":null,"anchorname":"Mendon Public Fire Protection District","address":"State Highway Cc, Mendon MO 64660","bldgnbr":"N/A","predir":null,"streetname":"State Hwy Cc","streettype":"State Highway","suffdir":null,"city":"Mendon","state_code":"MO","zip5":"64660","latitude":"39.5870067580000000","longitude":"-93.132811228000000","publicwifi":"U","url":null,"broadband_type_id":5}
{"id":null,"anchorname":"Triplett Volunteer Fire Department","address":"108 East Hooper Street, Triplett MO 65286","bldgnbr":"108","predir":"E","streetname":"Hooper","streettype":"Street","suffdir":null,"city":"Triplett","state_code":"MO","zip5":"65286","latitude":"39.4969261770000000","longitude":"-93.192616217000000","publicwifi":"U","url":null,"broadband_type_id":5}
{"id":null,"anchorname":"KEYTESVILLE R-III SCHOOLS","address":"27247 HWY 5","bldgnbr":"27247","predir":null,"streetname":"HWY 5","streettype":null,"suffdir":null,"city":"KEYTESVILLE","state_code":"MO","zip5":"65261","latitude":"39.4453760000000000","longitude":"-92.930006000000000","publicwifi":null,"url":null,"broadband_type_id":6}
{"id":null,"anchorname":"Keytesville Elementary School","address":"27247 Hwy 5, Keytesville MO 65261-2401","bldgnbr":"27247","predir":null,"streetname":"Highway 5","streettype":"Highway","suffdir":null,"city":"Keytesville","state_code":"MO","zip5":"65261","latitude":"39.4452394210000000","longitude":"-92.930160175000000","publicwifi":"U","url":"http://schoolweb.missouri.edu/keytesville.k12.mo.us/","broadband_type_id":6}
{"id":null,"anchorname":"Keytesville High School","address":"27247 Hwy 5, Keytesville MO 65261-2401","bldgnbr":"27247","predir":null,"streetname":"Highway 5","streettype":"Highway","suffdir":null,"city":"Keytesville","state_code":"MO","zip5":"65261","latitude":"39.4454196410000000","longitude":"-92.930170164000000","publicwifi":"U","url":"http://schoolweb.missouri.edu/keytesville.k12.mo.us/","broadband_type_id":6}
{"id":null,"anchorname":"Keytesville Fire Department","address":"201 West Bridge Street, Keytesville MO 65261","bldgnbr":"201","predir":"W","streetname":"Bridge","streettype":"Street","suffdir":null,"city":"Keytesville","state_code":"MO","zip5":"65261","latitude":"39.4342101070000000","longitude":"-92.937650707000000","publicwifi":"N","url":null,"broadband_type_id":5}
{"id":null,"anchorname":"Keytesville City Hall","address":"404 W Bridge St, Keytesville, MO 65261","bldgnbr":"404","predir":"W","streetname":"Bridge","streettype":"Street","suffdir":null,"city":"Keytesville","state_code":"MO","zip5":"65261","latitude":"39.4346501080000000","longitude":"-92.939116238000000","publicwifi":"U","url":"http://www.keytesvillemissouri.com/index.htm","broadband_type_id":1}
{"id":null,"anchorname":"Keytesville Public Library","address":"406 W Bridge St, Keytesville MO 65261-1016","bldgnbr":"406","predir":"W","streetname":"Bridge","streettype":"Street","suffdir":null,"city":"Keytesville","state_code":"MO","zip5":"65261","latitude":"39.4346620080000000","longitude":"-92.939452814000000","publicwifi":"U","url":null,"broadband_type_id":6}
{"id":null,"anchorname":"CHURCH OF SCIENTOLOGY MISSION OF BRUNSWICK","address":"2 LINCOLN ST BRUNSWICK ME 04011","bldgnbr":"2","predir":null,"streetname":"LINCOLN","streettype":"ST","suffdir":null,"city":"BRUNSWICK","state_code":"ME","zip5":"04011","latitude":"43.9167391680000000","longitude":"-69.966059374000000","publicwifi":"U","url":null,"broadband_type_id":6}
{"id":null,"anchorname":"Billings Community Center","address":"119 SE. Washington","bldgnbr":"119","predir":null,"streetname":"SE. Washington","streettype":null,"suffdir":null,"city":"BILLINGS","state_code":"MO","zip5":"65610","latitude":"37.0650798790000000","longitude":"-93.551757000000000","publicwifi":null,"url":null,"broadband_type_id":1}
{"id":null,"anchorname":"ESTILO","address":"10 PLEASANT ST BRUNSWICK ME 04011","bldgnbr":"10","predir":null,"streetname":"PLEASANT","streettype":"ST","suffdir":null,"city":"BRUNSWICK","state_code":"ME","zip5":"04011","latitude":"43.9144365670000000","longitude":"-69.965959266000000","publicwifi":"U","url":null,"broadband_type_id":6}
{"id":null,"anchorname":"KIDZ CLOTHESLINE","address":"34 HENNESSEY AVE BRUNSWICK ME 04011","bldgnbr":"34","predir":null,"streetname":"HENNESSEY","streettype":"AVE","suffdir":null,"city":"BRUNSWICK","state_code":"ME","zip5":"04011","latitude":"43.9097206970000000","longitude":"-69.975888686000000","publicwifi":"U","url":null,"broadband_type_id":6}
{"id":null,"anchorname":"Chariton County MU Extension Center","address":"306 S. Cherry, Keytesville, MO 65261","bldgnbr":"306","predir":"S","streetname":"Cherry","streettype":null,"suffdir":null,"city":"Keytesville","state_code":"MO","zip5":"65261","latitude":"39.4325190420000000","longitude":"-92.941151102000000","publicwifi":"N","url":"http://extension.missouri.edu/chariton","broadband_type_id":1}
{"id":null,"anchorname":"Highway 24 Location","address":"HWY 24","bldgnbr":"HWY","predir":null,"streetname":"24","streettype":null,"suffdir":null,"city":"BRUNSWICK","state_code":"MO","zip5":"65236","latitude":"39.4208430000000000","longitude":"-93.113108000000000","publicwifi":null,"url":null,"broadband_type_id":6}
{"id":null,"anchorname":"First Baptist Church Nixa","address":"601 Wasson Dr.","bldgnbr":"601","predir":null,"streetname":"Wasson Dr.","streettype":null,"suffdir":null,"city":"NIXA","state_code":"MO","zip5":"65714","latitude":"37.0504079300000000","longitude":"-93.422454483000000","publicwifi":"Y","url":null,"broadband_type_id":6}
{"id":null,"anchorname":"Nixa Church Of Nazarene","address":"306 Northview Rd.","bldgnbr":"306","predir":null,"streetname":"Northview Rd.","streettype":null,"suffdir":null,"city":"NIXA","state_code":"MO","zip5":"65714","latitude":"37.0567208860000000","longitude":"-93.417336031000000","publicwifi":null,"url":null,"broadband_type_id":null}
{"id":null,"anchorname":"Calvary Bible Church","address":"130 S. Nicholas Rd.","bldgnbr":"130","predir":null,"streetname":"S. Nicholas Rd.","streettype":null,"suffdir":null,"city":"NIXA","state_code":"MO","zip5":"65714","latitude":"37.0452019300000000","longitude":"-93.442951483000000","publicwifi":null,"url":null,"broadband_type_id":null}
{"id":null,"anchorname":"Chariton County Sheriffs Department","address":"307 South Cherry Street, Keytesville MO 65261","bldgnbr":"307","predir":"S","streetname":"Cherry","streettype":"Street","suffdir":null,"city":"Keytesville","state_code":"MO","zip5":"65261","latitude":"39.4329564380000000","longitude":"-92.941769682000000","publicwifi":"N","url":null,"broadband_type_id":4}
{"id":null,"anchorname":"Chariton County Courthouse","address":"306 South Cherry Street, Keytesville MO 65261","bldgnbr":"306","predir":"S","streetname":"Cherry","streettype":"Street","suffdir":null,"city":"Keytesville","state_code":"MO","zip5":"65261","latitude":"39.4326146200000000","longitude":"-92.941204492000000","publicwifi":"N","url":"http://www.courts.mo.gov/","broadband_type_id":1}
{"id":null,"anchorname":"Chariton County Health Center","address":"206 State Street, Keytesville MO 65261","bldgnbr":"206","predir":null,"streetname":"State","streettype":"Street","suffdir":null,"city":"Keytesville","state_code":"MO","zip5":"65261","latitude":"39.4326100000000000","longitude":"-92.937859999000000","publicwifi":"N","url":null,"broadband_type_id":3}
{"id":null,"anchorname":"Brunswick Area Library","address":"409 W Broadway, Brunswick MO 65236-1126","bldgnbr":"409","predir":"W","streetname":"Broadway","streettype":"Street","suffdir":null,"city":"Brunswick","state_code":"MO","zip5":"65236","latitude":"39.4246382130000000","longitude":"-93.134405019000000","publicwifi":"U","url":null,"broadband_type_id":6}
{"id":null,"anchorname":"Brunswick Elementary School","address":"1008 County Rd, Brunswick MO 65236-1445","bldgnbr":"1008","predir":null,"streetname":"County","streettype":"Road","suffdir":null,"city":"Brunswick","state_code":"MO","zip5":"65236","latitude":"39.4246367220000000","longitude":"-93.114940371000000","publicwifi":"Y","url":"http://www.brunswick.k12.mo.us/","broadband_type_id":6}
{"id":null,"anchorname":"Brunswick High School","address":"1008 County Rd, Brunswick MO 65236-1445","bldgnbr":"1008","predir":null,"streetname":"County","streettype":"Road","suffdir":null,"city":"Brunswick","state_code":"MO","zip5":"65236","latitude":"39.4246456920000000","longitude":"-93.114981412000000","publicwifi":"Y","url":"http://www.brunswick.k12.mo.us/","broadband_type_id":6}
{"id":null,"anchorname":"BRUNSWICK RII SCHOOL DISTRICT","address":"1008 County Rd.","bldgnbr":"1008","predir":null,"streetname":"County Rd.","streettype":null,"suffdir":null,"city":"BRUNSWICK","state_code":"MO","zip5":"69236","latitude":"39.4249010000000000","longitude":"-93.118304000000000","publicwifi":null,"url":null,"broadband_type_id":6}
{"id":null,"anchorname":"Salisbury City Hall","address":"204 S Broadway, Salisbury, MO 65281","bldgnbr":"623","predir":null,"streetname":"Holbrook","streettype":"Drive","suffdir":null,"city":"Salisbury","state_code":"MO","zip5":"65281","latitude":"39.4239797130000000","longitude":"-92.802774104000000","publicwifi":"U","url":"http://salisburymo.net/salisburymissouri.html","broadband_type_id":1}
{"id":null,"anchorname":"Salisbury Fire Department","address":"128 West 2nd Street, Salisbury MO 65281","bldgnbr":"128","predir":"W","streetname":"2nd","streettype":"Street","suffdir":null,"city":"Salisbury","state_code":"MO","zip5":"65281","latitude":"39.4239935180000000","longitude":"-92.802451358000000","publicwifi":"N","url":null,"broadband_type_id":5}
{"id":null,"anchorname":"Salisbury Police Dept","address":"123 W Second Street, Salisbury MO 65281","bldgnbr":"123b","predir":"W","streetname":"2nd","streettype":"Street","suffdir":null,"city":"Salisbury","state_code":"MO","zip5":"65281","latitude":"39.4236535360000000","longitude":"-92.802957320000000","publicwifi":"N","url":null,"broadband_type_id":4}
{"id":null,"anchorname":"Dulany Memorial Library","address":"501 S Broadway, Salisbury MO 65281-1124","bldgnbr":"501","predir":"S","streetname":"Broadway","streettype":null,"suffdir":null,"city":"Salisbury","state_code":"MO","zip5":"65281","latitude":"39.4205787370000000","longitude":"-92.801114240000000","publicwifi":"U","url":"http://dulanylibrary.lib.mo.us/","broadband_type_id":6}
{"id":null,"anchorname":"Salisbury Elementary School","address":"305 E 6th St, Salisbury MO 65281-0314","bldgnbr":"204","predir":"S","streetname":"Broadway","streettype":null,"suffdir":null,"city":"Salisbury","state_code":"MO","zip5":"65281","latitude":"39.4195715790000000","longitude":"-92.798187533000000","publicwifi":"U","url":"http://www.salisbury.k12.mo.us/","broadband_type_id":6}
{"id":null,"anchorname":"Salisbury High School","address":"1000 S Maple Ave, Salisbury MO 65281-0314","bldgnbr":"1000","predir":"S","streetname":"Maple","streettype":"Avenue","suffdir":null,"city":"Salisbury","state_code":"MO","zip5":"65281","latitude":"39.4149385870000000","longitude":"-92.805241630000000","publicwifi":"U","url":"http://www.salisbury.k12.mo.us/","broadband_type_id":6}
{"id":null,"anchorname":"Billings City Hall","address":"251 NE Elm St  , Billings, MO 65610","bldgnbr":"251","predir":"NE","streetname":"Elm","streettype":"Street","suffdir":null,"city":"Billings","state_code":"MO","zip5":"65610","latitude":"37.0672697190000000","longitude":"-93.552773363000000","publicwifi":"N","url":"www.cityofbillingsmo.com","broadband_type_id":1}
{"id":null,"anchorname":"Billings Police Department","address":"251 Northeast Elm Street, Billings MO 65610","bldgnbr":"251","predir":"NE","streetname":"Elm","streettype":"Street","suffdir":null,"city":"Billings","state_code":"MO","zip5":"65610","latitude":"37.0672976590000000","longitude":"-93.552780011000000","publicwifi":"U","url":"http://www.billingsmo.com/","broadband_type_id":4}
{"id":null,"anchorname":"Billings Fire Protection District","address":"318 Northwest Washington Avenue, Billings MO 65610","bldgnbr":"318","predir":"NW","streetname":"Washington","streettype":null,"suffdir":null,"city":"Billings","state_code":"MO","zip5":"65610","latitude":"37.0658597610000000","longitude":"-93.553354625000000","publicwifi":"U","url":null,"broadband_type_id":5}
{"id":null,"anchorname":"Billings Elementary School","address":"118 W Mt Vernon, Billings MO 65610-9713","bldgnbr":"118","predir":"W","streetname":"Mt Vernon","streettype":null,"suffdir":null,"city":"Billings","state_code":"MO","zip5":"65610","latitude":"37.0603458000000000","longitude":"-93.555661090000000","publicwifi":"U","url":null,"broadband_type_id":6}
{"id":null,"anchorname":"Billings Senior High School","address":"118 W Mt Vernon, Billings MO 65610-9713","bldgnbr":"118","predir":"W","streetname":"Mt Vernon","streettype":null,"suffdir":null,"city":"Billings","state_code":"MO","zip5":"65610","latitude":"37.0603410310000000","longitude":"-93.555154869000000","publicwifi":"U","url":null,"broadband_type_id":6}
{"id":null,"anchorname":"Clever City Hall","address":"304 S. Clarke Ave.","bldgnbr":"304","predir":null,"streetname":"S. Clarke Ave.","streettype":null,"suffdir":null,"city":"CLEVER","state_code":"MO","zip5":"65631","latitude":"37.0304399300000000","longitude":"-93.587290482000000","publicwifi":null,"url":null,"broadband_type_id":1}
{"id":null,"anchorname":"Clever City Hall","address":"304 S Clarke Ave, Clever, MO 65631","bldgnbr":"304","predir":"S","streetname":"Clarke","streettype":"Avenue","suffdir":null,"city":"Clever","state_code":"MO","zip5":"65631","latitude":"37.0279362470000000","longitude":"-93.470401402000000","publicwifi":"N","url":"http://clevermo.com/","broadband_type_id":1}
{"id":null,"anchorname":"Clever High School","address":"401 Inman St, Clever MO 65631-6609","bldgnbr":"401","predir":null,"streetname":"Inman","streettype":"Street","suffdir":null,"city":"Clever","state_code":"MO","zip5":"65631","latitude":"37.0299806070000000","longitude":"-93.474226959000000","publicwifi":"N","url":"http://www.clever.k12.mo.us/","broadband_type_id":6}
{"id":null,"anchorname":"Clever Middle School","address":"103 S Public Ave, Clever MO 65631-9103","bldgnbr":"103","predir":"S","streetname":"Public","streettype":"Avenue","suffdir":null,"city":"Clever","state_code":"MO","zip5":"65631","latitude":"37.0300324830000000","longitude":"-93.473651766000000","publicwifi":"N","url":"http://www.clever.k12.mo.us/","broadband_type_id":6}
{"id":null,"anchorname":"Clever Elementary School","address":"400 W Brown, Clever MO 65631-6571","bldgnbr":"400","predir":"W","streetname":"Brown","streettype":null,"suffdir":null,"city":"Clever","state_code":"MO","zip5":"65631","latitude":"37.0301773740000000","longitude":"-93.474613968000000","publicwifi":"U","url":"http://www.clever.k12.mo.us/","broadband_type_id":6}
{"id":null,"anchorname":"Clever Police Department","address":"304 South Clarke Avenue, Clever MO 65631","bldgnbr":"304","predir":"S","streetname":"Clarke","streettype":"Avenue","suffdir":null,"city":"Clever","state_code":"MO","zip5":"65631","latitude":"37.0279356190000000","longitude":"-93.470412052000000","publicwifi":"N","url":null,"broadband_type_id":4}
{"id":null,"anchorname":"Clever Fire Protection District Station 1","address":"406 Elm Avenue, Clever MO 65631","bldgnbr":"406","predir":null,"streetname":"Elm","streettype":"Avenue","suffdir":null,"city":"Clever","state_code":"MO","zip5":"65631","latitude":"37.0277981980000000","longitude":"-93.469015911000000","publicwifi":"N","url":null,"broadband_type_id":5}
{"id":null,"anchorname":"Nixa Fire Station 4","address":"301 S. Nicolas Rd.","bldgnbr":"301","predir":null,"streetname":"S. Nicolas Rd.","streettype":null,"suffdir":null,"city":"NIXA","state_code":"MO","zip5":"65714","latitude":"37.0402852640000000","longitude":"-93.443542696000000","publicwifi":null,"url":null,"broadband_type_id":5}
{"id":null,"anchorname":"TEDFORD HOUSING; TEDFORD HOMELESS PREVENTION-003","address":"34 FEDERAL ST, BRUNSWICK","bldgnbr":"34","predir":null,"streetname":"FEDERAL","streettype":"ST","suffdir":null,"city":"BRUNSWICK","state_code":"ME","zip5":"4011","latitude":"43.9152065130000000","longitude":"-69.962866168000000","publicwifi":"U","url":null,"broadband_type_id":6}
{"id":null,"anchorname":"BRIDGTON UNITED METHODIST CHURCH","address":"214 MAIN ST BRIDGTON ME 04009","bldgnbr":"214","predir":null,"streetname":"MAIN","streettype":"ST","suffdir":null,"city":"BRIDGTON","state_code":"ME","zip5":"04009","latitude":"44.0542795290000000","longitude":"-70.705066468000000","publicwifi":"U","url":null,"broadband_type_id":6}
{"id":null,"anchorname":"UNITED METHODIST CHURCH","address":"98 MAIN ST BRIDGTON ME 04009","bldgnbr":"98","predir":null,"streetname":"MAIN","streettype":"ST","suffdir":null,"city":"BRIDGTON","state_code":"ME","zip5":"04009","latitude":"44.0547795030000000","longitude":"-70.710413989000000","publicwifi":"U","url":null,"broadband_type_id":6}
{"id":null,"anchorname":"Ozark Senior Center","address":"727 N. 9th St.","bldgnbr":"727","predir":null,"streetname":"N. 9th St.","streettype":null,"suffdir":null,"city":"OZARK","state_code":"MO","zip5":"65721","latitude":"37.0296879290000000","longitude":"-93.328720482000000","publicwifi":null,"url":null,"broadband_type_id":null}
{"id":null,"anchorname":"Ozark United Methodist Church","address":"2850 E. State HWY 14","bldgnbr":"2850","predir":null,"streetname":"E. State HWY 14","streettype":null,"suffdir":null,"city":"OZARK","state_code":"MO","zip5":"65721","latitude":"37.0058284770000000","longitude":"-93.293233873000000","publicwifi":null,"url":null,"broadband_type_id":6}
{"id":null,"anchorname":"Ozark General Baptist Church","address":"1207 W. South St.","bldgnbr":"1207","predir":null,"streetname":"W. South St.","streettype":null,"suffdir":null,"city":"OZARK","state_code":"MO","zip5":"65721","latitude":"37.0064939300000000","longitude":"-93.330589482000000","publicwifi":null,"url":null,"broadband_type_id":6}
{"id":null,"anchorname":"Christian County MU Extension Center","address":"105 North 2nd Street, Ozark, MO 65721","bldgnbr":"105","predir":"North","streetname":"2nd","streettype":"Street","suffdir":null,"city":"Ozark","state_code":"MO","zip5":"65721","latitude":"37.0205607390000000","longitude":"-93.205119768000000","publicwifi":"N","url":"http://extension.missouri.edu/christian","broadband_type_id":6}
{"id":null,"anchorname":"Christian County Circuit Court","address":"100 W Church Street, Ozark MO 65721","bldgnbr":"100","predir":"W","streetname":"Church","streettype":"Street","suffdir":null,"city":"Ozark","state_code":"MO","zip5":"65721","latitude":"37.0205711530000000","longitude":"-93.205148201000000","publicwifi":"N","url":"http://christiancountymo.gov/clerk.htm","broadband_type_id":6}
{"id":null,"anchorname":"Christian County Jail","address":"110 West Elm Street, Ozark MO 65721","bldgnbr":"110","predir":"W","streetname":"Elm","streettype":"Street","suffdir":null,"city":"Ozark","state_code":"MO","zip5":"65721","latitude":"37.0205583520000000","longitude":"-93.205110105000000","publicwifi":"N","url":null,"broadband_type_id":6}
{"id":null,"anchorname":"OZARK ASSEMBLY OF GOD","address":"1400 W. South St.","bldgnbr":"1400","predir":null,"streetname":"W. South St.","streettype":null,"suffdir":null,"city":"OZARK","state_code":"MO","zip5":"65721","latitude":"37.0065811820000000","longitude":"-93.334683246000000","publicwifi":null,"url":null,"broadband_type_id":null}
{"id":null,"anchorname":"Nixa Fire Protection District Station 3","address":"1752 West Tracker Road, Nixa MO 65714","bldgnbr":"1752","predir":"W","streetname":"Tracker","streettype":"Road","suffdir":null,"city":"Nixa","state_code":"MO","zip5":"65714","latitude":"37.0659389220000000","longitude":"-93.347628618000000","publicwifi":"N","url":"http://www.nixafire.org/","broadband_type_id":5}
{"id":null,"anchorname":"Nixa Fire District","address":"711 N. Main St.","bldgnbr":"711","predir":"N","streetname":"Main St.","streettype":"Street","suffdir":null,"city":"NIXA","state_code":"MO","zip5":"65714","latitude":"37.0539847370000000","longitude":"-93.294682114000000","publicwifi":"N","url":"http://www.nixafire.org/","broadband_type_id":5}
{"id":null,"anchorname":"Nicholas A. Inman Elementary School","address":"North Nicholas Road, Nixa MO 65714-8663","bldgnbr":"1","predir":"N","streetname":"Nicholas","streettype":"Road","suffdir":null,"city":"Nixa","state_code":"MO","zip5":"65714","latitude":"37.0630416420000000","longitude":"-93.324626380000000","publicwifi":"N","url":null,"broadband_type_id":6}
{"id":null,"anchorname":"Nixa Police Department","address":"715 West Center Circle, Nixa MO 65714","bldgnbr":"715","predir":"W","streetname":"Center","streettype":"Circle","suffdir":null,"city":"Nixa","state_code":"MO","zip5":"65714","latitude":"37.0449259940000000","longitude":"-93.309831842000000","publicwifi":"N","url":"http://www.nixa.com/PoliceDept/police.htm","broadband_type_id":4}
{"id":null,"anchorname":"Nixa City Hall","address":"715 W Mount Vernon St, Nixa, MO 65714","bldgnbr":"715","predir":"W","streetname":"Mt Vernon","streettype":null,"suffdir":null,"city":"Nixa","state_code":"MO","zip5":"65714","latitude":"37.0440990870000000","longitude":"-93.309795734000000","publicwifi":"N","url":"http://www.nixa.com/","broadband_type_id":1}
{"id":null,"anchorname":"John Thomas Elementary School","address":"205 North St, Nixa MO 65714-8663","bldgnbr":"205","predir":null,"streetname":"North","streettype":"Street","suffdir":null,"city":"Nixa","state_code":"MO","zip5":"65714","latitude":"37.0519124090000000","longitude":"-93.292241031000000","publicwifi":"U","url":null,"broadband_type_id":6}
{"id":null,"anchorname":"Nixa Junior High School","address":"205 North St, Nixa MO 65714-8663","bldgnbr":"205","predir":null,"streetname":"North","streettype":"Street","suffdir":null,"city":"Nixa","state_code":"MO","zip5":"65714","latitude":"37.0520783400000000","longitude":"-93.292431319000000","publicwifi":"U","url":"http://nixa.schoolfusion.us/","broadband_type_id":6}
{"id":null,"anchorname":"Century Elementary School","address":"732 North St, Nixa MO 65714-8663","bldgnbr":"732","predir":null,"streetname":"North","streettype":"Street","suffdir":null,"city":"Nixa","state_code":"MO","zip5":"65714","latitude":"37.0489519780000000","longitude":"-93.279612093000000","publicwifi":"U","url":null,"broadband_type_id":6}
{"id":null,"anchorname":"Nixa School","address":"205 North St, Nixa MO 65714-8663","bldgnbr":"205","predir":null,"streetname":"North","streettype":"Street","suffdir":null,"city":"Nixa","state_code":"MO","zip5":"65714","latitude":"37.0412421500000000","longitude":"-93.295487749000000","publicwifi":"U","url":"http://nixa.schoolfusion.us/","broadband_type_id":6}
{"id":null,"anchorname":"Espy Elementary School","address":"205 North St, Nixa MO 65714-8663","bldgnbr":"205","predir":null,"streetname":"North","streettype":"Street","suffdir":null,"city":"Nixa","state_code":"MO","zip5":"65714","latitude":"37.0412738790000000","longitude":"-93.316687713000000","publicwifi":"U","url":"http://nixa.schoolfusion.us/","broadband_type_id":6}
{"id":null,"anchorname":"Nixa High School","address":"205 North St, Nixa MO 65714-8663","bldgnbr":"205","predir":null,"streetname":"North","streettype":"Street","suffdir":null,"city":"Nixa","state_code":"MO","zip5":"65714","latitude":"37.0329623630000000","longitude":"-93.324902732000000","publicwifi":"U","url":"http://nixa.schoolfusion.us/","broadband_type_id":6}
{"id":null,"anchorname":"Mathews Elementary School","address":"605 South Gregg Road, Nixa MO 65714-8663","bldgnbr":"605","predir":"S","streetname":"Gregg","streettype":"Road","suffdir":null,"city":"Nixa","state_code":"MO","zip5":"65714","latitude":"37.0343054350000000","longitude":"-93.319950571000000","publicwifi":"U","url":"http://nixa.schoolfusion.us/","broadband_type_id":6}
{"id":null,"anchorname":"Christian County Library","address":"1005 N 4th Ave, Ozark MO 65721-7608","bldgnbr":"1005","predir":"N","streetname":"4th","streettype":"Avenue","suffdir":null,"city":"Ozark","state_code":"MO","zip5":"65721","latitude":"37.0292612220000000","longitude":"-93.202339409000000","publicwifi":"Y","url":"http://christiancounty.lib.mo.us/","broadband_type_id":6}
{"id":null,"anchorname":"Ozark Fire Protection District Station 1","address":"604 North 3rd Street, Ozark MO 65721","bldgnbr":"604","predir":"N","streetname":"3rd","streettype":"Street","suffdir":null,"city":"Ozark","state_code":"MO","zip5":"65721","latitude":"37.0250638500000000","longitude":"-93.205852002000000","publicwifi":"N","url":"http://www.ozarkfire.org/index.htm","broadband_type_id":5}
{"id":null,"anchorname":"Ozark Police Department","address":"201 E Brick, Ozark MO 65721","bldgnbr":"201","predir":"E","streetname":"Brick","streettype":null,"suffdir":null,"city":"Ozark","state_code":"MO","zip5":"65721","latitude":"37.0221795630000000","longitude":"-93.204188598000000","publicwifi":"N","url":"http://www.ozarkmissouri.com/index.aspx","broadband_type_id":4}
{"id":null,"anchorname":"Christian County Health Department","address":"301 E Brick St., Ozark MO 65721","bldgnbr":"301","predir":"E","streetname":"Brick","streettype":"Street","suffdir":null,"city":"Ozark","state_code":"MO","zip5":"65721","latitude":"37.0219722360000000","longitude":"-93.203174007000000","publicwifi":"N","url":"http://www.christiancountyhealth.com/","broadband_type_id":3}
{"id":null,"anchorname":"Ozark City Hall","address":"206 N 1st St, Ozark, MO 65721","bldgnbr":"205","predir":"N","streetname":"1st","streettype":"Street","suffdir":null,"city":"Ozark","state_code":"MO","zip5":"65721","latitude":"37.0215809100000000","longitude":"-93.205264059000000","publicwifi":"N","url":"http://www.ozarkmissouri.com/","broadband_type_id":1}
{"id":null,"anchorname":"Christian County Courthouse","address":"100 W. Church, Ozark MO 65721","bldgnbr":"100","predir":"W","streetname":"Church","streettype":null,"suffdir":null,"city":"Ozark","state_code":"MO","zip5":"65721","latitude":"37.0205711530000000","longitude":"-93.205148201000000","publicwifi":"N","url":"http://christiancountymo.gov/clerk.htm","broadband_type_id":1}
{"id":null,"anchorname":"Christian County Sheriffs Department","address":"110 West Elm Street, Ozark MO 65721","bldgnbr":"110","predir":"W","streetname":"Elm","streettype":"Street","suffdir":null,"city":"Ozark","state_code":"MO","zip5":"65721","latitude":"37.0205647490000000","longitude":"-93.205084544000000","publicwifi":"N","url":null,"broadband_type_id":4}
{"id":null,"anchorname":"East Elementary School- Ozark R-6 School District","address":"2449 E Hartley, Ozark MO 65721-0166","bldgnbr":"2449","predir":"E","streetname":"Hartley","streettype":null,"suffdir":null,"city":"Ozark","state_code":"MO","zip5":"65721","latitude":"37.0088182060000000","longitude":"-93.180605823000000","publicwifi":"U","url":null,"broadband_type_id":6}
{"id":null,"anchorname":"Sparta Police Department","address":"131 North Avenue, Sparta MO 65753","bldgnbr":"131","predir":null,"streetname":"North","streettype":"Avenue","suffdir":null,"city":"Sparta","state_code":"MO","zip5":"65753","latitude":"37.0036986250000000","longitude":"-93.200851419000000","publicwifi":"U","url":null,"broadband_type_id":4}
{"id":null,"anchorname":"Sparta City Hall","address":"131 North Ave, Sparta, MO 65753","bldgnbr":"131","predir":null,"streetname":"North","streettype":"Avenue","suffdir":null,"city":"Sparta","state_code":"MO","zip5":"65753","latitude":"37.0036852200000000","longitude":"-93.200838131000000","publicwifi":"U","url":"http://www.spartamo.com/","broadband_type_id":1}
{"id":null,"anchorname":"South Elementary School- Ozard R-6 School District","address":"1250 W South St, Ozark MO 65721-0166","bldgnbr":"1250","predir":"W","streetname":"South","streettype":"Street","suffdir":null,"city":"Ozark","state_code":"MO","zip5":"65721","latitude":"37.0033210550000000","longitude":"-93.216041962000000","publicwifi":"U","url":null,"broadband_type_id":6}
{"id":null,"anchorname":"LDS MISSIONARIES","address":"1 CEDAR ST BRUNSWICK ME 04011","bldgnbr":"1","predir":null,"streetname":"CEDAR","streettype":"ST","suffdir":null,"city":"BRUNSWICK","state_code":"ME","zip5":"04011","latitude":"43.9122562580000000","longitude":"-69.967916373000000","publicwifi":"U","url":null,"broadband_type_id":6}
{"id":null,"anchorname":"1ST BAPTIST CHURCH OZARK","address":"1400 W. Jackson St.","bldgnbr":"1400","predir":null,"streetname":"W. Jackson St.","streettype":null,"suffdir":null,"city":"OZARK","state_code":"MO","zip5":"65721","latitude":"37.0262103320000000","longitude":"-93.223236070000000","publicwifi":null,"url":null,"broadband_type_id":6}
{"id":null,"anchorname":"Battle Of Athens Historic Site - Service/Office Building","address":"Route 1, Box 26, Hwy. Cc, Revere, MO 63465","bldgnbr":"Route","predir":null,"streetname":"Route 1 Box 26 Hwy Cc","streettype":"Highway","suffdir":null,"city":"Revere","state_code":"MO","zip5":"63465","latitude":"40.5836111110000000","longitude":"-91.700833333000000","publicwifi":"U","url":"http://mostateparks.com/park/battle-athens-state-historic-site","broadband_type_id":6}
{"id":null,"anchorname":"Ozark Fire Protection District Station 2","address":"5401 North 22nd Street, Ozark MO 65721","bldgnbr":"5401","predir":"N","streetname":"22nd","streettype":"Street","suffdir":null,"city":"Ozark","state_code":"MO","zip5":"65721","latitude":"37.0700625860000000","longitude":"-93.233127160000000","publicwifi":"N","url":"http://www.ozarkfire.org/index.htm","broadband_type_id":5}
{"id":null,"anchorname":"Logan-Rogersville Fire Protection District Station 3","address":"120 Audubon Road, Rogersville MO 65742","bldgnbr":"120","predir":null,"streetname":"Audubon","streettype":"Road","suffdir":null,"city":"Rogersville","state_code":"MO","zip5":"65742","latitude":"37.0738527980000000","longitude":"-93.176040289000000","publicwifi":"U","url":null,"broadband_type_id":5}
{"id":null,"anchorname":"Upper Elementary School","address":"3600 N Hwy Nn, Ozark MO 65721-0166","bldgnbr":"3600","predir":"N","streetname":"Highway Nn","streettype":"Highway","suffdir":null,"city":"Ozark","state_code":"MO","zip5":"65721","latitude":"37.0521128500000000","longitude":"-93.216445889000000","publicwifi":"U","url":"http://www.ozark.k12.mo.us/upper/index.htm","broadband_type_id":6}
{"id":null,"anchorname":"North Elementary School- Ozark R-6 School District","address":"3608 N Hwy NN, Ozark MO 65721-0166","bldgnbr":"3608","predir":"N","streetname":"Highway Nn","streettype":"Highway","suffdir":null,"city":"Ozark","state_code":"MO","zip5":"65721","latitude":"37.0530539850000000","longitude":"-93.214438908000000","publicwifi":"N","url":null,"broadband_type_id":6}
{"id":null,"anchorname":"Ozark Junior High School","address":"1109 W Jackson, Ozark MO 65721-0166","bldgnbr":"1109","predir":"W","streetname":"Jackson","streettype":null,"suffdir":null,"city":"Ozark","state_code":"MO","zip5":"65721","latitude":"37.0262464890000000","longitude":"-93.213781014000000","publicwifi":"U","url":"http://www.ozark.k12.mo.us/","broadband_type_id":6}
{"id":null,"anchorname":"Ozark High School","address":"1350 W Bluff Dr, Ozark MO 65721-0166","bldgnbr":"1350","predir":"W","streetname":"Bluff","streettype":"Drive","suffdir":null,"city":"Ozark","state_code":"MO","zip5":"65721","latitude":"37.0320279790000000","longitude":"-93.218169944000000","publicwifi":"U","url":"http://www.ozark.k12.mo.us/","broadband_type_id":6}
{"id":null,"anchorname":"Ozark Fire Protection District Station 4","address":"175 Pippenville Road, Sparta MO 65753","bldgnbr":"175","predir":null,"streetname":"Pippenville","streettype":"Road","suffdir":null,"city":"Sparta","state_code":"MO","zip5":"65753","latitude":"37.0166969870000000","longitude":"-93.130872251000000","publicwifi":"N","url":"http://www.ozarkfire.org/index.htm","broadband_type_id":5}
{"id":null,"anchorname":"Sparta Middle School","address":"217 Division St, Sparta MO 65753-0160","bldgnbr":"217","predir":null,"streetname":"Division","streettype":"Street","suffdir":null,"city":"Sparta","state_code":"MO","zip5":"65753","latitude":"37.0055040670000000","longitude":"-93.083826952000000","publicwifi":"U","url":"http://www.sparta.k12.mo.us/","broadband_type_id":6}
{"id":null,"anchorname":"Sparta High School","address":"217 Division St, Sparta MO 65753-0160","bldgnbr":"217","predir":null,"streetname":"Division","streettype":"Street","suffdir":null,"city":"Sparta","state_code":"MO","zip5":"65753","latitude":"37.0054104440000000","longitude":"-93.083082328000000","publicwifi":"U","url":"http://www.sparta.k12.mo.us/","broadband_type_id":6}
{"id":null,"anchorname":"Sparta Elementary School","address":"522 State Hwy 125 N, Sparta MO 65753-0160","bldgnbr":"522","predir":null,"streetname":"State Hwy 125","streettype":"State Highway","suffdir":"N","city":"Sparta","state_code":"MO","zip5":"65753","latitude":"37.0078771970000000","longitude":"-93.085081677000000","publicwifi":"U","url":"http://www.sparta.k12.mo.us/","broadband_type_id":6}
{"id":null,"anchorname":"Sparta Fire Protection District","address":"160 South Avenue, Sparta MO 65753","bldgnbr":"160","predir":null,"streetname":"South","streettype":"Avenue","suffdir":null,"city":"Sparta","state_code":"MO","zip5":"65753","latitude":"37.0008220810000000","longitude":"-93.083723628000000","publicwifi":"N","url":null,"broadband_type_id":5}
{"id":null,"anchorname":"Highlandville Fire Protection District Station 3","address":"115 Rescue Lane, Ozark MO 65721","bldgnbr":"115","predir":null,"streetname":"Rescue","streettype":"Lane","suffdir":null,"city":"Ozark","state_code":"MO","zip5":"65721","latitude":"36.9709467530000000","longitude":"-93.284041541000000","publicwifi":"N","url":"http://www.highlandvillefire.org/","broadband_type_id":5}
{"id":null,"anchorname":"Highlandville City Hall","address":"216 Kentling Avenue Highlandville, MO 65669-7904","bldgnbr":"216","predir":null,"streetname":"Kentling","streettype":"Avenue","suffdir":null,"city":"Highlandville","state_code":"MO","zip5":"65669","latitude":"36.9328629490000000","longitude":"-93.282421091000000","publicwifi":"N","url":"http://www.highlandville.net/","broadband_type_id":1}
{"id":null,"anchorname":"Highlandville Fire Protection District Station 1","address":"1162 Glossip Avenue, Highlandville MO 65669","bldgnbr":"1162","predir":null,"streetname":"Glossip","streettype":"Avenue","suffdir":null,"city":"Highlandville","state_code":"MO","zip5":"65669","latitude":"36.9129674840000000","longitude":"-93.284826658000000","publicwifi":"N","url":"http://www.highlandvillefire.org/","broadband_type_id":5}
{"id":null,"anchorname":"Spokane Middle School","address":"1130 Spokane Rd, Spokane MO 65754-0220","bldgnbr":"1130","predir":null,"streetname":"Spokane","streettype":"Road","suffdir":null,"city":"Spokane","state_code":"MO","zip5":"65754","latitude":"36.8631073350000000","longitude":"-93.296674580000000","publicwifi":"N","url":null,"broadband_type_id":6}
{"id":null,"anchorname":"Chadwick Rural Fire Department","address":"6419 State Highway 125 South, Chadwick MO 65629","bldgnbr":"6419","predir":null,"streetname":"State Hwy 125","streettype":"State Highway","suffdir":"S","city":"Chadwick","state_code":"MO","zip5":"65629","latitude":"36.9326252550000000","longitude":"-93.055884584000000","publicwifi":"N","url":null,"broadband_type_id":5}
{"id":null,"anchorname":"Ozark Fire Protection District Station 3","address":"4545 State Highway W, Ozark MO 65721","bldgnbr":"4545","predir":null,"streetname":"State Hwy W","streettype":"State Highway","suffdir":null,"city":"Ozark","state_code":"MO","zip5":"65721","latitude":"36.9442799550000000","longitude":"-93.168644554000000","publicwifi":"N","url":"http://www.ozarkfire.org/index.htm","broadband_type_id":5}
{"id":null,"anchorname":"Chadwick High School","address":"7090 State Hwy 125 S, Chadwick MO 65629-3340","bldgnbr":"7090","predir":null,"streetname":"State Hwy 125","streettype":"State Highway","suffdir":"S","city":"Chadwick","state_code":"MO","zip5":"65629","latitude":"36.9234842750000000","longitude":"-93.057791493000000","publicwifi":"U","url":"http://www.chadwick.k12.mo.us/","broadband_type_id":6}
{"id":null,"anchorname":"Chadwick Elementary School","address":"7090 State Hwy 125 S, Chadwick MO 65629-3340","bldgnbr":"7090","predir":null,"streetname":"State Hwy 125","streettype":"State Highway","suffdir":"S","city":"Chadwick","state_code":"MO","zip5":"65629","latitude":"36.9235699200000000","longitude":"-93.057778576000000","publicwifi":"U","url":"http://www.chadwick.k12.mo.us/","broadband_type_id":6}
{"id":null,"anchorname":"Wyaconda School","address":"515 N Walnut St, Wyaconda MO 63474-0168","bldgnbr":"515","predir":"N","streetname":"Walnut","streettype":"Street","suffdir":null,"city":"Wyaconda","state_code":"MO","zip5":"63474","latitude":"40.3941128350000000","longitude":"-91.930883461000000","publicwifi":"U","url":null,"broadband_type_id":6}
{"id":null,"anchorname":"Wyaconda Elementary School","address":"515 N Walnut St, Wyaconda MO 63474-0168","bldgnbr":"515","predir":"N","streetname":"Walnut","streettype":"Street","suffdir":null,"city":"Wyaconda","state_code":"MO","zip5":"63474","latitude":"40.3941128350000000","longitude":"-91.930883461000000","publicwifi":"U","url":null,"broadband_type_id":6}
{"id":null,"anchorname":"Wyaconda Community Fire Department","address":"110 South Locust Street, Wyaconda MO 63474","bldgnbr":"110","predir":"S","streetname":"Locust","streettype":"Street","suffdir":null,"city":"Wyaconda","state_code":"MO","zip5":"63474","latitude":"40.3904249620000000","longitude":"-91.924223003000000","publicwifi":"U","url":null,"broadband_type_id":5}
{"id":null,"anchorname":"Wyaconda City Hall","address":"115 Main Street, Wyaconda, MO 63474","bldgnbr":"115","predir":null,"streetname":"Main","streettype":"Street","suffdir":null,"city":"Wyaconda","state_code":"MO","zip5":"63474","latitude":"40.3921761630000000","longitude":"-91.925930115000000","publicwifi":"N","url":null,"broadband_type_id":1}
{"id":null,"anchorname":"Luray Elementary School","address":"248 North St, Luray MO 63453-0248","bldgnbr":"248","predir":null,"streetname":"North","streettype":"Street","suffdir":null,"city":"Luray","state_code":"MO","zip5":"63465","latitude":"40.4524652210000000","longitude":"-91.879244839000000","publicwifi":"Y","url":"http://www.trulia.com/schools/MO-Luray/Luray_Elementary_School/","broadband_type_id":6}
{"id":null,"anchorname":"Revere Elementary School","address":"1 Bulldog Dr, Revere MO 63465-0300","bldgnbr":"1","predir":null,"streetname":"Bulldog","streettype":"Drive","suffdir":null,"city":"Revere","state_code":"MO","zip5":"63465","latitude":"40.4963469890000000","longitude":"-91.679270762000000","publicwifi":"U","url":"http://www.education.com/schoolfinder/us/missouri/revere/revere-elementary/","broadband_type_id":6}
{"id":null,"anchorname":"Revere C-3 School","address":"1 Bulldog Dr.","bldgnbr":"1","predir":null,"streetname":"Bulldog Dr.","streettype":null,"suffdir":null,"city":"REVERE","state_code":"MO","zip5":"63465","latitude":"40.4952400000000000","longitude":"-91.679640000000000","publicwifi":null,"url":null,"broadband_type_id":6}
{"id":null,"anchorname":"Revere Volunteer Fire Department","address":"303 Main Street, Revere MO 63465","bldgnbr":"303","predir":null,"streetname":"Main","streettype":"Street","suffdir":null,"city":"Revere","state_code":"MO","zip5":"63465","latitude":"40.4953898590000000","longitude":"-91.675928646000000","publicwifi":"N","url":null,"broadband_type_id":5}
{"id":null,"anchorname":"Revere City Hall","address":"303 Main St, Revere, MO 63465","bldgnbr":"303","predir":null,"streetname":"Main","streettype":"Street","suffdir":null,"city":"Luray","state_code":"MO","zip5":"63465","latitude":"40.4943535290000000","longitude":"-91.676248552000000","publicwifi":"Y","url":null,"broadband_type_id":1}
{"id":null,"anchorname":"Turning Point High School","address":"116 W 4th St, Cameron MO 64429-1713","bldgnbr":"116","predir":"W","streetname":"4th","streettype":"Street","suffdir":null,"city":"Cameron","state_code":"MO","zip5":"64429","latitude":"39.7427929760000000","longitude":"-94.239170342000000","publicwifi":"U","url":"http://www.cameron.k12.mo.us/","broadband_type_id":6}
{"id":null,"anchorname":"SPURWINK SERVICES- CHLOE LYN PURPLE","address":"38 Chloe Lyn Ln BRUNSWICK ME 04011","bldgnbr":"38","predir":null,"streetname":"Chloe Lyn","streettype":"St","suffdir":null,"city":"BRUNSWICK","state_code":"ME","zip5":"04011","latitude":"43.8979733490000000","longitude":"-70.058090606000000","publicwifi":"U","url":null,"broadband_type_id":6}
{"id":null,"anchorname":"Alexandria Community Center","address":"109 E. Market","bldgnbr":"109","predir":null,"streetname":"E. Market","streettype":null,"suffdir":null,"city":"ALEXANDRIA","state_code":"MO","zip5":"63430","latitude":"40.3593300000000000","longitude":"-91.457770000000000","publicwifi":null,"url":null,"broadband_type_id":1}
{"id":null,"anchorname":"RAYMOND PUBLIC SAFETY BUILDING","address":"1443 ROOSEVELT TRL RAYMOND ME 04071","bldgnbr":"1443","predir":null,"streetname":"ROOSEVELT","streettype":"TRL","suffdir":null,"city":"RAYMOND","state_code":"ME","zip5":"04071","latitude":"43.9025973200000000","longitude":"-70.479813513000000","publicwifi":"U","url":null,"broadband_type_id":4}
{"id":null,"anchorname":"Southern Baptist Fellowship","address":"HWY 136","bldgnbr":"HWY","predir":null,"streetname":"136","streettype":null,"suffdir":null,"city":"WAYLAND","state_code":"MO","zip5":"63472","latitude":"40.3927100000000000","longitude":"-91.594910000000000","publicwifi":null,"url":null,"broadband_type_id":6}
{"id":null,"anchorname":"Clark County MU Extension Center","address":"111 E Court Street, Suite 10, Kahoka, MO 63445","bldgnbr":"10","predir":"E","streetname":"Court","streettype":"Street","suffdir":null,"city":"Kahoka","state_code":"MO","zip5":"63445","latitude":"40.4244911890000000","longitude":"-91.719720140000000","publicwifi":"Y","url":"http://extension.missouri.edu/clark","broadband_type_id":1}
{"id":null,"anchorname":"NORTH CROSS UNITED METHODIST CHURCH","address":"1321 NE. Vivion Rd.","bldgnbr":"1321","predir":null,"streetname":"NE. Vivion Rd.","streettype":null,"suffdir":null,"city":"KANSAS CITY","state_code":"MO","zip5":"64118","latitude":"39.1810743010000000","longitude":"-94.563069557000000","publicwifi":null,"url":null,"broadband_type_id":6}
{"id":null,"anchorname":"Midwestern Baptist Theological Seminary","address":"5001 North Oak Street Trafficway, Kansas City  64118","bldgnbr":"5001","predir":"N","streetname":"Oak","streettype":"Trafficway","suffdir":null,"city":"Kansas City","state_code":"MO","zip5":"64118","latitude":"39.1848757540000000","longitude":"-94.574512206000000","publicwifi":"U","url":"http://www.mbts.edu/","broadband_type_id":6}
{"id":null,"anchorname":"Clay County MU Extension Center","address":"1901 Northeast 48th Street, Kansas City, MO 64118","bldgnbr":"1901","predir":"NE","streetname":"48th","streettype":null,"suffdir":null,"city":"Kansas City","state_code":"MO","zip5":"64118","latitude":"39.1798277130000000","longitude":"-94.556601540000000","publicwifi":"N","url":"http://extension.missouri.edu/clay","broadband_type_id":1}
{"id":null,"anchorname":"Center For Education Development","address":"1900 Northeast 46th Street, Kansas City MO 64116-2042","bldgnbr":"1900","predir":"NE","streetname":"46th","streettype":"Street","suffdir":null,"city":"Kansas City","state_code":"MO","zip5":"64116","latitude":"39.1771453610000000","longitude":"-94.556817054000000","publicwifi":"U","url":null,"broadband_type_id":6}
{"id":null,"anchorname":"Alexandria Fire Protection District","address":"102 South Walnut Street, Alexandria MO 63430","bldgnbr":"102","predir":"S","streetname":"Walnut","streettype":"Street","suffdir":null,"city":"Alexandria","state_code":"MO","zip5":"63430","latitude":"40.3590004700000000","longitude":"-91.457074511000000","publicwifi":"U","url":null,"broadband_type_id":5}
{"id":null,"anchorname":"Wayland City Hall","address":"105 S. Main, Wayland, MO 63472","bldgnbr":"105","predir":"E","streetname":"Des Moines","streettype":"Street","suffdir":null,"city":"Wayland","state_code":"MO","zip5":"63472","latitude":"40.3950132490000000","longitude":"-91.581118724000000","publicwifi":"N","url":null,"broadband_type_id":1}
{"id":null,"anchorname":"Wayland Volunteer Fire Protection Association","address":"114 East Des Moines Street, Wayland MO 63472","bldgnbr":"114","predir":"E","streetname":"Des Moines","streettype":"Street","suffdir":null,"city":"Wayland","state_code":"MO","zip5":"63472","latitude":"40.3949713100000000","longitude":"-91.582241909000000","publicwifi":"U","url":null,"broadband_type_id":5}
{"id":null,"anchorname":"Clark County Health Department","address":"670 North Johnson, Kahoka MO 63445","bldgnbr":"670","predir":"N","streetname":"Johnson","streettype":null,"suffdir":null,"city":"Kahoka","state_code":"MO","zip5":"63445","latitude":"40.4260100000000000","longitude":"-91.719510000000000","publicwifi":"Y","url":"http://health.mo.gov/profiles/CountyInfo/CpiClark.html","broadband_type_id":3}
{"id":null,"anchorname":"Clark County Sheriffs Department / Clark County Jail","address":"518 North Lincoln Street, Kahoka MO 63445","bldgnbr":"518","predir":"N","streetname":"Lincoln","streettype":"Street","suffdir":null,"city":"Kahoka","state_code":"MO","zip5":"63445","latitude":"40.4246195130000000","longitude":"-91.718436900000000","publicwifi":"N","url":null,"broadband_type_id":4}
{"id":null,"anchorname":"Kahoka Police Department","address":"518 North Lincoln Street, Suite 2, Kahoka MO 63445","bldgnbr":"2","predir":"N","streetname":"Lincoln","streettype":"Street","suffdir":null,"city":"Kahoka","state_code":"MO","zip5":"63445","latitude":"40.4246282120000000","longitude":"-91.718443483000000","publicwifi":"N","url":null,"broadband_type_id":4}
{"id":null,"anchorname":"Clark County Courthouse","address":"111 E. Court St., Kahoka MO 63445","bldgnbr":"111","predir":"E","streetname":"Court","streettype":"Street","suffdir":null,"city":"Kahoka","state_code":"MO","zip5":"63445","latitude":"40.4248220750000000","longitude":"-91.718671930000000","publicwifi":"N","url":"http://www.courts.mo.gov/","broadband_type_id":1}
{"id":null,"anchorname":"Kahoka Middle School","address":"384 N Jefferson, Kahoka MO 63445-1338","bldgnbr":"384","predir":"N","streetname":"Jefferson","streettype":null,"suffdir":null,"city":"Kahoka","state_code":"MO","zip5":"63445","latitude":"40.4232438890000000","longitude":"-91.724010743000000","publicwifi":"Y","url":"http://www.clarkcounty.k12.mo.us/","broadband_type_id":6}
{"id":null,"anchorname":"Clark County Middle School","address":"384 N Jefferson, Kahoka MO 63445-1338","bldgnbr":"384","predir":"N","streetname":"Jefferson","streettype":null,"suffdir":null,"city":"Kahoka","state_code":"MO","zip5":"63445","latitude":"40.4232438890000000","longitude":"-91.724010743000000","publicwifi":"Y","url":"http://www.clarkcounty.k12.mo.us/","broadband_type_id":6}
{"id":null,"anchorname":"Northeast Missouri Library Service- H.E. Sever Memorial Library","address":"207 W Chestnut St, Kahoka MO 63445-1403","bldgnbr":"207","predir":"W","streetname":"Chestnut","streettype":"Street","suffdir":null,"city":"Kahoka","state_code":"MO","zip5":"63445","latitude":"40.4226160670000000","longitude":"-91.721063733000000","publicwifi":"Y","url":"http://www.nemolibrary.lib.mo.us/content/he-sever-memorial-library","broadband_type_id":6}
{"id":null,"anchorname":"Care Board","address":"451 Vine","bldgnbr":"451","predir":null,"streetname":"Vine","streettype":null,"suffdir":null,"city":"KAHOKA","state_code":"MO","zip5":"63445","latitude":"40.4236100000000000","longitude":"-91.711590000000000","publicwifi":null,"url":null,"broadband_type_id":3}
{"id":null,"anchorname":"Kahoka City Hall","address":"275 North Morgan Street, Kahoka, MO 63445","bldgnbr":"275","predir":"N","streetname":"Morgan","streettype":"Street","suffdir":null,"city":"Kahoka","state_code":"MO","zip5":"63445","latitude":"40.4222742760000000","longitude":"-91.721931592000000","publicwifi":"U","url":null,"broadband_type_id":1}
{"id":null,"anchorname":"Clark County High School","address":"680 E Main, Kahoka MO 63445-1747","bldgnbr":"680","predir":"E","streetname":"Main","streettype":null,"suffdir":null,"city":"Kahoka","state_code":"MO","zip5":"63445","latitude":"40.4194730660000000","longitude":"-91.712172609000000","publicwifi":"Y","url":"http://www.clarkcounty.k12.mo.us/","broadband_type_id":6}
{"id":null,"anchorname":"Clark County Fire Corporation","address":"282 West Exchange Street, Kahoka MO 63445","bldgnbr":"282","predir":"W","streetname":"Exchange","streettype":"Street","suffdir":null,"city":"Kahoka","state_code":"MO","zip5":"63445","latitude":"40.4191566900000000","longitude":"-91.721816760000000","publicwifi":"N","url":null,"broadband_type_id":5}
{"id":null,"anchorname":"Kahoka City Fire Department","address":"282 West Exchange Street, Kahoka MO 63445","bldgnbr":"282","predir":"W","streetname":"Exchange","streettype":"Street","suffdir":null,"city":"Kahoka","state_code":"MO","zip5":"63445","latitude":"40.4191567460000000","longitude":"-91.721821916000000","publicwifi":"U","url":null,"broadband_type_id":5}
{"id":null,"anchorname":"Crestview Elementary School","address":"4327 North Holmes Street, Kansas City MO 64116-2142","bldgnbr":"4327","predir":"N","streetname":"Holmes","streettype":"Street","suffdir":null,"city":"Kansas City","state_code":"MO","zip5":"64116","latitude":"39.1735457870000000","longitude":"-94.571465311000000","publicwifi":"U","url":"http://www.nkcschools.org/","broadband_type_id":6}
{"id":null,"anchorname":"Briarcliff Elementary School","address":"4100 Northwest Briarcliff Road, Kansas City MO 64116-1749","bldgnbr":"4100","predir":"NW","streetname":"Briarcliff","streettype":"Road","suffdir":null,"city":"Kansas City","state_code":"MO","zip5":"64116","latitude":"39.1691990400000000","longitude":"-94.585374861000000","publicwifi":"U","url":"http://www.nkcschools.org/","broadband_type_id":6}
{"id":null,"anchorname":"Davidson Elementary School","address":"5100 North Highland Avenue, Kansas City MO 64118-6049","bldgnbr":"5100","predir":"N","streetname":"Highland","streettype":"Avenue","suffdir":null,"city":"Kansas City","state_code":"MO","zip5":"64118","latitude":"39.1879442190000000","longitude":"-94.558398624000000","publicwifi":"U","url":"http://www.nkcschools.org/","broadband_type_id":6}
{"id":null,"anchorname":"Kansas City Missouri Fire Department Station 40","address":"5200 North Oak Trafficway, Kansas City MO 64118","bldgnbr":"5200","predir":"N","streetname":"Oak","streettype":"Trafficway","suffdir":null,"city":"Kansas City","state_code":"MO","zip5":"64118","latitude":"39.1882538380000000","longitude":"-94.576903256000000","publicwifi":"U","url":"http://ww4.kcmo.org/fire.nsf/web/home?opendocument","broadband_type_id":5}
{"id":null,"anchorname":"Northgate Middle School","address":"2117 Ne 48th St, Kansas City MO 64118-6110","bldgnbr":"2117","predir":"NE","streetname":"48th","streettype":"Street","suffdir":null,"city":"Kansas City","state_code":"MO","zip5":"64118","latitude":"39.1805308470000000","longitude":"-94.554863803000000","publicwifi":"U","url":"http://www.nkcschools.org/","broadband_type_id":6}
{"id":null,"anchorname":"Northgate Middle School","address":"2117 NE. 48th St.","bldgnbr":"2117","predir":null,"streetname":"NE. 48th St.","streettype":null,"suffdir":null,"city":"KANSAS CITY","state_code":"MO","zip5":"64118","latitude":"39.1809197100000000","longitude":"-94.553106434000000","publicwifi":null,"url":null,"broadband_type_id":6}
{"id":null,"anchorname":"Oakwood Manor Elementary School","address":"5900 N Flora Avenue, Kansas City MO 64118-5457","bldgnbr":"5900","predir":"N","streetname":"Flora","streettype":"Avenue","suffdir":null,"city":"Kansas City","state_code":"MO","zip5":"64118","latitude":"39.2014363640000000","longitude":"-94.563508088000000","publicwifi":"U","url":"http://www.nkcschools.org/","broadband_type_id":6}
{"id":null,"anchorname":"FRYE ISLAND FERRY","address":"7 FERRY LANDING RD RAYMOND ME 04071","bldgnbr":"7","predir":null,"streetname":"FERRY LANDING","streettype":"RD","suffdir":null,"city":"RAYMOND","state_code":"ME","zip5":"04071","latitude":"43.8496900010000000","longitude":"-70.509290000000000","publicwifi":"U","url":null,"broadband_type_id":6}
