{"id":null,"anchorname":"SWCC INC","address":"3802 MEADOWS LN LAS VEGAS, NV 89107","bldgnbr":"3802","predir":null,"streetname":"MEADOWS LN","streettype":null,"suffdir":null,"city":"LAS VEGAS","state_code":"NV","zip5":"89107","latitude":"36.1704970000000000","longitude":"-115.19290300000000","publicwifi":"U","url":null,"broadband_type_id":null}
{"id":null,"anchorname":"WADE W. WAGNER, D.D.S., CHTD","address":"4618 MEADOWS LN LAS VEGAS, NV 89107","bldgnbr":"4618","predir":null,"streetname":"MEADOWS LN","streettype":null,"suffdir":null,"city":"LAS VEGAS","state_code":"NV","zip5":"89107","latitude":"36.1706390000000000","longitude":"-115.20366300000000","publicwifi":"U","url":null,"broadband_type_id":null}
{"id":null,"anchorname":"WARD W. WAGNER D.C., P.C.","address":"4618 MEADOWS LN LAS VEGAS, NV 89107","bldgnbr":"4618","predir":null,"streetname":"MEADOWS LN","streettype":null,"suffdir":null,"city":"LAS VEGAS","state_code":"NV","zip5":"89107","latitude":"36.1706390000000000","longitude":"-115.20366300000000","publicwifi":"U","url":null,"broadband_type_id":null}
{"id":null,"anchorname":"WAYNE W. WAGNER, D.D.S., CHTD.","address":"4618 MEADOWS LN LAS VEGAS, NV 89107","bldgnbr":"4618","predir":null,"streetname":"MEADOWS LN","streettype":null,"suffdir":null,"city":"LAS VEGAS","state_code":"NV","zip5":"89107","latitude":"36.1706390000000000","longitude":"-115.20366300000000","publicwifi":"U","url":null,"broadband_type_id":null}
{"id":null,"anchorname":"MATTHEW R WIRIG, DMD, PC","address":"4610 MEADOWS LN STE A LAS VEGAS, NV 89107","bldgnbr":"4610","predir":null,"streetname":"MEADOWS LN STE A","streettype":null,"suffdir":null,"city":"LAS VEGAS","state_code":"NV","zip5":"89107","latitude":"36.1702060000000000","longitude":"-115.20287900000000","publicwifi":"U","url":null,"broadband_type_id":null}
{"id":null,"anchorname":"SHARAM GHODSI DDS INC","address":"4011 MEADOWS LN LAS VEGAS, NV 89107","bldgnbr":"4011","predir":null,"streetname":"MEADOWS LN","streettype":null,"suffdir":null,"city":"LAS VEGAS","state_code":"NV","zip5":"89107","latitude":"36.1695410000000000","longitude":"-115.19428200000000","publicwifi":"U","url":null,"broadband_type_id":null}
{"id":null,"anchorname":"S ROBERT LEAVER","address":"4610 MEADOWS LN LAS VEGAS, NV 89107","bldgnbr":"4610","predir":null,"streetname":"MEADOWS LN","streettype":null,"suffdir":null,"city":"LAS VEGAS","state_code":"NV","zip5":"89107","latitude":"36.1702060000000000","longitude":"-115.20287900000000","publicwifi":"U","url":null,"broadband_type_id":null}
{"id":null,"anchorname":"YMCA OF SOUTHERN NEVADA","address":"4141 MEADOWS LANE LAS VEGAS, NV 89107","bldgnbr":"4141","predir":null,"streetname":"MEADOWS LANE","streettype":null,"suffdir":null,"city":"LAS VEGAS","state_code":"NV","zip5":"89107","latitude":"36.1690350000000000","longitude":"-115.19628800000000","publicwifi":"U","url":null,"broadband_type_id":null}
{"id":null,"anchorname":"STATE OF NEVADA - FAMILY RESOURCE CENTER (FRC) \u0026 FAMILY TO FAMILY CONNECTION (F2F) - SOUTHERN NEVADA","address":"6138 W CHARLESTON BOULEVARD LAS VEGAS, NV 89107","bldgnbr":"6138","predir":null,"streetname":"W CHARLESTON BOULEVARD","streettype":null,"suffdir":null,"city":"LAS VEGAS","state_code":"NV","zip5":"89107","latitude":"36.1592730000000000","longitude":"-115.22426600000000","publicwifi":"U","url":null,"broadband_type_id":6}
{"id":null,"anchorname":"GREATER LAS VEGAS DIALYSIS LLC","address":"150 S VALLEY VIEW BLVD LAS VEGAS, NV 89107","bldgnbr":"150","predir":null,"streetname":"S VALLEY VIEW BLVD","streettype":null,"suffdir":null,"city":"LAS VEGAS","state_code":"NV","zip5":"89107","latitude":"36.1744150000000000","longitude":"-115.19374400000000","publicwifi":"U","url":null,"broadband_type_id":6}
{"id":null,"anchorname":"KHALEK \u0026 TAFRESHI,LLP","address":"4500 MEADOWS LN LAS VEGAS, NV 89107","bldgnbr":"4500","predir":null,"streetname":"MEADOWS LN","streettype":null,"suffdir":null,"city":"LAS VEGAS","state_code":"NV","zip5":"89107","latitude":"36.1706600000000000","longitude":"-115.20150700000000","publicwifi":"U","url":null,"broadband_type_id":6}
{"id":null,"anchorname":"DR. LO'S PAIN CENTER","address":"701 S DECATUR BLVD LAS VEGAS, NV 89107","bldgnbr":"701","predir":null,"streetname":"S DECATUR BLVD","streettype":null,"suffdir":null,"city":"LAS VEGAS","state_code":"NV","zip5":"89107","latitude":"36.1635160000000000","longitude":"-115.20571200000000","publicwifi":"U","url":null,"broadband_type_id":null}
{"id":null,"anchorname":"LJZR ENTERPRISES","address":"4000 MEADOWS LN LAS VEGAS, NV 89107","bldgnbr":"4000","predir":null,"streetname":"MEADOWS LN","streettype":null,"suffdir":null,"city":"LAS VEGAS","state_code":"NV","zip5":"89107","latitude":"36.1702070000000000","longitude":"-115.19518600000000","publicwifi":"U","url":null,"broadband_type_id":6}
{"id":null,"anchorname":"MEHRDAD A TAFRESHI, MD,LTD","address":"4500 MEADOWS LN LAS VEGAS, NV 89107","bldgnbr":"4500","predir":null,"streetname":"MEADOWS LN","streettype":null,"suffdir":null,"city":"LAS VEGAS","state_code":"NV","zip5":"89107","latitude":"36.1706600000000000","longitude":"-115.20150700000000","publicwifi":"U","url":null,"broadband_type_id":6}
{"id":null,"anchorname":"MINICARE","address":"3838 MEADOWS LANE LAS VEGAS, NV 89107","bldgnbr":"3838","predir":null,"streetname":"MEADOWS LANE","streettype":null,"suffdir":null,"city":"LAS VEGAS","state_code":"NV","zip5":"89107","latitude":"36.1701880000000000","longitude":"-115.19297900000000","publicwifi":"U","url":null,"broadband_type_id":3}
{"id":null,"anchorname":"E.W. GRIFFITH ELEMENTARY SCHOOL","address":"324 ESSEX DR. LAS VEGAS, NV 89107-2959","bldgnbr":"324","predir":null,"streetname":"ESSEX DR.","streettype":null,"suffdir":null,"city":"LAS VEGAS","state_code":"NV","zip5":"89107","latitude":"36.1690030000000000","longitude":"-115.20101600000000","publicwifi":"U","url":null,"broadband_type_id":6}
{"id":null,"anchorname":"DIDC INCORPORATED DBA ALL VALLEY HOME HEALTH CARE \u0026 NURSING","address":"535 S DECATUR BLVD LAS VEGAS, NV 89107","bldgnbr":"535","predir":null,"streetname":"S DECATUR BLVD","streettype":null,"suffdir":null,"city":"LAS VEGAS","state_code":"NV","zip5":"89107","latitude":"36.1647920000000000","longitude":"-115.20579900000000","publicwifi":"U","url":null,"broadband_type_id":3}
{"id":null,"anchorname":"SUNNYHILLS PAIN CLINIC","address":"505 S DECATUR BLVD LAS VEGAS, NV 89107","bldgnbr":"505","predir":null,"streetname":"S DECATUR BLVD","streettype":null,"suffdir":null,"city":"LAS VEGAS","state_code":"NV","zip5":"89107","latitude":"36.1659170000000000","longitude":"-115.20575300000000","publicwifi":"U","url":null,"broadband_type_id":3}
{"id":null,"anchorname":"HYDE PARK MIDDLE SCHOOL","address":"900 HINSON ST. LAS VEGAS, NV 89107-4499","bldgnbr":"900","predir":null,"streetname":"HINSON ST.","streettype":null,"suffdir":null,"city":"LAS VEGAS","state_code":"NV","zip5":"89107","latitude":"36.1607380000000000","longitude":"-115.19319700000000","publicwifi":"U","url":null,"broadband_type_id":6}
{"id":null,"anchorname":"ARTISTIC ORTHODONTICS- MEADOWS","address":"4300 MEADOWS LN LAS VEGAS, NV 89107","bldgnbr":"4300","predir":null,"streetname":"MEADOWS LN","streettype":null,"suffdir":null,"city":"LAS VEGAS","state_code":"NV","zip5":"89107","latitude":"36.1722750000000000","longitude":"-115.19669000000000","publicwifi":"U","url":null,"broadband_type_id":6}
{"id":null,"anchorname":"CHILDRENS LUNG SPECIALISTS CRAIG NAKAMURA MD LTD","address":"3820 MEADOWS LN LAS VEGAS, NV 89107","bldgnbr":"3820","predir":null,"streetname":"MEADOWS LN","streettype":null,"suffdir":null,"city":"LAS VEGAS","state_code":"NV","zip5":"89107","latitude":"36.1701630000000000","longitude":"-115.19314000000000","publicwifi":"U","url":null,"broadband_type_id":6}
{"id":null,"anchorname":"US VISION OPTICAL INC","address":"4400 MEADOWS LN \u0026 VALLEY VIEW LAS VEGAS, NV 89107","bldgnbr":"4400","predir":null,"streetname":"MEADOWS LN \u0026 VALLEY VIEW","streettype":null,"suffdir":null,"city":"LAS VEGAS","state_code":"NV","zip5":"89107","latitude":"36.1701410000000000","longitude":"-115.19260800000000","publicwifi":"U","url":null,"broadband_type_id":6}
{"id":null,"anchorname":"CENTURYLINK BUSINESS \u0026 RESIDENTIAL PHONE","address":"330 S. VALLEY VIEW BLVD LAS VEGAS, NV 89107","bldgnbr":"330","predir":null,"streetname":"S. VALLEY VIEW BLVD","streettype":null,"suffdir":null,"city":"LAS VEGAS","state_code":"NV","zip5":"89107","latitude":"36.1687650000000000","longitude":"-115.19412900000000","publicwifi":"U","url":null,"broadband_type_id":6}
{"id":null,"anchorname":"ARMINAS WAGNER ENTERPRISES","address":"3900 W CHARLESTON BLVD LAS VEGAS, NV 89102","bldgnbr":"3900","predir":null,"streetname":"W CHARLESTON BLVD","streettype":null,"suffdir":null,"city":"LAS VEGAS","state_code":"NV","zip5":"89102","latitude":"36.1595310000000000","longitude":"-115.19339300000000","publicwifi":"U","url":null,"broadband_type_id":6}
{"id":null,"anchorname":"INSPIRATION BEHAVIORAL MANAGEMENT, INC.","address":"3900 W CHARLESTON BLVD STE 170 LAS VEGAS, NV 89102","bldgnbr":"3900","predir":null,"streetname":"W CHARLESTON BLVD STE 170","streettype":null,"suffdir":null,"city":"LAS VEGAS","state_code":"NV","zip5":"89102","latitude":"36.1595310000000000","longitude":"-115.19339300000000","publicwifi":"U","url":null,"broadband_type_id":null}
{"id":null,"anchorname":"EASTERN FAMILY RESOURCE CENTER","address":"9100 FRANKLIN SQUARE DRIVE","bldgnbr":"9100","predir":null,"streetname":"FRANKLIN SQUARE","streettype":"DR","suffdir":null,"city":"BALTIMORE","state_code":"MD","zip5":"21237","latitude":"39.3637980000000000","longitude":"-76.463578000000000","publicwifi":"N","url":null,"broadband_type_id":6}
{"id":null,"anchorname":"CHOICES GROUP INC.","address":"800 S. VALLEY VIEW BOULEVARD LAS VEGAS, NV 89107","bldgnbr":"800","predir":null,"streetname":"S. VALLEY VIEW BOULEVARD","streettype":null,"suffdir":null,"city":"LAS VEGAS","state_code":"NV","zip5":"89107","latitude":"36.1624700000000000","longitude":"-115.19286100000000","publicwifi":"U","url":null,"broadband_type_id":6}
{"id":null,"anchorname":"PARAGON OUTPATIENT THERAPY SERVICES LLC","address":"939 S DECATUR BLVD LAS VEGAS, NV 89107","bldgnbr":"939","predir":null,"streetname":"S DECATUR BLVD","streettype":null,"suffdir":null,"city":"LAS VEGAS","state_code":"NV","zip5":"89107","latitude":"36.1600190000000000","longitude":"-115.20561200000000","publicwifi":"U","url":null,"broadband_type_id":6}
{"id":null,"anchorname":"BLUE NOTE PARTNERS LLC","address":"916 S VALLEY VIEW BLVD LAS VEGAS, NV 89107","bldgnbr":"916","predir":null,"streetname":"S VALLEY VIEW BLVD","streettype":null,"suffdir":null,"city":"LAS VEGAS","state_code":"NV","zip5":"89107","latitude":"36.1611280000000000","longitude":"-115.19252000000000","publicwifi":"U","url":null,"broadband_type_id":null}
{"id":null,"anchorname":"THE VON'S COMPANIES INC","address":"390 S DECATUR BLVD LAS VEGAS, NV 89107","bldgnbr":"390","predir":null,"streetname":"S DECATUR BLVD","streettype":null,"suffdir":null,"city":"LAS VEGAS","state_code":"NV","zip5":"89107","latitude":"36.1684150000000000","longitude":"-115.20613600000000","publicwifi":"U","url":null,"broadband_type_id":6}
{"id":null,"anchorname":"MARIA PILAR A. FAYLONA, M.D. PC","address":"4200 W CHARLESTON BLVD LAS VEGAS, NV 89102","bldgnbr":"4200","predir":null,"streetname":"W CHARLESTON BLVD","streettype":null,"suffdir":null,"city":"LAS VEGAS","state_code":"NV","zip5":"89102","latitude":"36.1592640000000000","longitude":"-115.19755300000000","publicwifi":"U","url":null,"broadband_type_id":null}
{"id":null,"anchorname":"LIN \u0026 LIN CHIROPRACTIC INC","address":"4528 W CHARLESTON BLVD LAS VEGAS, NV 89102","bldgnbr":"4528","predir":null,"streetname":"W CHARLESTON BLVD","streettype":null,"suffdir":null,"city":"LAS VEGAS","state_code":"NV","zip5":"89102","latitude":"36.1593350000000000","longitude":"-115.20303000000000","publicwifi":"U","url":null,"broadband_type_id":null}
{"id":null,"anchorname":"O \u0026 P CUSTOM, LLC","address":"939 S DECATUR BLVD LAS VEGAS, NV 89107","bldgnbr":"939","predir":null,"streetname":"S DECATUR BLVD","streettype":null,"suffdir":null,"city":"LAS VEGAS","state_code":"NV","zip5":"89107","latitude":"36.1600190000000000","longitude":"-115.20561200000000","publicwifi":"U","url":null,"broadband_type_id":null}
{"id":null,"anchorname":"ROBERT J COMEAU MD LTD","address":"917 SOUTH DECATUR BLVD LAS VEGAS, NV 89107","bldgnbr":"917","predir":null,"streetname":"SOUTH DECATUR BLVD","streettype":null,"suffdir":null,"city":"LAS VEGAS","state_code":"NV","zip5":"89107","latitude":"36.1610570000000000","longitude":"-115.20550300000000","publicwifi":"U","url":null,"broadband_type_id":null}
{"id":null,"anchorname":"SUSAN HOFFERT PT PROFESSIONALS","address":"204 S JONES BLVD LAS VEGAS, NV 89107","bldgnbr":"204","predir":null,"streetname":"S JONES BLVD","streettype":null,"suffdir":null,"city":"LAS VEGAS","state_code":"NV","zip5":"89107","latitude":"36.1711680000000000","longitude":"-115.22380700000000","publicwifi":"U","url":null,"broadband_type_id":6}
{"id":null,"anchorname":"HEARING BY DESIGN","address":"150 S DECATUR BLVD LAS VEGAS, NV 89107","bldgnbr":"150","predir":null,"streetname":"S DECATUR BLVD","streettype":null,"suffdir":null,"city":"LAS VEGAS","state_code":"NV","zip5":"89107","latitude":"36.1721040000000000","longitude":"-115.20624100000000","publicwifi":"U","url":null,"broadband_type_id":6}
{"id":null,"anchorname":"PEARLE VISION INC","address":"506 S DECATUR BLVD STE A LAS VEGAS, NV 89107","bldgnbr":"506","predir":null,"streetname":"S DECATUR BLVD STE A","streettype":null,"suffdir":null,"city":"LAS VEGAS","state_code":"NV","zip5":"89107","latitude":"36.1656130000000000","longitude":"-115.20638200000000","publicwifi":"U","url":null,"broadband_type_id":6}
{"id":null,"anchorname":"ADVANCED HOUSE CALLS INC","address":"112 S JONES BLVD LAS VEGAS, NV 89107","bldgnbr":"112","predir":null,"streetname":"S JONES BLVD","streettype":null,"suffdir":null,"city":"LAS VEGAS","state_code":"NV","zip5":"89107","latitude":"36.1718990000000000","longitude":"-115.22382900000000","publicwifi":"U","url":null,"broadband_type_id":null}
{"id":null,"anchorname":"THE LOVAAS CENTER FOR BEHAVIOR INTERVENTION","address":"112 SOUTH JONES BLVD. LAS VEGAS, NV 89107","bldgnbr":"112","predir":null,"streetname":"SOUTH JONES BLVD.","streettype":null,"suffdir":null,"city":"LAS VEGAS","state_code":"NV","zip5":"89107","latitude":"36.1718860000000000","longitude":"-115.22370800000000","publicwifi":"U","url":null,"broadband_type_id":null}
{"id":null,"anchorname":"BABY BOOMERS ACTIVITIES CLUB, LLC","address":"850 S JONES BLVD LAS VEGAS, NV 89107","bldgnbr":"850","predir":null,"streetname":"S JONES BLVD","streettype":null,"suffdir":null,"city":"LAS VEGAS","state_code":"NV","zip5":"89107","latitude":"36.1622220000000000","longitude":"-115.22371900000000","publicwifi":"U","url":null,"broadband_type_id":6}
{"id":null,"anchorname":"CHER Y. CHANG, DMD, P.C.","address":"550 S DECATUR BLVD LAS VEGAS, NV 89107","bldgnbr":"550","predir":null,"streetname":"S DECATUR BLVD","streettype":null,"suffdir":null,"city":"LAS VEGAS","state_code":"NV","zip5":"89107","latitude":"36.1650740000000000","longitude":"-115.20795400000000","publicwifi":"U","url":null,"broadband_type_id":null}
{"id":null,"anchorname":"DISABLED AMERICAN VETERANS (DAV) - SOUTHERN NEVADA","address":"4800 ALPINE PLACE LAS VEGAS, NV 89107","bldgnbr":"4800","predir":null,"streetname":"ALPINE PLACE","streettype":null,"suffdir":null,"city":"LAS VEGAS","state_code":"NV","zip5":"89107","latitude":"36.1602930000000000","longitude":"-115.20645900000000","publicwifi":"U","url":null,"broadband_type_id":6}
{"id":null,"anchorname":"NEVADA PARALYZED VETERANS OF AMERICA (NVPVA)","address":"704 S. JONES BLVD LAS VEGAS, NV 89107","bldgnbr":"704","predir":null,"streetname":"S. JONES BLVD","streettype":null,"suffdir":null,"city":"LAS VEGAS","state_code":"NV","zip5":"89107","latitude":"36.1639990000000000","longitude":"-115.22351000000000","publicwifi":"U","url":null,"broadband_type_id":null}
{"id":null,"anchorname":"SARTINI PLAZA","address":"900 BRUSH STREET LAS VEGAS, NV 89107","bldgnbr":"900","predir":null,"streetname":"BRUSH STREET","streettype":null,"suffdir":null,"city":"LAS VEGAS","state_code":"NV","zip5":"89107","latitude":"36.1601410000000000","longitude":"-115.21031700000000","publicwifi":"U","url":null,"broadband_type_id":null}
{"id":null,"anchorname":"UNIVERSAL CHIROPRACTIC, INC.","address":"5900 W CHARLESTON BLVD STE 2 LAS VEGAS, NV 89146","bldgnbr":"5900","predir":null,"streetname":"W CHARLESTON BLVD STE 2","streettype":null,"suffdir":null,"city":"LAS VEGAS","state_code":"NV","zip5":"89146","latitude":"36.1597030000000000","longitude":"-115.22222600000000","publicwifi":"U","url":null,"broadband_type_id":null}
{"id":null,"anchorname":"SAMUEL AUERBACH MD LTD","address":"913 MOHAWK ST LAS VEGAS, NV 89107","bldgnbr":"913","predir":null,"streetname":"MOHAWK ST","streettype":null,"suffdir":null,"city":"LAS VEGAS","state_code":"NV","zip5":"89107","latitude":"36.1614090000000000","longitude":"-115.21450300000000","publicwifi":"U","url":null,"broadband_type_id":null}
{"id":null,"anchorname":"SPECIAL EMPLOYMENT SERVICES, INC.","address":"5726 W CHARLESTON BLVD LAS VEGAS, NV 89146","bldgnbr":"5726","predir":null,"streetname":"W CHARLESTON BLVD","streettype":null,"suffdir":null,"city":"LAS VEGAS","state_code":"NV","zip5":"89146","latitude":"36.1592640000000000","longitude":"-115.22000400000000","publicwifi":"U","url":null,"broadband_type_id":6}
{"id":null,"anchorname":"HABITAT FOR HUMANITY LAS VEGAS","address":"1573 N. DECATUR BLVD. LAS VEGAS, NV 89108","bldgnbr":"1573","predir":null,"streetname":"N. DECATUR BLVD.","streettype":null,"suffdir":null,"city":"LAS VEGAS","state_code":"NV","zip5":"89108","latitude":"36.1878610000000000","longitude":"-115.20628800000000","publicwifi":"U","url":null,"broadband_type_id":null}
{"id":null,"anchorname":"HOPE HOUSE, INC.","address":"1401 N. DECATUR BLVD LAS VEGAS, NV 89108","bldgnbr":"1401","predir":null,"streetname":"N. DECATUR BLVD","streettype":null,"suffdir":null,"city":"LAS VEGAS","state_code":"NV","zip5":"89108","latitude":"36.1855730000000000","longitude":"-115.20757400000000","publicwifi":"U","url":null,"broadband_type_id":null}
{"id":null,"anchorname":"NAR-ANON","address":"1401 N. DECATUR BLVD LAS VEGAS, NV 89108","bldgnbr":"1401","predir":null,"streetname":"N. DECATUR BLVD","streettype":null,"suffdir":null,"city":"LAS VEGAS","state_code":"NV","zip5":"89108","latitude":"36.1855730000000000","longitude":"-115.20757400000000","publicwifi":"U","url":null,"broadband_type_id":null}
{"id":null,"anchorname":"NEW VISTA COMMUNITY","address":"5220 W. CHARLESTON BLVD. LAS VEGAS, NV 89146","bldgnbr":"5220","predir":null,"streetname":"W. CHARLESTON BLVD.","streettype":null,"suffdir":null,"city":"LAS VEGAS","state_code":"NV","zip5":"89146","latitude":"36.1596010000000000","longitude":"-115.21262800000000","publicwifi":"U","url":null,"broadband_type_id":6}
{"id":null,"anchorname":"OPTION CARE NEVADA, LLC","address":"3900 W CHARLESTON BLVD LAS VEGAS, NV 89102","bldgnbr":"3900","predir":null,"streetname":"W CHARLESTON BLVD","streettype":null,"suffdir":null,"city":"LAS VEGAS","state_code":"NV","zip5":"89102","latitude":"36.1595310000000000","longitude":"-115.19339300000000","publicwifi":"U","url":null,"broadband_type_id":3}
{"id":null,"anchorname":"FAMILY EYE CARE CENTER INC","address":"819 S DECATUR BLVD LAS VEGAS, NV 89107","bldgnbr":"819","predir":null,"streetname":"S DECATUR BLVD","streettype":null,"suffdir":null,"city":"LAS VEGAS","state_code":"NV","zip5":"89107","latitude":"36.1617250000000000","longitude":"-115.20569400000000","publicwifi":"U","url":null,"broadband_type_id":3}
{"id":null,"anchorname":"ADL HOME CARE","address":"5028 ALTA DR LAS VEGAS, NV 89107","bldgnbr":"5028","predir":null,"streetname":"ALTA DR","streettype":null,"suffdir":null,"city":"LAS VEGAS","state_code":"NV","zip5":"89107","latitude":"36.1661850000000000","longitude":"-115.21040900000000","publicwifi":"U","url":null,"broadband_type_id":3}
{"id":null,"anchorname":"VEGAS VALLEY PERSONAL CARE","address":"5016 ALTA DR LAS VEGAS, NV 89107","bldgnbr":"5016","predir":null,"streetname":"ALTA DR","streettype":null,"suffdir":null,"city":"LAS VEGAS","state_code":"NV","zip5":"89107","latitude":"36.1661710000000000","longitude":"-115.20959700000000","publicwifi":"U","url":null,"broadband_type_id":3}
{"id":null,"anchorname":"GREATER VEGAS PERSONAL CARE","address":"336 S JONES BLVD LAS VEGAS, NV 89107","bldgnbr":"336","predir":null,"streetname":"S JONES BLVD","streettype":null,"suffdir":null,"city":"LAS VEGAS","state_code":"NV","zip5":"89107","latitude":"36.1687020000000000","longitude":"-115.22387300000000","publicwifi":"U","url":null,"broadband_type_id":3}
{"id":null,"anchorname":"RED ROCK ELEMENTARY SCHOOL","address":"408 UPLAND BOULEVARD LAS VEGAS, NV 89107","bldgnbr":"408","predir":null,"streetname":"UPLAND BOULEVARD","streettype":null,"suffdir":null,"city":"LAS VEGAS","state_code":"NV","zip5":"89107","latitude":"36.1676050000000000","longitude":"-115.21680100000000","publicwifi":"U","url":null,"broadband_type_id":6}
{"id":null,"anchorname":"AMIGO PERSONAL CARE","address":"5017 ALTA DR LAS VEGAS, NV 89107","bldgnbr":"5017","predir":null,"streetname":"ALTA DR","streettype":null,"suffdir":null,"city":"LAS VEGAS","state_code":"NV","zip5":"89107","latitude":"36.1657570000000000","longitude":"-115.20955700000000","publicwifi":"U","url":null,"broadband_type_id":3}
{"id":null,"anchorname":"JURANI LLC /DBA JURANI CLINIC","address":"633 N DECATUR BLVD LAS VEGAS, NV 89107","bldgnbr":"633","predir":null,"streetname":"N DECATUR BLVD","streettype":null,"suffdir":null,"city":"LAS VEGAS","state_code":"NV","zip5":"89107","latitude":"36.1795290000000000","longitude":"-115.20650100000000","publicwifi":"U","url":null,"broadband_type_id":3}
{"id":null,"anchorname":"VALLEY HEALTH SYSTEM LLC","address":"620 SHADOW LN LAS VEGAS, NV 89106","bldgnbr":"620","predir":null,"streetname":"SHADOW LN","streettype":null,"suffdir":null,"city":"LAS VEGAS","state_code":"NV","zip5":"89106","latitude":"36.1638570000000000","longitude":"-115.16546300000000","publicwifi":"U","url":null,"broadband_type_id":3}
{"id":null,"anchorname":"KENWOOD HIGH IB AND SPORTS SCIENCE","address":"501 STEMMERS RUN RD ESSEX MD 21221","bldgnbr":"501","predir":null,"streetname":"STEMMERS RUN","streettype":"RD","suffdir":null,"city":"ESSEX","state_code":"MD","zip5":"21221","latitude":"39.3259920000000000","longitude":"-76.461319000000000","publicwifi":"U","url":"HTTP://WWW.EDLINE.NET/PAGES/KENWOODHS","broadband_type_id":6}
{"id":null,"anchorname":"EMERGENCY SHELTER: ESSEX SENIOR CENTER","address":"600 DORSEY AVE ESSEX MD 21221","bldgnbr":"600","predir":null,"streetname":"DORSEY","streettype":"AVE","suffdir":null,"city":"ESSEX","state_code":"MD","zip5":"21221","latitude":"39.3102233620000000","longitude":"-76.474171319000000","publicwifi":"U","url":null,"broadband_type_id":6}
{"id":null,"anchorname":"UNITED LABOR AGENCY (ULAN)","address":"1201 N. DECATUR BLVD. SUITE 106 LAS VEGAS, NV 89108","bldgnbr":"1201","predir":null,"streetname":"N. DECATUR BLVD. SUITE 106","streettype":null,"suffdir":null,"city":"LAS VEGAS","state_code":"NV","zip5":"89108","latitude":"36.1845210000000000","longitude":"-115.20650400000000","publicwifi":"U","url":null,"broadband_type_id":null}
{"id":null,"anchorname":"WELFARE DIVISION OF WELFARE AND SUPPORTIVE SERVICES","address":"2500 W. WASHINGTON AVE LAS VEGAS, NV 89106","bldgnbr":"2500","predir":null,"streetname":"W. WASHINGTON AVE","streettype":null,"suffdir":null,"city":"LAS VEGAS","state_code":"NV","zip5":"89106","latitude":"36.1816160000000000","longitude":"-115.17583700000000","publicwifi":"U","url":null,"broadband_type_id":6}
{"id":null,"anchorname":"GOSHEN COMMUNITY DEVELOPMENT COALITION (COMMUNITY SERVICE PARTNER)","address":"2008 HAMILTON LANE LAS VEGAS, NV 89106","bldgnbr":"2008","predir":null,"streetname":"HAMILTON LANE","streettype":null,"suffdir":null,"city":"LAS VEGAS","state_code":"NV","zip5":"89106","latitude":"36.1654920000000000","longitude":"-115.16843600000000","publicwifi":"U","url":null,"broadband_type_id":1}
{"id":null,"anchorname":"SOUTHERN NEVADA CHILDREN FIRST","address":"2637 CHIN CACTUS CT LAS VEGAS, NV 89106","bldgnbr":"2637","predir":null,"streetname":"CHIN CACTUS CT","streettype":null,"suffdir":null,"city":"LAS VEGAS","state_code":"NV","zip5":"89106","latitude":"36.1822560000000000","longitude":"-115.17788200000000","publicwifi":"U","url":null,"broadband_type_id":null}
{"id":null,"anchorname":"CARTER HOUSE","address":"706 DIKE LAS VEGAS, NV 89101","bldgnbr":"706","predir":null,"streetname":"DIKE","streettype":null,"suffdir":null,"city":"LAS VEGAS","state_code":"NV","zip5":"89101","latitude":"36.1781090000000000","longitude":"-115.17330100000000","publicwifi":"U","url":null,"broadband_type_id":null}
{"id":null,"anchorname":"LAS VEGAS INDIAN CENTER","address":"2300 W. BONANZA RD. LAS VEGAS, NV 89106","bldgnbr":"2300","predir":null,"streetname":"W. BONANZA RD.","streettype":null,"suffdir":null,"city":"LAS VEGAS","state_code":"NV","zip5":"89106","latitude":"36.1778930000000000","longitude":"-115.17403800000000","publicwifi":"U","url":null,"broadband_type_id":null}
{"id":null,"anchorname":"FIRST CHRISTIAN CHURCH CHILD DEVELOPMENT CENTER","address":"101 S RANCHO DR LAS VEGAS, NV 89106","bldgnbr":"101","predir":null,"streetname":"S RANCHO DR","streettype":null,"suffdir":null,"city":"LAS VEGAS","state_code":"NV","zip5":"89106","latitude":"36.1729470000000000","longitude":"-115.17136700000000","publicwifi":"U","url":null,"broadband_type_id":6}
{"id":null,"anchorname":"WATER RESOURCES","address":"400 SHADOW LANE SUITE #202 AND 203 LAS VEGAS, NV 89106","bldgnbr":"400","predir":null,"streetname":"SHADOW LANE SUITE #202 AND 203","streettype":null,"suffdir":null,"city":"LAS VEGAS","state_code":"NV","zip5":"89106","latitude":"36.1669750000000000","longitude":"-115.16598900000000","publicwifi":"U","url":null,"broadband_type_id":6}
{"id":null,"anchorname":"SHRINERS OF LAS VEGAS - ZELZAH SHRINE CENTER","address":"2222 W. MESQUITE AVE. LAS VEGAS, NV 89106","bldgnbr":"2222","predir":null,"streetname":"W. MESQUITE AVE.","streettype":null,"suffdir":null,"city":"LAS VEGAS","state_code":"NV","zip5":"89106","latitude":"36.1734640000000000","longitude":"-115.17159800000000","publicwifi":"U","url":null,"broadband_type_id":null}
{"id":null,"anchorname":"HEMOPHILIA \u0026 THROMBOSIS CENTER OF NEVADA","address":"1524 PINTO LANE - UMC OUTPAT. LAS VEGAS, NV 89106","bldgnbr":"1524","predir":null,"streetname":"PINTO LANE - UMC OUTPAT.","streettype":null,"suffdir":null,"city":"LAS VEGAS","state_code":"NV","zip5":"89106","latitude":"36.1643550000000000","longitude":"-115.16160600000000","publicwifi":"U","url":null,"broadband_type_id":6}
{"id":null,"anchorname":"NEVADA TELERAD LLC","address":"334 BEAUMONT ST LAS VEGAS, NV 89106","bldgnbr":"334","predir":null,"streetname":"BEAUMONT ST","streettype":null,"suffdir":null,"city":"LAS VEGAS","state_code":"NV","zip5":"89106","latitude":"36.1683050000000000","longitude":"-115.16932300000000","publicwifi":"U","url":null,"broadband_type_id":null}
{"id":null,"anchorname":"PROSTHETIC CENTER OF EXCELLENCE","address":"400 SHADOW LN LAS VEGAS, NV 89106","bldgnbr":"400","predir":null,"streetname":"SHADOW LN","streettype":null,"suffdir":null,"city":"LAS VEGAS","state_code":"NV","zip5":"89106","latitude":"36.1669770000000000","longitude":"-115.16599000000000","publicwifi":"U","url":null,"broadband_type_id":null}
{"id":null,"anchorname":"ABC ACADEMY OF LEARNING","address":"501 S. TONOPAH DR. LAS VEGAS, NV 89106","bldgnbr":"501","predir":null,"streetname":"S. TONOPAH DR.","streettype":null,"suffdir":null,"city":"LAS VEGAS","state_code":"NV","zip5":"89106","latitude":"36.1658510000000000","longitude":"-115.16968600000000","publicwifi":"U","url":null,"broadband_type_id":6}
{"id":null,"anchorname":"DESERT VALLEY AUDIOLOGY","address":"501 S RANCHO DR STE D24 LAS VEGAS, NV 89106","bldgnbr":"501","predir":null,"streetname":"S RANCHO DR STE D24","streettype":null,"suffdir":null,"city":"LAS VEGAS","state_code":"NV","zip5":"89106","latitude":"36.1660800000000000","longitude":"-115.17248500000000","publicwifi":"U","url":null,"broadband_type_id":6}
{"id":null,"anchorname":"ALTA-ROSE SURGERY CENTER LLC","address":"501 ROSE ST LAS VEGAS, NV 89106","bldgnbr":"501","predir":null,"streetname":"ROSE ST","streettype":null,"suffdir":null,"city":"LAS VEGAS","state_code":"NV","zip5":"89106","latitude":"36.1659790000000000","longitude":"-115.16762800000000","publicwifi":"U","url":null,"broadband_type_id":null}
{"id":null,"anchorname":"KORD T. STREBEL, MD LLC","address":"1950 PINTO LN LAS VEGAS, NV 89106","bldgnbr":"1950","predir":null,"streetname":"PINTO LN","streettype":null,"suffdir":null,"city":"LAS VEGAS","state_code":"NV","zip5":"89106","latitude":"36.1644420000000000","longitude":"-115.16740900000000","publicwifi":"U","url":null,"broadband_type_id":null}
{"id":null,"anchorname":"ERNESTO A MCCOMBS CHARTERED","address":"501 S RANCHO DR LAS VEGAS, NV 89106","bldgnbr":"501","predir":null,"streetname":"S RANCHO DR","streettype":null,"suffdir":null,"city":"LAS VEGAS","state_code":"NV","zip5":"89106","latitude":"36.1660800000000000","longitude":"-115.17248500000000","publicwifi":"U","url":null,"broadband_type_id":6}
{"id":null,"anchorname":"HOPE COMMUNICATION \u0026 FEEDING SPECIALISTS","address":"501 S RANCHO DR LAS VEGAS, NV 89106","bldgnbr":"501","predir":null,"streetname":"S RANCHO DR","streettype":null,"suffdir":null,"city":"LAS VEGAS","state_code":"NV","zip5":"89106","latitude":"36.1660800000000000","longitude":"-115.17248500000000","publicwifi":"U","url":null,"broadband_type_id":6}
{"id":null,"anchorname":"EDDY H LUH MD PC","address":"501 S RANCHO DR LAS VEGAS, NV 89106","bldgnbr":"501","predir":null,"streetname":"S RANCHO DR","streettype":null,"suffdir":null,"city":"LAS VEGAS","state_code":"NV","zip5":"89106","latitude":"36.1660800000000000","longitude":"-115.17248500000000","publicwifi":"U","url":null,"broadband_type_id":null}
{"id":null,"anchorname":"ALTA ORAL SURGERY, LLC","address":"526 S TONOPAH DR LAS VEGAS, NV 89106","bldgnbr":"526","predir":null,"streetname":"S TONOPAH DR","streettype":null,"suffdir":null,"city":"LAS VEGAS","state_code":"NV","zip5":"89106","latitude":"36.1650670000000000","longitude":"-115.17004100000000","publicwifi":"U","url":null,"broadband_type_id":null}
{"id":null,"anchorname":"HANGER PROSTHETICS \u0026 ORTHOTICS, INC.","address":"526 S TONOPAH DR LAS VEGAS, NV 89106","bldgnbr":"526","predir":null,"streetname":"S TONOPAH DR","streettype":null,"suffdir":null,"city":"LAS VEGAS","state_code":"NV","zip5":"89106","latitude":"36.1650670000000000","longitude":"-115.17004100000000","publicwifi":"U","url":null,"broadband_type_id":null}
{"id":null,"anchorname":"HELGA FUENFHAUSEN PIZIO, MD, LTD","address":"501 S RANCHO DR STE G46 LAS VEGAS, NV 89106","bldgnbr":"501","predir":null,"streetname":"S RANCHO DR STE G46","streettype":null,"suffdir":null,"city":"LAS VEGAS","state_code":"NV","zip5":"89106","latitude":"36.1660800000000000","longitude":"-115.17248500000000","publicwifi":"U","url":null,"broadband_type_id":null}
{"id":null,"anchorname":"CALVIN HS","address":"229 3rd Street","bldgnbr":"229","predir":null,"streetname":"3rd","streettype":"St","suffdir":null,"city":"Calvin","state_code":"OK","zip5":"74531","latitude":"34.9665902000000000","longitude":"-96.247934900000000","publicwifi":"U","url":null,"broadband_type_id":6}
{"id":null,"anchorname":"JABBERJAWS PEDIATRIC SPEECH PATHOLOGY","address":"501 S RANCHO DR LAS VEGAS, NV 89106","bldgnbr":"501","predir":null,"streetname":"S RANCHO DR","streettype":null,"suffdir":null,"city":"LAS VEGAS","state_code":"NV","zip5":"89106","latitude":"36.1660800000000000","longitude":"-115.17248500000000","publicwifi":"U","url":null,"broadband_type_id":null}
{"id":null,"anchorname":"JEFFREY K AUSTIN OD LTD","address":"501 S RANCHO DR LAS VEGAS, NV 89106","bldgnbr":"501","predir":null,"streetname":"S RANCHO DR","streettype":null,"suffdir":null,"city":"LAS VEGAS","state_code":"NV","zip5":"89106","latitude":"36.1660800000000000","longitude":"-115.17248500000000","publicwifi":"U","url":null,"broadband_type_id":null}
{"id":null,"anchorname":"J SHERMAN TATE MD LTD","address":"501 SOUTH RANCHO DRIVE LAS VEGAS, NV 89106","bldgnbr":"501","predir":null,"streetname":"SOUTH RANCHO DRIVE","streettype":null,"suffdir":null,"city":"LAS VEGAS","state_code":"NV","zip5":"89106","latitude":"36.1660800000000000","longitude":"-115.17248500000000","publicwifi":"U","url":null,"broadband_type_id":null}
{"id":null,"anchorname":"ACCESSIBLE HEALTHCARE, LLC","address":"704 N JONES BLVD LAS VEGAS, NV 89107","bldgnbr":"704","predir":null,"streetname":"N JONES BLVD","streettype":null,"suffdir":null,"city":"LAS VEGAS","state_code":"NV","zip5":"89107","latitude":"36.1795980000000000","longitude":"-115.22358400000000","publicwifi":"U","url":null,"broadband_type_id":3}
{"id":null,"anchorname":"DOYNE MEDICAL CLINIC INC.","address":"1706 W BONANZA RD LAS VEGAS, NV 89106","bldgnbr":"1706","predir":null,"streetname":"W BONANZA RD","streettype":null,"suffdir":null,"city":"LAS VEGAS","state_code":"NV","zip5":"89106","latitude":"36.1776570000000000","longitude":"-115.16235400000000","publicwifi":"U","url":null,"broadband_type_id":3}
{"id":null,"anchorname":"MABEL HOGGARD ELEMENTARY SCHOOL","address":"950 NORTH TONOPAH DRIVE LAS VEGAS, NV 89106","bldgnbr":"950","predir":null,"streetname":"NORTH TONOPAH DRIVE","streettype":null,"suffdir":null,"city":"LAS VEGAS","state_code":"NV","zip5":"89106","latitude":"36.1828390000000000","longitude":"-115.16921800000000","publicwifi":"U","url":null,"broadband_type_id":6}
{"id":null,"anchorname":"NEVADA HEALTH CENTERS, INC.","address":"400 SHADOW LN LAS VEGAS, NV 89106","bldgnbr":"400","predir":null,"streetname":"SHADOW LN","streettype":null,"suffdir":null,"city":"LAS VEGAS","state_code":"NV","zip5":"89106","latitude":"36.1669770000000000","longitude":"-115.16599000000000","publicwifi":"U","url":null,"broadband_type_id":3}
{"id":null,"anchorname":"IMAGINATION PLUS CHILD CARE CENTER","address":"1617 ALTA DR LAS VEGAS, NV 89106","bldgnbr":"1617","predir":null,"streetname":"ALTA DR","streettype":null,"suffdir":null,"city":"LAS VEGAS","state_code":"NV","zip5":"89106","latitude":"36.1659320000000000","longitude":"-115.16271600000000","publicwifi":"U","url":null,"broadband_type_id":3}
{"id":null,"anchorname":"EYE CARE ASSOCIATES OF NEVADA LAS VEGAS, INC","address":"501 ROSE ST LAS VEGAS, NV 89106","bldgnbr":"501","predir":null,"streetname":"ROSE ST","streettype":null,"suffdir":null,"city":"LAS VEGAS","state_code":"NV","zip5":"89106","latitude":"36.1659790000000000","longitude":"-115.16762800000000","publicwifi":"U","url":null,"broadband_type_id":3}
{"id":null,"anchorname":"DIVINE HEALTH PRODUCTS","address":"501 S RANCHO DR LAS VEGAS, NV 89106","bldgnbr":"501","predir":null,"streetname":"S RANCHO DR","streettype":null,"suffdir":null,"city":"LAS VEGAS","state_code":"NV","zip5":"89106","latitude":"36.1660800000000000","longitude":"-115.17248500000000","publicwifi":"U","url":null,"broadband_type_id":3}
{"id":null,"anchorname":"INTEGRITY HOME HEALTH CARE INC","address":"501 S RANCHO DR LAS VEGAS, NV 89106","bldgnbr":"501","predir":null,"streetname":"S RANCHO DR","streettype":null,"suffdir":null,"city":"LAS VEGAS","state_code":"NV","zip5":"89106","latitude":"36.1660800000000000","longitude":"-115.17248500000000","publicwifi":"U","url":null,"broadband_type_id":3}
{"id":null,"anchorname":"L.F. MORTILLARO, PH.D., LTD","address":"501 S RANCHO DR LAS VEGAS, NV 89106","bldgnbr":"501","predir":null,"streetname":"S RANCHO DR","streettype":null,"suffdir":null,"city":"LAS VEGAS","state_code":"NV","zip5":"89106","latitude":"36.1660800000000000","longitude":"-115.17248500000000","publicwifi":"U","url":null,"broadband_type_id":null}
{"id":null,"anchorname":"LAS VEGAS NEUROSURGERY ORTHOPAEDICS AND REHABILITATION LLP","address":"501 S RANCHO DR LAS VEGAS, NV 89106","bldgnbr":"501","predir":null,"streetname":"S RANCHO DR","streettype":null,"suffdir":null,"city":"LAS VEGAS","state_code":"NV","zip5":"89106","latitude":"36.1660800000000000","longitude":"-115.17248500000000","publicwifi":"U","url":null,"broadband_type_id":null}
{"id":null,"anchorname":"SAINT CLARE PARISH OUTREACH","address":"714 MRYTH AVE ESSEX MD 21221","bldgnbr":"714","predir":null,"streetname":"MRYTH","streettype":"AVE","suffdir":null,"city":"ESSEX","state_code":"MD","zip5":"21221","latitude":"39.3061080000000000","longitude":"-76.434734000000000","publicwifi":"U","url":null,"broadband_type_id":6}
{"id":null,"anchorname":"COMMUNITY ASSISTANCE NETWORK, COLGATE","address":"7900 E BALTIMORE ST BALTIMORE MD 21224","bldgnbr":"7900","predir":"E","streetname":"BALTIMORE","streettype":"ST","suffdir":null,"city":"BALTIMORE","state_code":"MD","zip5":"21224","latitude":"39.2992770000000000","longitude":"-76.514291000000000","publicwifi":"U","url":null,"broadband_type_id":6}
{"id":null,"anchorname":"SHIODE PSYCHOTHERAPY, INC.","address":"501 S. RANCHO DR. LAS VEGAS, NV 89106","bldgnbr":"501","predir":null,"streetname":"S. RANCHO DR.","streettype":null,"suffdir":null,"city":"LAS VEGAS","state_code":"NV","zip5":"89106","latitude":"36.1660800000000000","longitude":"-115.17248500000000","publicwifi":"U","url":null,"broadband_type_id":3}
{"id":null,"anchorname":"CHRISTOPHER A. MINOTT, MD, LTD","address":"501 S RANCHO DR LAS VEGAS, NV 89106","bldgnbr":"501","predir":null,"streetname":"S RANCHO DR","streettype":null,"suffdir":null,"city":"LAS VEGAS","state_code":"NV","zip5":"89106","latitude":"36.1660800000000000","longitude":"-115.17248500000000","publicwifi":"U","url":null,"broadband_type_id":6}
{"id":null,"anchorname":"ORTHOPEDIC MOTION, INC","address":"501 S RANCHO DR LAS VEGAS, NV 89106","bldgnbr":"501","predir":null,"streetname":"S RANCHO DR","streettype":null,"suffdir":null,"city":"LAS VEGAS","state_code":"NV","zip5":"89106","latitude":"36.1660800000000000","longitude":"-115.17248500000000","publicwifi":"U","url":null,"broadband_type_id":null}
{"id":null,"anchorname":"RONALD G KONG MD PC","address":"501 S RANCHO DR LAS VEGAS, NV 89106","bldgnbr":"501","predir":null,"streetname":"S RANCHO DR","streettype":null,"suffdir":null,"city":"LAS VEGAS","state_code":"NV","zip5":"89106","latitude":"36.1660800000000000","longitude":"-115.17248500000000","publicwifi":"U","url":null,"broadband_type_id":null}
{"id":null,"anchorname":"SOFRONIO SORIANO MD PC","address":"501 S RANCHO DR LAS VEGAS, NV 89106","bldgnbr":"501","predir":null,"streetname":"S RANCHO DR","streettype":null,"suffdir":null,"city":"LAS VEGAS","state_code":"NV","zip5":"89106","latitude":"36.1660800000000000","longitude":"-115.17248500000000","publicwifi":"U","url":null,"broadband_type_id":null}
{"id":null,"anchorname":"VASANA CHEANVECHAI MD LTD","address":"501 S RANCHO DR LAS VEGAS, NV 89106","bldgnbr":"501","predir":null,"streetname":"S RANCHO DR","streettype":null,"suffdir":null,"city":"LAS VEGAS","state_code":"NV","zip5":"89106","latitude":"36.1660800000000000","longitude":"-115.17248500000000","publicwifi":"U","url":null,"broadband_type_id":null}
{"id":null,"anchorname":"BREATHING CENTER OF NEVADA","address":"501 S RANCHO DR LAS VEGAS, NV 89106","bldgnbr":"501","predir":null,"streetname":"S RANCHO DR","streettype":null,"suffdir":null,"city":"LAS VEGAS","state_code":"NV","zip5":"89106","latitude":"36.1660800000000000","longitude":"-115.17248500000000","publicwifi":"U","url":null,"broadband_type_id":null}
{"id":null,"anchorname":"EMMANUEL OKECHUKWU MD PC","address":"620 SHADOW LN LAS VEGAS, NV 89106","bldgnbr":"620","predir":null,"streetname":"SHADOW LN","streettype":null,"suffdir":null,"city":"LAS VEGAS","state_code":"NV","zip5":"89106","latitude":"36.1638570000000000","longitude":"-115.16546300000000","publicwifi":"U","url":null,"broadband_type_id":null}
{"id":null,"anchorname":"ENDOSCOPY CENTER OF SOUTHERN NEVADA, LLC","address":"700 SHADOW LN LAS VEGAS, NV 89106","bldgnbr":"700","predir":null,"streetname":"SHADOW LN","streettype":null,"suffdir":null,"city":"LAS VEGAS","state_code":"NV","zip5":"89106","latitude":"36.1622550000000000","longitude":"-115.16565000000000","publicwifi":"U","url":null,"broadband_type_id":null}
{"id":null,"anchorname":"ALAN J. SACKS, M.D., PC","address":"2020 GOLDRING AVE LAS VEGAS, NV 89106","bldgnbr":"2020","predir":null,"streetname":"GOLDRING AVE","streettype":null,"suffdir":null,"city":"LAS VEGAS","state_code":"NV","zip5":"89106","latitude":"36.1618010000000000","longitude":"-115.16882300000000","publicwifi":"U","url":null,"broadband_type_id":null}
{"id":null,"anchorname":"EAR, NOSE \u0026 THROAT ASSOCIATES","address":"700 SHADOW LN LAS VEGAS, NV 89106","bldgnbr":"700","predir":null,"streetname":"SHADOW LN","streettype":null,"suffdir":null,"city":"LAS VEGAS","state_code":"NV","zip5":"89106","latitude":"36.1622550000000000","longitude":"-115.16565000000000","publicwifi":"U","url":null,"broadband_type_id":6}
{"id":null,"anchorname":"FRANK J DELEE MD","address":"700 SHADOW LN LAS VEGAS, NV 89106","bldgnbr":"700","predir":null,"streetname":"SHADOW LN","streettype":null,"suffdir":null,"city":"LAS VEGAS","state_code":"NV","zip5":"89106","latitude":"36.1622550000000000","longitude":"-115.16565000000000","publicwifi":"U","url":null,"broadband_type_id":null}
{"id":null,"anchorname":"GLORIA L MARTIN MD LTD","address":"2010 GOLDRING AVE LAS VEGAS, NV 89106","bldgnbr":"2010","predir":null,"streetname":"GOLDRING AVE","streettype":null,"suffdir":null,"city":"LAS VEGAS","state_code":"NV","zip5":"89106","latitude":"36.1616300000000000","longitude":"-115.16830900000000","publicwifi":"U","url":null,"broadband_type_id":null}
{"id":null,"anchorname":"G MARK SYLVAIN MD CHTD","address":"701 S TONOPAH DR LAS VEGAS, NV 89106","bldgnbr":"701","predir":null,"streetname":"S TONOPAH DR","streettype":null,"suffdir":null,"city":"LAS VEGAS","state_code":"NV","zip5":"89106","latitude":"36.1624950000000000","longitude":"-115.16995100000000","publicwifi":"U","url":null,"broadband_type_id":null}
{"id":null,"anchorname":"JOHN J. DUDEK JR. M.D. PC","address":"2020 GOLDRING AVE LAS VEGAS, NV 89106","bldgnbr":"2020","predir":null,"streetname":"GOLDRING AVE","streettype":null,"suffdir":null,"city":"LAS VEGAS","state_code":"NV","zip5":"89106","latitude":"36.1618010000000000","longitude":"-115.16882300000000","publicwifi":"U","url":null,"broadband_type_id":null}
{"id":null,"anchorname":"MARK T HOEPFNER, MD - SURGEONS CHTD","address":"700 SHADOW LN LAS VEGAS, NV 89106","bldgnbr":"700","predir":null,"streetname":"SHADOW LN","streettype":null,"suffdir":null,"city":"LAS VEGAS","state_code":"NV","zip5":"89106","latitude":"36.1622550000000000","longitude":"-115.16565000000000","publicwifi":"U","url":null,"broadband_type_id":null}
{"id":null,"anchorname":"AFSHIN Y DOUST MD A PROFESSIONAL CORPORATION","address":"2020 GOLDRING AVE LAS VEGAS, NV 89106","bldgnbr":"2020","predir":null,"streetname":"GOLDRING AVE","streettype":null,"suffdir":null,"city":"LAS VEGAS","state_code":"NV","zip5":"89106","latitude":"36.1618010000000000","longitude":"-115.16882300000000","publicwifi":"U","url":null,"broadband_type_id":6}
{"id":null,"anchorname":"GENERAL SURGERY ASSOCIATES","address":"700 SHADOW LN LAS VEGAS, NV 89106","bldgnbr":"700","predir":null,"streetname":"SHADOW LN","streettype":null,"suffdir":null,"city":"LAS VEGAS","state_code":"NV","zip5":"89106","latitude":"36.1622550000000000","longitude":"-115.16565000000000","publicwifi":"U","url":null,"broadband_type_id":6}
{"id":null,"anchorname":"RICARDO VELAZQUEZ MD PLLC","address":"2020 GOLDRING AVE STE 203 LAS VEGAS, NV 89106","bldgnbr":"2020","predir":null,"streetname":"GOLDRING AVE STE 203","streettype":null,"suffdir":null,"city":"LAS VEGAS","state_code":"NV","zip5":"89106","latitude":"36.1618010000000000","longitude":"-115.16882300000000","publicwifi":"U","url":null,"broadband_type_id":null}
{"id":null,"anchorname":"SHADOW EMERGENCY PHYSICIANS","address":"620 SHADOW LN LAS VEGAS, NV 89106","bldgnbr":"620","predir":null,"streetname":"SHADOW LN","streettype":null,"suffdir":null,"city":"LAS VEGAS","state_code":"NV","zip5":"89106","latitude":"36.1638570000000000","longitude":"-115.16546300000000","publicwifi":"U","url":null,"broadband_type_id":null}
{"id":null,"anchorname":"SPOON, BARTHOLOMEW, \u0026 BOYD APC","address":"2010 GOLDRING AVE LAS VEGAS, NV 89106","bldgnbr":"2010","predir":null,"streetname":"GOLDRING AVE","streettype":null,"suffdir":null,"city":"LAS VEGAS","state_code":"NV","zip5":"89106","latitude":"36.1616300000000000","longitude":"-115.16830900000000","publicwifi":"U","url":null,"broadband_type_id":null}
{"id":null,"anchorname":"SYED AHMED MD LTD","address":"700 SHADOW LN LAS VEGAS, NV 89106","bldgnbr":"700","predir":null,"streetname":"SHADOW LN","streettype":null,"suffdir":null,"city":"LAS VEGAS","state_code":"NV","zip5":"89106","latitude":"36.1622550000000000","longitude":"-115.16565000000000","publicwifi":"U","url":null,"broadband_type_id":null}
{"id":null,"anchorname":"THEODORE POTRUCH MD LTD PC","address":"2020 GOLDRING AVE LAS VEGAS, NV 89106","bldgnbr":"2020","predir":null,"streetname":"GOLDRING AVE","streettype":null,"suffdir":null,"city":"LAS VEGAS","state_code":"NV","zip5":"89106","latitude":"36.1618010000000000","longitude":"-115.16882300000000","publicwifi":"U","url":null,"broadband_type_id":null}
{"id":null,"anchorname":"LAMBERT CARDIOLOGY SPECIALIST OF NV","address":"2010 GOLDRING AVE LAS VEGAS, NV 89106","bldgnbr":"2010","predir":null,"streetname":"GOLDRING AVE","streettype":null,"suffdir":null,"city":"LAS VEGAS","state_code":"NV","zip5":"89106","latitude":"36.1616300000000000","longitude":"-115.16830900000000","publicwifi":"U","url":null,"broadband_type_id":6}
{"id":null,"anchorname":"NEVADA ASSOCIATION OF CRITICAL CARE SURGEONS, LTD","address":"501 S RANCHO DR LAS VEGAS, NV 89106","bldgnbr":"501","predir":null,"streetname":"S RANCHO DR","streettype":null,"suffdir":null,"city":"LAS VEGAS","state_code":"NV","zip5":"89106","latitude":"36.1660800000000000","longitude":"-115.17248500000000","publicwifi":"U","url":null,"broadband_type_id":3}
{"id":null,"anchorname":"NEVADA HOME HEALTH PROVIDERS, INC.","address":"501 S RANCHO DR LAS VEGAS, NV 89106","bldgnbr":"501","predir":null,"streetname":"S RANCHO DR","streettype":null,"suffdir":null,"city":"LAS VEGAS","state_code":"NV","zip5":"89106","latitude":"36.1660800000000000","longitude":"-115.17248500000000","publicwifi":"U","url":null,"broadband_type_id":3}
{"id":null,"anchorname":"ALEXANDER R. SPARKUHL, M.D. \u0026 RANJIT JAIN, M.D. LTD UROLOGY ASSOCIATES","address":"700 SHADOW LN LAS VEGAS, NV 89106","bldgnbr":"700","predir":null,"streetname":"SHADOW LN","streettype":null,"suffdir":null,"city":"LAS VEGAS","state_code":"NV","zip5":"89106","latitude":"36.1622550000000000","longitude":"-115.16565000000000","publicwifi":"U","url":null,"broadband_type_id":2}
{"id":null,"anchorname":"MOHAMED MEDICAL PC","address":"2020 GOLDRING AVE STE 203 LAS VEGAS, NV 89106","bldgnbr":"2020","predir":null,"streetname":"GOLDRING AVE STE 203","streettype":null,"suffdir":null,"city":"LAS VEGAS","state_code":"NV","zip5":"89106","latitude":"36.1618010000000000","longitude":"-115.16882300000000","publicwifi":"U","url":null,"broadband_type_id":3}
{"id":null,"anchorname":"NEVADA EM-I SILVER-HOMANSKY MEDICAL SERVICES PROFESSIONAL CORPORATION","address":"620 SHADOW LN LAS VEGAS, NV 89106","bldgnbr":"620","predir":null,"streetname":"SHADOW LN","streettype":null,"suffdir":null,"city":"LAS VEGAS","state_code":"NV","zip5":"89106","latitude":"36.1638570000000000","longitude":"-115.16546300000000","publicwifi":"U","url":null,"broadband_type_id":3}
{"id":null,"anchorname":"MAURICE D GREGORY JR M D A PROFESSIONAL CORPORATION","address":"2020 GOLDRING AVE LAS VEGAS, NV 89106","bldgnbr":"2020","predir":null,"streetname":"GOLDRING AVE","streettype":null,"suffdir":null,"city":"LAS VEGAS","state_code":"NV","zip5":"89106","latitude":"36.1618010000000000","longitude":"-115.16882300000000","publicwifi":"U","url":null,"broadband_type_id":6}
{"id":null,"anchorname":"MILNE AND MCKENZIE ASSOCIATES LTD","address":"2010 GOLDRING AVE LAS VEGAS, NV 89106","bldgnbr":"2010","predir":null,"streetname":"GOLDRING AVE","streettype":null,"suffdir":null,"city":"LAS VEGAS","state_code":"NV","zip5":"89106","latitude":"36.1616300000000000","longitude":"-115.16830900000000","publicwifi":"U","url":null,"broadband_type_id":6}
{"id":null,"anchorname":"PULMONARY ASSOCIATES INC","address":"2000 GOLDRING AVE LAS VEGAS, NV 89106","bldgnbr":"2000","predir":null,"streetname":"GOLDRING AVE","streettype":null,"suffdir":null,"city":"LAS VEGAS","state_code":"NV","zip5":"89106","latitude":"36.1617790000000000","longitude":"-115.16812900000000","publicwifi":"U","url":null,"broadband_type_id":6}
{"id":null,"anchorname":"ALLIANCE, BALTIMORE COUNTY","address":"9201 PHILADELPHIA RD ROSEDALE MD 21237","bldgnbr":"9201","predir":null,"streetname":"PHILADELPHIA","streettype":"RD","suffdir":null,"city":"ROSEDALE","state_code":"MD","zip5":"21237","latitude":"39.3492020000000000","longitude":"-76.469821000000000","publicwifi":"U","url":null,"broadband_type_id":1}
{"id":null,"anchorname":"VENKAT VEERAPPAN MD PC","address":"2020 GOLDRING AVE STE 202 LAS VEGAS, NV 89106","bldgnbr":"2020","predir":null,"streetname":"GOLDRING AVE STE 202","streettype":null,"suffdir":null,"city":"LAS VEGAS","state_code":"NV","zip5":"89106","latitude":"36.1618010000000000","longitude":"-115.16882300000000","publicwifi":"U","url":null,"broadband_type_id":null}
{"id":null,"anchorname":"MML PHYSICAL THERAPY GROUP","address":"801 S RANCHO DR LAS VEGAS, NV 89106","bldgnbr":"801","predir":null,"streetname":"S RANCHO DR","streettype":null,"suffdir":null,"city":"LAS VEGAS","state_code":"NV","zip5":"89106","latitude":"36.1612130000000000","longitude":"-115.17123500000000","publicwifi":"U","url":null,"broadband_type_id":3}
{"id":null,"anchorname":"ACADEMY OF HEALING ARTS","address":"710 S TONOPAH DR LAS VEGAS, NV 89106","bldgnbr":"710","predir":null,"streetname":"S TONOPAH DR","streettype":null,"suffdir":null,"city":"LAS VEGAS","state_code":"NV","zip5":"89106","latitude":"36.1618430000000000","longitude":"-115.17027400000000","publicwifi":"U","url":null,"broadband_type_id":6}
{"id":null,"anchorname":"IRIYE AND ADASHEK CHARTERED","address":"2011 PINTO LN LAS VEGAS, NV 89106","bldgnbr":"2011","predir":null,"streetname":"PINTO LN","streettype":null,"suffdir":null,"city":"LAS VEGAS","state_code":"NV","zip5":"89106","latitude":"36.1638290000000000","longitude":"-115.16856100000000","publicwifi":"U","url":null,"broadband_type_id":null}
{"id":null,"anchorname":"EMPLOYERS INSURANCE COMPANY OF NEVADA - SOUTHERN NEVADA","address":"1700 W. CHARLESTON BLVD. LAS VEGAS, NV 89102","bldgnbr":"1700","predir":null,"streetname":"W. CHARLESTON BLVD.","streettype":null,"suffdir":null,"city":"LAS VEGAS","state_code":"NV","zip5":"89102","latitude":"36.1589830000000000","longitude":"-115.16404700000000","publicwifi":"U","url":null,"broadband_type_id":null}
{"id":null,"anchorname":"CARL N WILLIAMS JR MD CHTD","address":"2020 GOLDRING AVE STE 504 LAS VEGAS, NV 89106","bldgnbr":"2020","predir":null,"streetname":"GOLDRING AVE STE 504","streettype":null,"suffdir":null,"city":"LAS VEGAS","state_code":"NV","zip5":"89106","latitude":"36.1618010000000000","longitude":"-115.16882300000000","publicwifi":"U","url":null,"broadband_type_id":6}
{"id":null,"anchorname":"BRIAN K IRIYE MD AND ASSOCIATES LTD","address":"2011 PINTO LANE LAS VEGAS, NV 89106","bldgnbr":"2011","predir":null,"streetname":"PINTO LANE","streettype":null,"suffdir":null,"city":"LAS VEGAS","state_code":"NV","zip5":"89106","latitude":"36.1638290000000000","longitude":"-115.16856100000000","publicwifi":"U","url":null,"broadband_type_id":6}
{"id":null,"anchorname":"AFAN (AID FOR AIDS OF NEVADA)","address":"701 SHADOW LANE LAS VEGAS, NV 89106","bldgnbr":"701","predir":null,"streetname":"SHADOW LANE","streettype":null,"suffdir":null,"city":"LAS VEGAS","state_code":"NV","zip5":"89106","latitude":"36.1623350000000000","longitude":"-115.16435300000000","publicwifi":"U","url":null,"broadband_type_id":null}
{"id":null,"anchorname":"THI OF NEVADA II AT DESERT LANE, LLC","address":"640 DESERT LN LAS VEGAS, NV 89106","bldgnbr":"640","predir":null,"streetname":"DESERT LN","streettype":null,"suffdir":null,"city":"LAS VEGAS","state_code":"NV","zip5":"89106","latitude":"36.1631320000000000","longitude":"-115.16269800000000","publicwifi":"U","url":null,"broadband_type_id":6}
{"id":null,"anchorname":"APOTHECARY SHOP OF LAS VEGAS II INC","address":"701 SHADOW LN LAS VEGAS, NV 89106","bldgnbr":"701","predir":null,"streetname":"SHADOW LN","streettype":null,"suffdir":null,"city":"LAS VEGAS","state_code":"NV","zip5":"89106","latitude":"36.1623370000000000","longitude":"-115.16434800000000","publicwifi":"U","url":null,"broadband_type_id":null}
{"id":null,"anchorname":"ARTHUR B PITTERMAN MD","address":"1706 BEARDEN DR LAS VEGAS, NV 89106","bldgnbr":"1706","predir":null,"streetname":"BEARDEN DR","streettype":null,"suffdir":null,"city":"LAS VEGAS","state_code":"NV","zip5":"89106","latitude":"36.1618290000000000","longitude":"-115.16426400000000","publicwifi":"U","url":null,"broadband_type_id":null}
{"id":null,"anchorname":"AZURE GUERRA PLLC","address":"1701 S BEARDEN DR LAS VEGAS, NV 89106","bldgnbr":"1701","predir":null,"streetname":"S BEARDEN DR","streettype":null,"suffdir":null,"city":"LAS VEGAS","state_code":"NV","zip5":"89106","latitude":"36.1617240000000000","longitude":"-115.16479400000000","publicwifi":"U","url":null,"broadband_type_id":null}
{"id":null,"anchorname":"CARRERA PROFESSINAL SERVICES PLLC","address":"1701 S. BEARDEN DRIVE LAS VEGAS, NV 89106","bldgnbr":"1701","predir":null,"streetname":"S. BEARDEN DRIVE","streettype":null,"suffdir":null,"city":"LAS VEGAS","state_code":"NV","zip5":"89106","latitude":"36.1617240000000000","longitude":"-115.16479400000000","publicwifi":"U","url":null,"broadband_type_id":6}
{"id":null,"anchorname":"KATHLEEN WAIRIMU MD PC","address":"1700 BEARDEN DR LAS VEGAS, NV 89106","bldgnbr":"1700","predir":null,"streetname":"BEARDEN DR","streettype":null,"suffdir":null,"city":"LAS VEGAS","state_code":"NV","zip5":"89106","latitude":"36.1618320000000000","longitude":"-115.16421200000000","publicwifi":"U","url":null,"broadband_type_id":null}
{"id":null,"anchorname":"CLARK COUNTY PUBLIC GUARDIAN","address":"515 SHADOW LANE LAS VEGAS, NV 89106","bldgnbr":"515","predir":null,"streetname":"SHADOW LANE","streettype":null,"suffdir":null,"city":"LAS VEGAS","state_code":"NV","zip5":"89106","latitude":"36.1655560000000000","longitude":"-115.16539500000000","publicwifi":"U","url":null,"broadband_type_id":1}
{"id":null,"anchorname":"UNLV ADVANCED PEDIATRICS DEPARTMENT","address":"1700 W. CHARLESTON BLVD LAS VEGAS, NV 89102","bldgnbr":"1700","predir":null,"streetname":"W. CHARLESTON BLVD","streettype":null,"suffdir":null,"city":"LAS VEGAS","state_code":"NV","zip5":"89102","latitude":"36.1589550000000000","longitude":"-115.16470700000000","publicwifi":"U","url":null,"broadband_type_id":null}
{"id":null,"anchorname":"UNLV DENTAL FACULTY PRACTICE","address":"1700 W. CHARLESTON BLVD LAS VEGAS, NV 89102","bldgnbr":"1700","predir":null,"streetname":"W. CHARLESTON BLVD","streettype":null,"suffdir":null,"city":"LAS VEGAS","state_code":"NV","zip5":"89102","latitude":"36.1589550000000000","longitude":"-115.16470700000000","publicwifi":"U","url":null,"broadband_type_id":null}
{"id":null,"anchorname":"CLARK COUNTY SOCIAL SERVICES","address":"1600 PINTO LANE LAS VEGAS, NV 89106","bldgnbr":"1600","predir":null,"streetname":"PINTO LANE","streettype":null,"suffdir":null,"city":"LAS VEGAS","state_code":"NV","zip5":"89106","latitude":"36.1649970000000000","longitude":"-115.16385800000000","publicwifi":"U","url":null,"broadband_type_id":6}
{"id":null,"anchorname":"JAMES R DETTLING LTD","address":"801 S RANCHO DR STE F2 LAS VEGAS, NV 89106","bldgnbr":"801","predir":null,"streetname":"S RANCHO DR STE F2","streettype":null,"suffdir":null,"city":"LAS VEGAS","state_code":"NV","zip5":"89106","latitude":"36.1612130000000000","longitude":"-115.17123500000000","publicwifi":"U","url":null,"broadband_type_id":6}
{"id":null,"anchorname":"UNVERSITY OF NEVADA - LAS VEGAS - SHADOW LANE","address":"1001 SHADOW LANE LAS VEGAS, NV 89106","bldgnbr":"1001","predir":null,"streetname":"SHADOW LANE","streettype":null,"suffdir":null,"city":"LAS VEGAS","state_code":"NV","zip5":"89106","latitude":"36.1598360000000000","longitude":"-115.16539500000000","publicwifi":"U","url":null,"broadband_type_id":null}
{"id":null,"anchorname":"HELP HOPE HOME","address":"1600 PINTO LANE LAS VEGAS, NV 89106","bldgnbr":"1600","predir":null,"streetname":"PINTO LANE","streettype":null,"suffdir":null,"city":"LAS VEGAS","state_code":"NV","zip5":"89106","latitude":"36.1649970000000000","longitude":"-115.16385800000000","publicwifi":"U","url":null,"broadband_type_id":null}
{"id":null,"anchorname":"UNITED STATES DEPARTMENT OF VETERANS AFFAIRS - SOUTHERN NEVADA","address":"901 RANCHO LANE LAS VEGAS, NV 89106","bldgnbr":"901","predir":null,"streetname":"RANCHO LANE","streettype":null,"suffdir":null,"city":"LAS VEGAS","state_code":"NV","zip5":"89106","latitude":"36.1605720000000000","longitude":"-115.17058500000000","publicwifi":"U","url":null,"broadband_type_id":6}
{"id":null,"anchorname":"DOLCRX","address":"801 S RANCHO DR LAS VEGAS, NV 89106","bldgnbr":"801","predir":null,"streetname":"S RANCHO DR","streettype":null,"suffdir":null,"city":"LAS VEGAS","state_code":"NV","zip5":"89106","latitude":"36.1612130000000000","longitude":"-115.17123500000000","publicwifi":"U","url":null,"broadband_type_id":null}
{"id":null,"anchorname":"EDDIE PMD INC","address":"801 S RANCHO DR LAS VEGAS, NV 89106","bldgnbr":"801","predir":null,"streetname":"S RANCHO DR","streettype":null,"suffdir":null,"city":"LAS VEGAS","state_code":"NV","zip5":"89106","latitude":"36.1612130000000000","longitude":"-115.17123500000000","publicwifi":"U","url":null,"broadband_type_id":null}
{"id":null,"anchorname":"LAS VEGAS VAMC","address":"901 RANCHO LN LAS VEGAS, NV 89106","bldgnbr":"901","predir":null,"streetname":"RANCHO LN","streettype":null,"suffdir":null,"city":"LAS VEGAS","state_code":"NV","zip5":"89106","latitude":"36.1605710000000000","longitude":"-115.17058700000000","publicwifi":"U","url":null,"broadband_type_id":null}
{"id":null,"anchorname":"ADVANCED SPINE AND PAIN CENTER","address":"801 S RANCHO DR LAS VEGAS, NV 89106","bldgnbr":"801","predir":null,"streetname":"S RANCHO DR","streettype":null,"suffdir":null,"city":"LAS VEGAS","state_code":"NV","zip5":"89106","latitude":"36.1612130000000000","longitude":"-115.17123500000000","publicwifi":"U","url":null,"broadband_type_id":null}
{"id":null,"anchorname":"FAYLONA GOLLARD KAUSHAL NYAMUSWA \u0026 PARK LTD","address":"701 SHADOW LN LAS VEGAS, NV 89106","bldgnbr":"701","predir":null,"streetname":"SHADOW LN","streettype":null,"suffdir":null,"city":"LAS VEGAS","state_code":"NV","zip5":"89106","latitude":"36.1623370000000000","longitude":"-115.16434800000000","publicwifi":"U","url":null,"broadband_type_id":2}
{"id":null,"anchorname":"APEX MEDICAL CENTER","address":"1701 BEARDEN DR LAS VEGAS, NV 89106","bldgnbr":"1701","predir":null,"streetname":"BEARDEN DR","streettype":null,"suffdir":null,"city":"LAS VEGAS","state_code":"NV","zip5":"89106","latitude":"36.1617240000000000","longitude":"-115.16479400000000","publicwifi":"U","url":null,"broadband_type_id":3}
{"id":null,"anchorname":"HORIZON SPECIALTY HOSPITAL","address":"640 DESERT LANE LAS VEGAS, NV 89106","bldgnbr":"640","predir":null,"streetname":"DESERT LANE?","streettype":null,"suffdir":null,"city":"LAS VEGAS","state_code":"NV","zip5":"89106","latitude":"36.1631350000000000","longitude":"-115.16269800000000","publicwifi":"U","url":null,"broadband_type_id":3}
{"id":null,"anchorname":"SOUTHERN NEVADA HEALTH DISTRICT","address":"625 SHADOW LN LAS VEGAS, NV 89106","bldgnbr":"625","predir":null,"streetname":"SHADOW LN","streettype":null,"suffdir":null,"city":"LAS VEGAS","state_code":"NV","zip5":"89106","latitude":"36.1628590000000000","longitude":"-115.16390600000000","publicwifi":"U","url":null,"broadband_type_id":3}
{"id":null,"anchorname":"UNLV SCHOOL OF DENTAL MEDICINE","address":"1700 W. CHARLESTON BLVD LAS VEGAS, NV 89102","bldgnbr":"1700","predir":null,"streetname":"W. CHARLESTON BLVD","streettype":null,"suffdir":null,"city":"LAS VEGAS","state_code":"NV","zip5":"89102","latitude":"36.1589550000000000","longitude":"-115.16470700000000","publicwifi":"U","url":null,"broadband_type_id":3}
{"id":null,"anchorname":"UNLV - SCHOOL OF DENTAL MEDICINE","address":"1700 W. CHARLESTON LAS VEGAS, NV 89106","bldgnbr":"1700","predir":null,"streetname":"W. CHARLESTON","streettype":null,"suffdir":null,"city":"LAS VEGAS","state_code":"NV","zip5":"89106","latitude":"36.1589540000000000","longitude":"-115.16470600000000","publicwifi":"U","url":null,"broadband_type_id":3}
{"id":null,"anchorname":"UNIVERSITY MEDICAL CENTER OF SOUTHERN NEVADA","address":"1524 PINTO LN LAS VEGAS, NV 89106","bldgnbr":"1524","predir":null,"streetname":"PINTO LN","streettype":null,"suffdir":null,"city":"LAS VEGAS","state_code":"NV","zip5":"89106","latitude":"36.1643400000000000","longitude":"-115.16238800000000","publicwifi":"U","url":null,"broadband_type_id":3}
{"id":null,"anchorname":"ALOHA HOME HEALTH, LLC","address":"801 S RANCHO DR LAS VEGAS, NV 89106","bldgnbr":"801","predir":null,"streetname":"S RANCHO DR","streettype":null,"suffdir":null,"city":"LAS VEGAS","state_code":"NV","zip5":"89106","latitude":"36.1612130000000000","longitude":"-115.17123500000000","publicwifi":"U","url":null,"broadband_type_id":3}
{"id":null,"anchorname":"QUALITY NURSING","address":"801 S. RANCHO LAS VEGAS, NV 89106","bldgnbr":"801","predir":null,"streetname":"S. RANCHO","streettype":null,"suffdir":null,"city":"LAS VEGAS","state_code":"NV","zip5":"89106","latitude":"36.1613270000000000","longitude":"-115.17100300000000","publicwifi":"U","url":null,"broadband_type_id":3}
{"id":null,"anchorname":"ATWOOD RURAL FIRE DISTRICT","address":"133 AVENUE B","bldgnbr":"133","predir":null,"streetname":"B","streettype":null,"suffdir":null,"city":"ATWOOD","state_code":"OK","zip5":"74827","latitude":"34.9577539000000000","longitude":"-96.338651600000000","publicwifi":"U","url":null,"broadband_type_id":5}
{"id":null,"anchorname":"HIGHWAY SHOP 08 - MIDDLE RIVER","address":"14 EMALA AVE MIDDLE RIVER MD 21220","bldgnbr":"14","predir":null,"streetname":"EMALA","streettype":"AVE","suffdir":null,"city":"MIDDLE RIVER","state_code":"MD","zip5":"21220","latitude":"39.3338270000000000","longitude":"-76.413087000000000","publicwifi":"N","url":"HTTP://SHA.MD.GOV/PAGES/DISTRICTS.ASPX?DID=D7","broadband_type_id":6}
{"id":null,"anchorname":"LAWSON CHARLES RICHTER MD LTD","address":"601 S RANCHO DR LAS VEGAS, NV 89106","bldgnbr":"601","predir":null,"streetname":"S RANCHO DR","streettype":null,"suffdir":null,"city":"LAS VEGAS","state_code":"NV","zip5":"89106","latitude":"36.1633450000000000","longitude":"-115.17163000000000","publicwifi":"U","url":null,"broadband_type_id":6}
{"id":null,"anchorname":"GENLAB INC","address":"601 S RANCHO DR LAS VEGAS, NV 89106","bldgnbr":"601","predir":null,"streetname":"S RANCHO DR","streettype":null,"suffdir":null,"city":"LAS VEGAS","state_code":"NV","zip5":"89106","latitude":"36.1633450000000000","longitude":"-115.17163000000000","publicwifi":"U","url":null,"broadband_type_id":null}
{"id":null,"anchorname":"CANDLELIGHTERS CHILDHOOD CANCER FOUNDATION OF NEVADA","address":"601 S. RANCHO DR. LAS VEGAS, NV 89106","bldgnbr":"601","predir":null,"streetname":"S. RANCHO DR.","streettype":null,"suffdir":null,"city":"LAS VEGAS","state_code":"NV","zip5":"89106","latitude":"36.1643330000000000","longitude":"-115.17245100000000","publicwifi":"U","url":null,"broadband_type_id":null}
{"id":null,"anchorname":"JOHN A ELLERTON MD.LTD DBA CANCER CONSULTANTS","address":"2020 W. PALOMINO LN LAS VEGAS, NV 89106","bldgnbr":"2020","predir":null,"streetname":"W. PALOMINO LN","streettype":null,"suffdir":null,"city":"LAS VEGAS","state_code":"NV","zip5":"89106","latitude":"36.1629150000000000","longitude":"-115.17071500000000","publicwifi":"U","url":null,"broadband_type_id":null}
{"id":null,"anchorname":"JOSEPH J SCHIFINI, MD, LTD","address":"600 S TONOPAH DR STE 240 LAS VEGAS, NV 89106","bldgnbr":"600","predir":null,"streetname":"S TONOPAH DR STE 240","streettype":null,"suffdir":null,"city":"LAS VEGAS","state_code":"NV","zip5":"89106","latitude":"36.1640490000000000","longitude":"-115.17040000000000","publicwifi":"U","url":null,"broadband_type_id":null}
{"id":null,"anchorname":"MARK O. REED, MD, PC","address":"600 S TONOPAH DR STE 240 LAS VEGAS, NV 89106","bldgnbr":"600","predir":null,"streetname":"S TONOPAH DR STE 240","streettype":null,"suffdir":null,"city":"LAS VEGAS","state_code":"NV","zip5":"89106","latitude":"36.1640490000000000","longitude":"-115.17040000000000","publicwifi":"U","url":null,"broadband_type_id":null}
{"id":null,"anchorname":"COFII CORPORATION","address":"2202 W CHARLESTON BLVD LAS VEGAS, NV 89102","bldgnbr":"2202","predir":null,"streetname":"W CHARLESTON BLVD","streettype":null,"suffdir":null,"city":"LAS VEGAS","state_code":"NV","zip5":"89102","latitude":"36.1594930000000000","longitude":"-115.17200100000000","publicwifi":"U","url":null,"broadband_type_id":null}
{"id":null,"anchorname":"NEVADA RETINA ASSOCIATES","address":"601 S RANCHO DR LAS VEGAS, NV 89106","bldgnbr":"601","predir":null,"streetname":"S RANCHO DR","streettype":null,"suffdir":null,"city":"LAS VEGAS","state_code":"NV","zip5":"89106","latitude":"36.1633450000000000","longitude":"-115.17163000000000","publicwifi":"U","url":null,"broadband_type_id":6}
{"id":null,"anchorname":"WELLMARK INC","address":"820 RANCHO LN LAS VEGAS, NV 89106","bldgnbr":"820","predir":null,"streetname":"RANCHO LN","streettype":null,"suffdir":null,"city":"LAS VEGAS","state_code":"NV","zip5":"89106","latitude":"36.1603600000000000","longitude":"-115.17194600000000","publicwifi":"U","url":null,"broadband_type_id":null}
{"id":null,"anchorname":"ELLIS BANDT BIRKIN KOLLINS \u0026 WONG PC","address":"2020 PALOMINO LN LAS VEGAS, NV 89106","bldgnbr":"2020","predir":null,"streetname":"PALOMINO LN","streettype":null,"suffdir":null,"city":"LAS VEGAS","state_code":"NV","zip5":"89106","latitude":"36.1629150000000000","longitude":"-115.17071500000000","publicwifi":"U","url":null,"broadband_type_id":6}
{"id":null,"anchorname":"ORTHOPAEDIC SPECIALISTS OF NEVADA","address":"2020 PALOMINO LN LAS VEGAS, NV 89106","bldgnbr":"2020","predir":null,"streetname":"PALOMINO LN","streettype":null,"suffdir":null,"city":"LAS VEGAS","state_code":"NV","zip5":"89106","latitude":"36.1629150000000000","longitude":"-115.17071500000000","publicwifi":"U","url":null,"broadband_type_id":6}
{"id":null,"anchorname":"PHYSIOTHERAPY ASSOCIATES INC.","address":"600 S TONOPAH DR LAS VEGAS, NV 89106","bldgnbr":"600","predir":null,"streetname":"S TONOPAH DR","streettype":null,"suffdir":null,"city":"LAS VEGAS","state_code":"NV","zip5":"89106","latitude":"36.1640490000000000","longitude":"-115.17040000000000","publicwifi":"U","url":null,"broadband_type_id":6}
{"id":null,"anchorname":"BONE \u0026 JOINT SPECIALISTS","address":"2020 PALOMINO LN LAS VEGAS, NV 89106","bldgnbr":"2020","predir":null,"streetname":"PALOMINO LN","streettype":null,"suffdir":null,"city":"LAS VEGAS","state_code":"NV","zip5":"89106","latitude":"36.1629150000000000","longitude":"-115.17071500000000","publicwifi":"U","url":null,"broadband_type_id":6}
{"id":null,"anchorname":"AHMAD NOMAN MD PC","address":"1800 W CHARLESTON BLVD LAS VEGAS, NV 89102","bldgnbr":"1800","predir":null,"streetname":"W CHARLESTON BLVD","streettype":null,"suffdir":null,"city":"LAS VEGAS","state_code":"NV","zip5":"89102","latitude":"36.1589610000000000","longitude":"-115.16558400000000","publicwifi":"U","url":null,"broadband_type_id":null}
{"id":null,"anchorname":"MEENA P VOHRA MD PC","address":"1800 W CHARLESTON BLVD LAS VEGAS, NV 89102","bldgnbr":"1800","predir":null,"streetname":"W CHARLESTON BLVD","streettype":null,"suffdir":null,"city":"LAS VEGAS","state_code":"NV","zip5":"89102","latitude":"36.1589610000000000","longitude":"-115.16558400000000","publicwifi":"U","url":null,"broadband_type_id":null}
{"id":null,"anchorname":"RONALD L. CASEY, MD, PC","address":"1800 W CHARLESTON BLVD LAS VEGAS, NV 89102","bldgnbr":"1800","predir":null,"streetname":"W CHARLESTON BLVD","streettype":null,"suffdir":null,"city":"LAS VEGAS","state_code":"NV","zip5":"89102","latitude":"36.1589610000000000","longitude":"-115.16558400000000","publicwifi":"U","url":null,"broadband_type_id":null}
{"id":null,"anchorname":"DISCOVERY 2000, MERSHA P.C.","address":"2202 W CHARLESTON BLVD LAS VEGAS, NV 89102","bldgnbr":"2202","predir":null,"streetname":"W CHARLESTON BLVD","streettype":null,"suffdir":null,"city":"LAS VEGAS","state_code":"NV","zip5":"89102","latitude":"36.1594930000000000","longitude":"-115.17200100000000","publicwifi":"U","url":null,"broadband_type_id":6}
{"id":null,"anchorname":"MARCH OF DIMES FOUNDATION","address":"820 RANCHO LANE LAS VEGAS, NV 89106","bldgnbr":"820","predir":null,"streetname":"RANCHO LANE","streettype":null,"suffdir":null,"city":"LAS VEGAS","state_code":"NV","zip5":"89106","latitude":"36.1603650000000000","longitude":"-115.17194300000000","publicwifi":"U","url":null,"broadband_type_id":6}
{"id":null,"anchorname":"BEST STEPS SHOES","address":"2160 W CHARLESTON BLVD LAS VEGAS, NV 89102","bldgnbr":"2160","predir":null,"streetname":"W CHARLESTON BLVD","streettype":null,"suffdir":null,"city":"LAS VEGAS","state_code":"NV","zip5":"89102","latitude":"36.1595830000000000","longitude":"-115.17140400000000","publicwifi":"U","url":null,"broadband_type_id":6}
{"id":null,"anchorname":"EMERALD LAKE, INC","address":"500 S MARTIN L KING BLVD STE D LAS VEGAS, NV 89106","bldgnbr":"500","predir":null,"streetname":"S MARTIN L KING BLVD STE D","streettype":null,"suffdir":null,"city":"LAS VEGAS","state_code":"NV","zip5":"89106","latitude":"36.1662930000000000","longitude":"-115.16098800000000","publicwifi":"U","url":null,"broadband_type_id":null}
{"id":null,"anchorname":"ROSHAN LLC","address":"1700 ALTA DR LAS VEGAS, NV 89106","bldgnbr":"1700","predir":null,"streetname":"ALTA DR","streettype":null,"suffdir":null,"city":"LAS VEGAS","state_code":"NV","zip5":"89106","latitude":"36.1681610000000000","longitude":"-115.16439000000000","publicwifi":"U","url":null,"broadband_type_id":null}
{"id":null,"anchorname":"SHANNON R. CHANDLER, CORP","address":"222 S MARTIN L KING BLVD LAS VEGAS, NV 89106","bldgnbr":"222","predir":null,"streetname":"S MARTIN L KING BLVD","streettype":null,"suffdir":null,"city":"LAS VEGAS","state_code":"NV","zip5":"89106","latitude":"36.1717870000000000","longitude":"-115.16247800000000","publicwifi":"U","url":null,"broadband_type_id":null}
{"id":null,"anchorname":"AMERICAN INVESTMENT ENTERPRISES INC","address":"1200 S MARTIN L KING BLVD LAS VEGAS, NV 89102","bldgnbr":"1200","predir":null,"streetname":"S MARTIN L KING BLVD","streettype":null,"suffdir":null,"city":"LAS VEGAS","state_code":"NV","zip5":"89102","latitude":"36.1565950000000000","longitude":"-115.16151400000000","publicwifi":"U","url":null,"broadband_type_id":6}
{"id":null,"anchorname":"MERCY INC","address":"1200 S MARTIN L KING BLVD LAS VEGAS, NV 89102","bldgnbr":"1200","predir":null,"streetname":"S MARTIN L KING BLVD","streettype":null,"suffdir":null,"city":"LAS VEGAS","state_code":"NV","zip5":"89102","latitude":"36.1565950000000000","longitude":"-115.16151400000000","publicwifi":"U","url":null,"broadband_type_id":null}
{"id":null,"anchorname":"MITCHELL F KEAMY III MD PC","address":"1710 WALDMAN AVE LAS VEGAS, NV 89102","bldgnbr":"1710","predir":null,"streetname":"WALDMAN AVE","streettype":null,"suffdir":null,"city":"LAS VEGAS","state_code":"NV","zip5":"89102","latitude":"36.1555350000000000","longitude":"-115.16512000000000","publicwifi":"U","url":null,"broadband_type_id":null}
{"id":null,"anchorname":"VETERANS AFFAIRS SOUTHERN NEVADA HEALTHCARE SYSTEM","address":"901 RANCHO LANE NORTH LAS VEGAS, NV 89036","bldgnbr":"901","predir":null,"streetname":"RANCHO LANE","streettype":null,"suffdir":null,"city":"NORTH LAS VEGAS","state_code":"NV","zip5":"89036","latitude":"36.1605680000000000","longitude":"-115.17082000000000","publicwifi":"U","url":null,"broadband_type_id":3}
{"id":null,"anchorname":"ADDUS HEALTHCARE (NEVADA), INC.","address":"2140 W CHARLESTON BLVD LAS VEGAS, NV 89102","bldgnbr":"2140","predir":null,"streetname":"W CHARLESTON BLVD","streettype":null,"suffdir":null,"city":"LAS VEGAS","state_code":"NV","zip5":"89102","latitude":"36.1592220000000000","longitude":"-115.17139000000000","publicwifi":"U","url":null,"broadband_type_id":3}
{"id":null,"anchorname":"UNLV SCHOOL OF MEDICINE: NEVADA GERIATRIC EDUCATION CENTER","address":"2040 W. CHARLESTON BLVD. LAS VEGAS, NV 89102","bldgnbr":"2040","predir":null,"streetname":"W. CHARLESTON BLVD.","streettype":null,"suffdir":null,"city":"LAS VEGAS","state_code":"NV","zip5":"89102","latitude":"36.1589920000000000","longitude":"-115.16898700000000","publicwifi":"U","url":null,"broadband_type_id":3}
{"id":null,"anchorname":"EMERGENCY MEDICINE PHYSICIANS OF CLARK PEDIATRICS MCCOURT, PLLC","address":"1800 W CHARLESTON BLVD LAS VEGAS, NV 89102","bldgnbr":"1800","predir":null,"streetname":"W CHARLESTON BLVD","streettype":null,"suffdir":null,"city":"LAS VEGAS","state_code":"NV","zip5":"89102","latitude":"36.1589610000000000","longitude":"-115.16558400000000","publicwifi":"U","url":null,"broadband_type_id":3}
{"id":null,"anchorname":"EMERGENCY PHYSICIANS MEDICAL GROUP, INC","address":"1800 W CHARLESTON BLVD LAS VEGAS, NV 89102","bldgnbr":"1800","predir":null,"streetname":"W CHARLESTON BLVD","streettype":null,"suffdir":null,"city":"LAS VEGAS","state_code":"NV","zip5":"89102","latitude":"36.1589610000000000","longitude":"-115.16558400000000","publicwifi":"U","url":null,"broadband_type_id":3}
{"id":null,"anchorname":"SHERIDAN AUERBACH CHILDREN'S HEALTHCARE SERVICES OF NEVADA PC","address":"1800 W CHARLESTON BLVD LAS VEGAS, NV 89102","bldgnbr":"1800","predir":null,"streetname":"W CHARLESTON BLVD","streettype":null,"suffdir":null,"city":"LAS VEGAS","state_code":"NV","zip5":"89102","latitude":"36.1589610000000000","longitude":"-115.16558400000000","publicwifi":"U","url":null,"broadband_type_id":3}
{"id":null,"anchorname":"UNIVERSITY MEDICAL CENTER OF SOUTHERN NEVADA","address":"1800 W CHARLESTON BLVD LAS VEGAS, NV 89102","bldgnbr":"1800","predir":null,"streetname":"W CHARLESTON BLVD","streettype":null,"suffdir":null,"city":"LAS VEGAS","state_code":"NV","zip5":"89102","latitude":"36.1589610000000000","longitude":"-115.16558400000000","publicwifi":"U","url":null,"broadband_type_id":3}
{"id":null,"anchorname":"INSIGHT HEALTH CORP","address":"800 SHADOW LN LAS VEGAS, NV 89106","bldgnbr":"800","predir":null,"streetname":"SHADOW LN","streettype":null,"suffdir":null,"city":"LAS VEGAS","state_code":"NV","zip5":"89106","latitude":"36.1612730000000000","longitude":"-115.16606300000000","publicwifi":"U","url":null,"broadband_type_id":3}
{"id":null,"anchorname":"AMERICAN MEDICAL RESPONSE (AMR)","address":"1200 S. MARTIN LUTHER KING BLVD. LAS VEGAS, NV 89102","bldgnbr":"1200","predir":null,"streetname":"S. MARTIN LUTHER KING BLVD.","streettype":null,"suffdir":null,"city":"LAS VEGAS","state_code":"NV","zip5":"89102","latitude":"36.1565970000000000","longitude":"-115.16151100000000","publicwifi":"U","url":null,"broadband_type_id":3}
{"id":null,"anchorname":"NEVADA ASSOCIATION OF MANUFACTURED HOME OWNERS, INC. (NAMH)","address":"1928 WESTERN AVE LAS VEGAS, NV 89102","bldgnbr":"1928","predir":null,"streetname":"WESTERN AVE","streettype":null,"suffdir":null,"city":"LAS VEGAS","state_code":"NV","zip5":"89102","latitude":"36.1495930000000000","longitude":"-115.16395200000000","publicwifi":"U","url":null,"broadband_type_id":1}
{"id":null,"anchorname":"FAMILY HOME HOSPICE","address":"1701 W. CHARLESTON BLVD LAS VEGAS, NV 89102","bldgnbr":"1701","predir":null,"streetname":"W. CHARLESTON BLVD","streettype":null,"suffdir":null,"city":"LAS VEGAS","state_code":"NV","zip5":"89102","latitude":"36.1579460000000000","longitude":"-115.16374100000000","publicwifi":"U","url":null,"broadband_type_id":null}
{"id":null,"anchorname":"PHC OF NEVADA INC","address":"1701 W CHARLESTON BLVD LAS VEGAS, NV 89102","bldgnbr":"1701","predir":null,"streetname":"W CHARLESTON BLVD","streettype":null,"suffdir":null,"city":"LAS VEGAS","state_code":"NV","zip5":"89102","latitude":"36.1579440000000000","longitude":"-115.16373900000000","publicwifi":"U","url":null,"broadband_type_id":null}
{"id":null,"anchorname":"BENGIES COMMUNITY CENTER","address":"11601 EASTERN AVE MIDDLE RIVER MD 21220","bldgnbr":"11601","predir":null,"streetname":"EASTERN","streettype":"AVE","suffdir":null,"city":"MIDDLE RIVER","state_code":"MD","zip5":"21220","latitude":"39.3422220000000000","longitude":"-76.395833000000000","publicwifi":"N","url":null,"broadband_type_id":6}
{"id":null,"anchorname":"LEWIS \u0026 LOVETT, LTD","address":"1111 SHADOW LN LAS VEGAS, NV 89102","bldgnbr":"1111","predir":null,"streetname":"SHADOW LN","streettype":null,"suffdir":null,"city":"LAS VEGAS","state_code":"NV","zip5":"89102","latitude":"36.1579360000000000","longitude":"-115.16545600000000","publicwifi":"U","url":null,"broadband_type_id":6}
{"id":null,"anchorname":"UNLV GENERAL PRACTICE RESIDENCY","address":"1707 W. CHARLESTON BLVD LAS VEGAS, NV 89102","bldgnbr":"1707","predir":null,"streetname":"W. CHARLESTON BLVD","streettype":null,"suffdir":null,"city":"LAS VEGAS","state_code":"NV","zip5":"89102","latitude":"36.1580530000000000","longitude":"-115.16437500000000","publicwifi":"U","url":null,"broadband_type_id":6}
{"id":null,"anchorname":"GREATER LAS VEGAS DIALYSIS LLC","address":"2250 S RANCHO DR LAS VEGAS, NV 89102","bldgnbr":"2250","predir":null,"streetname":"S RANCHO DR","streettype":null,"suffdir":null,"city":"LAS VEGAS","state_code":"NV","zip5":"89102","latitude":"36.1467360000000000","longitude":"-115.17137500000000","publicwifi":"U","url":null,"broadband_type_id":6}
{"id":null,"anchorname":"HEARINGS AND APPEALS DIVISION","address":"2200 S. RANCHO DRIVE SUITE 210 LAS VEGAS, NV 89102","bldgnbr":"2200","predir":null,"streetname":"S. RANCHO DRIVE SUITE 210 AND 220","streettype":null,"suffdir":null,"city":"LAS VEGAS","state_code":"NV","zip5":"89102","latitude":"36.1475060000000000","longitude":"-115.17310200000000","publicwifi":"U","url":null,"broadband_type_id":6}
{"id":null,"anchorname":"ST. JOSEPH TRANSITIONAL REHABILITATION CENTER, LLC","address":"2035 W CHARLESTON BLVD LAS VEGAS, NV 89102","bldgnbr":"2035","predir":null,"streetname":"W CHARLESTON BLVD","streettype":null,"suffdir":null,"city":"LAS VEGAS","state_code":"NV","zip5":"89102","latitude":"36.1578960000000000","longitude":"-115.16955300000000","publicwifi":"U","url":null,"broadband_type_id":null}
{"id":null,"anchorname":"NEVADA VICTIMS OF CRIME PROGRAM (VOCP) - SOUTHERN NEVADA","address":"2200 S. RANCHO LAS VEGAS, NV 89102","bldgnbr":"2200","predir":null,"streetname":"S. RANCHO","streettype":null,"suffdir":null,"city":"LAS VEGAS","state_code":"NV","zip5":"89102","latitude":"36.1469080000000000","longitude":"-115.17242000000000","publicwifi":"U","url":null,"broadband_type_id":6}
{"id":null,"anchorname":"NEVADA ATTORNEY FOR INJURED WORKERS","address":"2200 S. RANCHO DRIVE SUITE_230 LAS VEGAS, NV 89102","bldgnbr":"2200","predir":null,"streetname":"S. RANCHO DRIVE SUITE_230","streettype":null,"suffdir":null,"city":"LAS VEGAS","state_code":"NV","zip5":"89102","latitude":"36.1475060000000000","longitude":"-115.17310200000000","publicwifi":"U","url":null,"broadband_type_id":null}
{"id":null,"anchorname":"VICTIMS OF CRIME","address":"2200 S. RANCHO DRIVE SUITE 130 LAS VEGAS, NV 89102","bldgnbr":"2200","predir":null,"streetname":"S. RANCHO DRIVE SUITE 130","streettype":null,"suffdir":null,"city":"LAS VEGAS","state_code":"NV","zip5":"89102","latitude":"36.1475060000000000","longitude":"-115.17310200000000","publicwifi":"U","url":null,"broadband_type_id":6}
{"id":null,"anchorname":"ROBERT G BERRY JR MD PC","address":"2200 SOUTH RANCHO DRIVE LAS VEGAS, NV 89402","bldgnbr":"2200","predir":null,"streetname":"SOUTH RANCHO DRIVE","streettype":null,"suffdir":null,"city":"LAS VEGAS","state_code":"NV","zip5":"89402","latitude":"36.1469370000000000","longitude":"-115.17239200000000","publicwifi":"U","url":null,"broadband_type_id":null}
{"id":null,"anchorname":"DEPARTMENT OF FAMILY SERVICES","address":"121 SOUTH MARTIN LUTHER KING BOULEVARD LAS VEGAS, NV 89149","bldgnbr":"121","predir":null,"streetname":"SOUTH MARTIN LUTHER KING BOULEVARD","streettype":null,"suffdir":null,"city":"LAS VEGAS","state_code":"NV","zip5":"89149","latitude":"36.1724870000000000","longitude":"-115.16006200000000","publicwifi":"U","url":null,"broadband_type_id":6}
{"id":null,"anchorname":"SOUTHERN NEVADA NARCOTICS ANONYMOUS","address":"21 EAST CALOFORNIA AVENUE LAS VEGAS, NV 89104-1009","bldgnbr":"21","predir":null,"streetname":"EAST CALOFORNIA AVENUE","streettype":null,"suffdir":null,"city":"LAS VEGAS","state_code":"NV","zip5":"89104","latitude":"36.1667050000000000","longitude":"-115.15663100000000","publicwifi":"U","url":null,"broadband_type_id":4}
{"id":null,"anchorname":"CLARK COUNTY - DEPARTMENT OF BUSINESS LICENSE","address":"500 S. GRAND CENTRAL PARKWAY  3RD FLOOR LAS VEGAS, NV 89106","bldgnbr":"500","predir":null,"streetname":"S. GRAND CENTRAL PARKWAY, 3RD FLOOR","streettype":null,"suffdir":null,"city":"LAS VEGAS","state_code":"NV","zip5":"89106","latitude":"36.1640260000000000","longitude":"-115.15469400000000","publicwifi":"U","url":null,"broadband_type_id":6}
{"id":null,"anchorname":"LAS VEGAS VAMC","address":"405 W WILSON AVE LAS VEGAS, NV 89106","bldgnbr":"405","predir":null,"streetname":"W WILSON AVE","streettype":null,"suffdir":null,"city":"LAS VEGAS","state_code":"NV","zip5":"89106","latitude":"36.1783830000000000","longitude":"-115.14700300000000","publicwifi":"U","url":null,"broadband_type_id":null}
{"id":null,"anchorname":"CLARK COUNTY - OFFICE OF EMERGENCY MANAGEMENT","address":"500 S. GRAND CENTRAL PARKWAY LAS VEGAS, NV 89155","bldgnbr":"500","predir":null,"streetname":"S. GRAND CENTRAL PARKWAY","streettype":null,"suffdir":null,"city":"LAS VEGAS","state_code":"NV","zip5":"89155","latitude":"36.1640260000000000","longitude":"-115.15469400000000","publicwifi":"U","url":null,"broadband_type_id":1}
{"id":null,"anchorname":"LAS VEGAS REVIEW-JOURNAL","address":"1111 W. BONANZA RD. LAS VEGAS, NV 89106","bldgnbr":"1111","predir":null,"streetname":"W. BONANZA RD.","streettype":null,"suffdir":null,"city":"LAS VEGAS","state_code":"NV","zip5":"89106","latitude":"36.1771010000000000","longitude":"-115.15755600000000","publicwifi":"U","url":null,"broadband_type_id":null}
{"id":null,"anchorname":"REGIONAL TRANSPORTATION COMMISSION (RTC)","address":"600 S. GRAND CENTRAL PARKWAY LAS VEGAS, NV 89106","bldgnbr":"600","predir":null,"streetname":"S. GRAND CENTRAL PARKWAY","streettype":null,"suffdir":null,"city":"LAS VEGAS","state_code":"NV","zip5":"89106","latitude":"36.1633350000000000","longitude":"-115.15662300000000","publicwifi":"U","url":null,"broadband_type_id":6}
{"id":null,"anchorname":"UNIVERSITY OF NV SCHOOL OF MEDICINE MULTI SPECIALTY GROUP PRACTICE SO","address":"1707 W CHARLESTON BLVD LAS VEGAS, NV 89102","bldgnbr":"1707","predir":null,"streetname":"W CHARLESTON BLVD","streettype":null,"suffdir":null,"city":"LAS VEGAS","state_code":"NV","zip5":"89102","latitude":"36.1580530000000000","longitude":"-115.16437500000000","publicwifi":"U","url":null,"broadband_type_id":3}
{"id":null,"anchorname":"EVERYTHING MEDICAL, LLC","address":"1811 W CHARLESTON BLVD LAS VEGAS, NV 89102","bldgnbr":"1811","predir":null,"streetname":"W CHARLESTON BLVD","streettype":null,"suffdir":null,"city":"LAS VEGAS","state_code":"NV","zip5":"89102","latitude":"36.1588010000000000","longitude":"-115.16601200000000","publicwifi":"U","url":null,"broadband_type_id":3}
{"id":null,"anchorname":"UNIVERSITY MEDICAL CENTER OF SOUTHERN NEVADA (UMCSN) - LAS VEGAS CENTRAL","address":"1120 SHADOW LANE LAS VEGAS, NV 89102","bldgnbr":"1120","predir":null,"streetname":"SHADOW LANE","streettype":null,"suffdir":null,"city":"LAS VEGAS","state_code":"NV","zip5":"89102","latitude":"36.1577480000000000","longitude":"-115.16603400000000","publicwifi":"U","url":null,"broadband_type_id":3}
{"id":null,"anchorname":"PLEASANT CARE CORPORATION","address":"2035 W CHARLESTON BLVD LAS VEGAS, NV 89102","bldgnbr":"2035","predir":null,"streetname":"W CHARLESTON BLVD","streettype":null,"suffdir":null,"city":"LAS VEGAS","state_code":"NV","zip5":"89102","latitude":"36.1578960000000000","longitude":"-115.16955300000000","publicwifi":"U","url":null,"broadband_type_id":3}
{"id":null,"anchorname":"CONCENTRA HEALTH SERVICES, INC.","address":"2200 SOUTH RANCHO LAS VEGAS, NV 89102","bldgnbr":"2200","predir":null,"streetname":"SOUTH RANCHO","streettype":null,"suffdir":null,"city":"LAS VEGAS","state_code":"NV","zip5":"89102","latitude":"36.1469370000000000","longitude":"-115.17239200000000","publicwifi":"U","url":null,"broadband_type_id":3}
{"id":null,"anchorname":"OCCUPATIONAL HEALTH CENTERS OF THE SOUTHWEST, P.A.","address":"2200 SOUTH RANCHO LAS VEGAS, NV 89102","bldgnbr":"2200","predir":null,"streetname":"SOUTH RANCHO","streettype":null,"suffdir":null,"city":"LAS VEGAS","state_code":"NV","zip5":"89102","latitude":"36.1469370000000000","longitude":"-115.17239200000000","publicwifi":"U","url":null,"broadband_type_id":3}
{"id":null,"anchorname":"UNIVERSITY MEDICAL CENTER OF SOUTHERN NEVADA","address":"2300 S RANCHO DR LAS VEGAS, NV 89102","bldgnbr":"2300","predir":null,"streetname":"S RANCHO DR","streettype":null,"suffdir":null,"city":"LAS VEGAS","state_code":"NV","zip5":"89102","latitude":"36.1460050000000000","longitude":"-115.17161400000000","publicwifi":"U","url":null,"broadband_type_id":3}
{"id":null,"anchorname":"AMERICAN CURRENT CARE, P.A.","address":"2200 S RANCHO DR LAS VEGAS, NV 89102","bldgnbr":"2200","predir":null,"streetname":"S RANCHO DR","streettype":null,"suffdir":null,"city":"LAS VEGAS","state_code":"NV","zip5":"89102","latitude":"36.1469370000000000","longitude":"-115.17239200000000","publicwifi":"U","url":null,"broadband_type_id":3}
{"id":null,"anchorname":"KIT CARSON ELEMENTARY SCHOOL","address":"1735 N. D STREET LAS VEGAS, NV 89106","bldgnbr":"1735","predir":null,"streetname":"N. D STREET","streettype":null,"suffdir":null,"city":"LAS VEGAS","state_code":"NV","zip5":"89106","latitude":"36.1930420000000000","longitude":"-115.14597000000000","publicwifi":"U","url":null,"broadband_type_id":6}
{"id":null,"anchorname":"NEVADA HEALTH CENTERS, INC.","address":"403 W. WILSON LAS VEGAS, NV 89106","bldgnbr":"403","predir":null,"streetname":"W. WILSON","streettype":null,"suffdir":null,"city":"LAS VEGAS","state_code":"NV","zip5":"89106","latitude":"36.1783930000000000","longitude":"-115.14698300000000","publicwifi":"U","url":null,"broadband_type_id":3}
{"id":null,"anchorname":"WESTCARE, NEVADA, INC.","address":"401 S. MARTIN LUTHER KING LAS VEGAS, NV 89106","bldgnbr":"401","predir":null,"streetname":"S. MARTIN LUTHER KING","streettype":null,"suffdir":null,"city":"LAS VEGAS","state_code":"NV","zip5":"89106","latitude":"36.1671820000000000","longitude":"-115.16033300000000","publicwifi":"U","url":null,"broadband_type_id":3}
{"id":null,"anchorname":"LAS VEGAS RESCUE MISSION","address":"480 W. BONANZA ROAD LAS VEGAS, NV 89106","bldgnbr":"480","predir":null,"streetname":"W. BONANZA ROAD","streettype":null,"suffdir":null,"city":"LAS VEGAS","state_code":"NV","zip5":"89106","latitude":"36.1773000000000000","longitude":"-115.14777800000000","publicwifi":"U","url":null,"broadband_type_id":5}
{"id":null,"anchorname":"CLEVELAND CLINIC NEVADA","address":"888 W BONNEVILLE AVE LAS VEGAS, NV 89106","bldgnbr":"888","predir":null,"streetname":"W BONNEVILLE AVE","streettype":null,"suffdir":null,"city":"LAS VEGAS","state_code":"NV","zip5":"89106","latitude":"36.1662990000000000","longitude":"-115.15647100000000","publicwifi":"U","url":null,"broadband_type_id":3}
{"id":null,"anchorname":"FIGHTING AIDS IN OUR COMMUNITY TODAY","address":"1760 WHEELER PEAK STE. A  ENTERPRISE HEALTH CENTER LAS VEGAS, NV 89106","bldgnbr":"1760","predir":null,"streetname":"WHEELER PEAK STE. A","streettype":null,"suffdir":null,"city":"LAS VEGAS","state_code":"NV","zip5":"89106","latitude":"36.1900760000000000","longitude":"-115.16377000000000","publicwifi":"U","url":null,"broadband_type_id":1}
{"id":null,"anchorname":"KEY FOUNDATION","address":"1001 N. A STREET LAS VEGAS, NV 89106","bldgnbr":"1001","predir":null,"streetname":"N. A STREET","streettype":null,"suffdir":null,"city":"LAS VEGAS","state_code":"NV","zip5":"89106","latitude":"36.1814820000000000","longitude":"-115.14345200000000","publicwifi":"U","url":null,"broadband_type_id":null}
{"id":null,"anchorname":"DOOLITTLE COMMUNITY CENTER","address":"1950 N. J STREET LAS VEGAS, NV 89106","bldgnbr":"1950","predir":null,"streetname":"NORTH J STREET","streettype":null,"suffdir":null,"city":"LAS VEGAS","state_code":"NV","zip5":"89106","latitude":"36.1955020000000000","longitude":"-115.15633100000000","publicwifi":"U","url":null,"broadband_type_id":1}
{"id":null,"anchorname":"URBAN ACADEMIC ALLIANCE","address":"1950 N. \"J\" STREET LAS VEGAS, NV 89112","bldgnbr":"1950","predir":null,"streetname":"N. \"J\" STREET","streettype":null,"suffdir":null,"city":"LAS VEGAS","state_code":"NV","zip5":"89112","latitude":"36.1942410000000000","longitude":"-115.15630800000000","publicwifi":"U","url":null,"broadband_type_id":6}
{"id":null,"anchorname":"GREATER NEW JERUSALEM","address":"1100 N. D ST. LAS VEGAS, NV 89106","bldgnbr":"1100","predir":null,"streetname":"N. D ST.","streettype":null,"suffdir":null,"city":"LAS VEGAS","state_code":"NV","zip5":"89106","latitude":"36.1832230000000000","longitude":"-115.14665400000000","publicwifi":"U","url":null,"broadband_type_id":null}
{"id":null,"anchorname":"DREAM CENTER OF LAS VEGAS","address":"911 G ST. LAS VEGAS, NV 89106","bldgnbr":"911","predir":null,"streetname":"G ST.","streettype":null,"suffdir":null,"city":"LAS VEGAS","state_code":"NV","zip5":"89106","latitude":"36.1810950000000000","longitude":"-115.15099800000000","publicwifi":"U","url":null,"broadband_type_id":null}
{"id":null,"anchorname":"FIT FOR AN INDEPENDENT TOMORROW","address":"1931 STELLA LAKE ST. LAS VEGAS, NV 89106","bldgnbr":"1931","predir":null,"streetname":"STELLA LAKE ST.","streettype":null,"suffdir":null,"city":"LAS VEGAS","state_code":"NV","zip5":"89106","latitude":"36.1942150000000000","longitude":"-115.16442800000000","publicwifi":"U","url":null,"broadband_type_id":null}
{"id":null,"anchorname":"JORGE Y BURGOS MD PC","address":"1815 E LAKE MEAD BLVD STE 317 N LAS VEGAS, NV 89030","bldgnbr":"1815","predir":null,"streetname":"E LAKE MEAD BLVD STE 317","streettype":null,"suffdir":null,"city":"N LAS VEGAS","state_code":"NV","zip5":"89030","latitude":"36.1956970000000000","longitude":"-115.16498000000000","publicwifi":"U","url":null,"broadband_type_id":null}
{"id":null,"anchorname":"WORKFORCE DEVELOPMENT CENTER AT EASTPOINT","address":"7930 EASTERN AVE BALTIMORE MD 21224","bldgnbr":"7930","predir":null,"streetname":"EASTERN","streettype":"AVE","suffdir":null,"city":"BALTIMORE","state_code":"MD","zip5":"21224","latitude":"39.2960420000000000","longitude":"-76.508171000000000","publicwifi":"U","url":null,"broadband_type_id":4}
{"id":null,"anchorname":"ACCESSIBLE MRI OF BALTIMORE COUNTY","address":"110 WEST RD  TOWSON MD 21204","bldgnbr":"110","predir":null,"streetname":"WEST","streettype":"RD","suffdir":null,"city":"TOWSON","state_code":"MD","zip5":"21204","latitude":"39.4117894120000000","longitude":"-76.616963268000000","publicwifi":"U","url":null,"broadband_type_id":6}
{"id":null,"anchorname":"FRANCIS L. WIEGMANN, JR. MD","address":"515 FAIRMOUNT AVE TOWSON MD 21286","bldgnbr":"515","predir":null,"streetname":"FAIRMOUNT","streettype":"AVE","suffdir":null,"city":"TOWSON","state_code":"MD","zip5":"21286","latitude":"39.4012096940000000","longitude":"-76.596789863000000","publicwifi":"Y","url":null,"broadband_type_id":6}
{"id":null,"anchorname":"ECONOMIC OPPORTUNITY BOARD OF CLARK COUNTY (EOB)","address":"330 W. WASHINGTON AVE. LAS VEGAS, NV 89106","bldgnbr":"330","predir":null,"streetname":"W. WASHINGTON AVE.","streettype":null,"suffdir":null,"city":"LAS VEGAS","state_code":"NV","zip5":"89106","latitude":"36.1812030000000000","longitude":"-115.14633000000000","publicwifi":"U","url":null,"broadband_type_id":1}
{"id":null,"anchorname":"VARIETY EARLY LEARNING CENTER","address":"990 D ST. LAS VEGAS, NV 89106","bldgnbr":"990","predir":null,"streetname":"D ST.","streettype":null,"suffdir":null,"city":"LAS VEGAS","state_code":"NV","zip5":"89106","latitude":"36.1821740000000000","longitude":"-115.14633000000000","publicwifi":"U","url":null,"broadband_type_id":6}
{"id":null,"anchorname":"LAS VEGAS URBAN LEAGUE","address":"1024 W. OWENS LAS VEGAS, NV 89106","bldgnbr":"1024","predir":null,"streetname":"W. OWENS","streettype":null,"suffdir":null,"city":"LAS VEGAS","state_code":"NV","zip5":"89106","latitude":"36.1885080000000000","longitude":"-115.15496600000000","publicwifi":"U","url":null,"broadband_type_id":null}
{"id":null,"anchorname":"LVUL-BTOP","address":"1024 W. OWENS STREET LAS VEGAS, NV 89105","bldgnbr":"1024","predir":null,"streetname":"W. OWENS","streettype":null,"suffdir":null,"city":"LAS VEGAS","state_code":"NV","zip5":"89105","latitude":"36.1885340000000000","longitude":"-115.15433800000000","publicwifi":"U","url":null,"broadband_type_id":null}
{"id":null,"anchorname":"VA","address":"916 W. OWENS AVE LAS VEGAS, NV 89117","bldgnbr":"916","predir":null,"streetname":"W. OWENS AVE. LAS VEGAS NV 89036","streettype":null,"suffdir":null,"city":"LAS VEGAS","state_code":"NV","zip5":"89117","latitude":"36.1885020000000000","longitude":"-115.15423000000000","publicwifi":"U","url":null,"broadband_type_id":null}
{"id":null,"anchorname":"EMPLOYMENT SECURITY","address":"1001 N. A STREET LAS VEGAS, NV 89106-3206","bldgnbr":"1001","predir":null,"streetname":"N. A STREET","streettype":null,"suffdir":null,"city":"LAS VEGAS","state_code":"NV","zip5":"89106","latitude":"36.1815030000000000","longitude":"-115.15987800000000","publicwifi":"U","url":null,"broadband_type_id":null}
{"id":null,"anchorname":"IGLESIA DIOS DE MILAGROS","address":"311 MADISON ST. LAS VEGAS, NV 89106","bldgnbr":"311","predir":null,"streetname":"MADISON ST.","streettype":null,"suffdir":null,"city":"LAS VEGAS","state_code":"NV","zip5":"89106","latitude":"36.1836670000000000","longitude":"-115.14630300000000","publicwifi":"U","url":null,"broadband_type_id":6}
{"id":null,"anchorname":"A NEW BEGINNING","address":"1009 CUNNINGHAM DR. LAS VEGAS, NV 89101","bldgnbr":"1009","predir":null,"streetname":"CUNNINGHAM DR.","streettype":null,"suffdir":null,"city":"LAS VEGAS","state_code":"NV","zip5":"89101","latitude":"36.1821560000000000","longitude":"-115.15316500000000","publicwifi":"U","url":null,"broadband_type_id":null}
{"id":null,"anchorname":"GOD'S WORD FOR LIFE MINISTRY","address":"615 JACKSON LAS VEGAS, NV 89106","bldgnbr":"615","predir":null,"streetname":"JACKSON","streettype":null,"suffdir":null,"city":"LAS VEGAS","state_code":"NV","zip5":"89106","latitude":"36.1856090000000000","longitude":"-115.15032300000000","publicwifi":"U","url":null,"broadband_type_id":6}
{"id":null,"anchorname":"THE PIER - YOUTH WITH A MISSION","address":"522 W. WASHINGTON AVE LAS VEGAS, NV 89106","bldgnbr":"522","predir":null,"streetname":"W. WASHINGTON AVE","streettype":null,"suffdir":null,"city":"LAS VEGAS","state_code":"NV","zip5":"89106","latitude":"36.1811400000000000","longitude":"-115.14908200000000","publicwifi":"U","url":null,"broadband_type_id":6}
{"id":null,"anchorname":"FEDERAL BUREAU OF INVESTIGATION (FBI)","address":"1787 W. LAKE MEAD BLVD LAS VEGAS, NV 89106","bldgnbr":"1787","predir":null,"streetname":"W. LAKE MEAD BLVD","streettype":null,"suffdir":null,"city":"LAS VEGAS","state_code":"NV","zip5":"89106","latitude":"36.1956810000000000","longitude":"-115.16436700000000","publicwifi":"U","url":null,"broadband_type_id":4}
{"id":null,"anchorname":"EXPERTISE COSMETOLOGY INSTITUTE","address":"1911 STELLA LAKE STREET LAS VEGAS, NV 89106","bldgnbr":"1911","predir":null,"streetname":"STELLA LAKE STREET","streettype":null,"suffdir":null,"city":"LAS VEGAS","state_code":"NV","zip5":"89106","latitude":"36.1937640000000000","longitude":"-115.16441400000000","publicwifi":"U","url":null,"broadband_type_id":6}
{"id":null,"anchorname":"LAS VEGAS - CLARK COUNTY - URBAN LEAGUE","address":"930 W. OWENS LAS VEGAS, NV 89106","bldgnbr":"930","predir":null,"streetname":"W. OWENS","streettype":null,"suffdir":null,"city":"LAS VEGAS","state_code":"NV","zip5":"89106","latitude":"36.1885260000000000","longitude":"-115.15330400000000","publicwifi":"U","url":null,"broadband_type_id":1}
{"id":null,"anchorname":"NEVADA HEALTH CENTERS INC.","address":"1700 WHEELER PEAK LAS VEGAS, NV 89106","bldgnbr":"1700","predir":null,"streetname":"WHEELER PEAK","streettype":null,"suffdir":null,"city":"LAS VEGAS","state_code":"NV","zip5":"89106","latitude":"36.1901850000000000","longitude":"-115.16277400000000","publicwifi":"U","url":null,"broadband_type_id":3}
{"id":null,"anchorname":"UNLV - SCHOOL OF DENTAL MEDICINE - ENTERPRISE DENTAL CLINIC","address":"1750 WHEELER PEAK DR. LAS VEGAS, NV 89106","bldgnbr":"1750","predir":null,"streetname":"WHEELER PEAK DR.","streettype":null,"suffdir":null,"city":"LAS VEGAS","state_code":"NV","zip5":"89106","latitude":"36.1907000000000000","longitude":"-115.16311200000000","publicwifi":"U","url":null,"broadband_type_id":3}
{"id":null,"anchorname":"CHARLES I. WEST ELEMENTARY SCHOOL","address":"2050 SAPPHIRE STONE LAS VEGAS, NV 89106-1839","bldgnbr":"2050","predir":null,"streetname":"SAPPHIRE STONE","streettype":null,"suffdir":null,"city":"LAS VEGAS","state_code":"NV","zip5":"89106","latitude":"36.1926990000000000","longitude":"-115.16930700000000","publicwifi":"U","url":null,"broadband_type_id":6}
{"id":null,"anchorname":"CHARLES I. WEST MIDDLE SCHOOL","address":"2050 SAPPHIRE STONE LAS VEGAS, NV 89106-1839","bldgnbr":"2050","predir":null,"streetname":"SAPPHIRE STONE","streettype":null,"suffdir":null,"city":"LAS VEGAS","state_code":"NV","zip5":"89106","latitude":"36.1926990000000000","longitude":"-115.16930700000000","publicwifi":"U","url":null,"broadband_type_id":6}
{"id":null,"anchorname":"WENDELL P. WILLIAMS ELEMENTARY SCHOOL","address":"1030 J STREET LAS VEGAS, NV 89106","bldgnbr":"1030","predir":null,"streetname":"J STREET","streettype":null,"suffdir":null,"city":"LAS VEGAS","state_code":"NV","zip5":"89106","latitude":"36.1827140000000000","longitude":"-115.15509900000000","publicwifi":"U","url":null,"broadband_type_id":6}
{"id":null,"anchorname":"MATT KELLY E.S. COMMUNITY BASED HEALTH CENTER","address":"1900 N. J STREET LAS VEGAS, NV 89106","bldgnbr":"1900","predir":null,"streetname":"N. J STREET","streettype":null,"suffdir":null,"city":"LAS VEGAS","state_code":"NV","zip5":"89106","latitude":"36.1927270000000000","longitude":"-115.15628400000000","publicwifi":"U","url":null,"broadband_type_id":3}
{"id":null,"anchorname":"MATT KELLY ELEMENTARY SCHOOL","address":"1900 N. J ST. LAS VEGAS, NV 89106-2510","bldgnbr":"1900","predir":null,"streetname":"N. J ST.","streettype":null,"suffdir":null,"city":"LAS VEGAS","state_code":"NV","zip5":"89106","latitude":"36.1928080000000000","longitude":"-115.15607600000000","publicwifi":"U","url":null,"broadband_type_id":6}
