{"id":null,"anchorname":"CHRISTIAN COUNTY MIDDLE SCHOOL","address":"210 GLASS AVE","bldgnbr":"210","predir":null,"streetname":"GLASS","streettype":"AVE","suffdir":null,"city":"Hopkinsville","state_code":"KY","zip5":"42240","latitude":"36.8782720000000000","longitude":"-87.489522000000000","publicwifi":"U","url":null,"broadband_type_id":6}
{"id":null,"anchorname":"CRITTENDEN COUNTY HOSPITAL","address":"520 WEST GUM ST","bldgnbr":"520","predir":null,"streetname":"WEST GUM","streettype":"ST","suffdir":null,"city":"MARION","state_code":"KY","zip5":"42064","latitude":"37.3292040560000000","longitude":"-88.092721053000000","publicwifi":"U","url":null,"broadband_type_id":3}
{"id":null,"anchorname":"SEVEN HILLS ALTERNATIVE SCHOOL","address":"2401 MCCONNELL AVE","bldgnbr":"2401","predir":null,"streetname":"MCCONNELL","streettype":"AVE","suffdir":null,"city":"Owensboro","state_code":"KY","zip5":"42303","latitude":"37.7546460000000000","longitude":"-87.087224000000000","publicwifi":"U","url":null,"broadband_type_id":6}
{"id":null,"anchorname":"LEXINGTON - FAYETTE URBAN COUNTY POLICE","address":"150 E MAIN ST","bldgnbr":"150","predir":"E","streetname":"MAIN","streettype":"ST","suffdir":null,"city":"LEXINGTON","state_code":"KY","zip5":"40507","latitude":"38.0455545140000000","longitude":"-84.496621490000000","publicwifi":"U","url":null,"broadband_type_id":4}
{"id":null,"anchorname":"FAYETTE COUNTY PUBLIC SCHOOLS SECURITY - HENRY CLAY","address":"2100 FONTAINE RD","bldgnbr":"2100","predir":null,"streetname":"FONTAINE","streettype":"RD","suffdir":null,"city":"LEXINGTON","state_code":"KY","zip5":"40502","latitude":"38.0161046760000000","longitude":"-84.468807076000000","publicwifi":"U","url":null,"broadband_type_id":6}
{"id":null,"anchorname":"CLAYS MILL ELEMENTARY SCHOOL","address":"2319 CLAYS MILL RD","bldgnbr":"2319","predir":null,"streetname":"CLAYS MILL","streettype":"RD","suffdir":null,"city":"LEXINGTON","state_code":"KY","zip5":"40503","latitude":"38.0176070000000000","longitude":"-84.537056000000000","publicwifi":"U","url":null,"broadband_type_id":6}
{"id":null,"anchorname":"LEXINGTON PUBLIC LIBRARY - EAGLE CREEK BRANCH","address":"101 N EAGLE CREEK DR","bldgnbr":"101","predir":"N","streetname":"Eagle Creek","streettype":"DR","suffdir":null,"city":"Lexington","state_code":"KY","zip5":"40509","latitude":"37.9982918110000000","longitude":"-84.442648800000000","publicwifi":"U","url":null,"broadband_type_id":6}
{"id":null,"anchorname":"ALLEN ELEMENTARY SCHOOL","address":"112 EAGLE LANE","bldgnbr":"112","predir":null,"streetname":"EAGLE","streettype":"LN","suffdir":null,"city":"ALLEN","state_code":"KY","zip5":"41601","latitude":"37.6317093320000000","longitude":"-82.712773951000000","publicwifi":"U","url":null,"broadband_type_id":6}
{"id":null,"anchorname":"BETSY LAYNE FIRE DEPARTMENT","address":"15 GEORGE RD","bldgnbr":"15","predir":null,"streetname":"GEORGE","streettype":"RD","suffdir":null,"city":"BETSY LAYNE","state_code":"KY","zip5":"41605","latitude":"37.5516613560000000","longitude":"-82.630381686000000","publicwifi":"U","url":null,"broadband_type_id":5}
{"id":null,"anchorname":"SOUTH FLOYD HIGH SCHOOL","address":"299 MOUNT RAIDER DRIVE","bldgnbr":"299","predir":null,"streetname":"MOUNT RAIDER","streettype":"DR","suffdir":null,"city":"HI HAT","state_code":"KY","zip5":"41636","latitude":"37.3830463370000000","longitude":"-82.735124218000000","publicwifi":"U","url":null,"broadband_type_id":6}
{"id":null,"anchorname":"WILKINSON STREET SCHOOL","address":"961 LEESTOWN RD","bldgnbr":"961","predir":null,"streetname":"LEESTOWN","streettype":"RD","suffdir":null,"city":"Frankfort","state_code":"KY","zip5":"40601","latitude":"38.2117560000000000","longitude":"-84.868839000000000","publicwifi":"U","url":null,"broadband_type_id":6}
{"id":null,"anchorname":"ORAN P LAWLER ELEMENTARY SCHOOL","address":"174 HIGH SCHOOL RD","bldgnbr":"174","predir":null,"streetname":"HIGH SCHOOL","streettype":"RD","suffdir":null,"city":"Leitchfield","state_code":"KY","zip5":"42754","latitude":"37.4649850000000000","longitude":"-86.340130000000000","publicwifi":"U","url":null,"broadband_type_id":6}
{"id":null,"anchorname":"GREEN COUNTY PUBLIC LIBRARY","address":"112 W COURT ST","bldgnbr":"112","predir":"W","streetname":"COURT","streettype":"ST","suffdir":null,"city":"GREENSBURG","state_code":"KY","zip5":"42743","latitude":"37.2607847950000000","longitude":"-85.501879279000000","publicwifi":"U","url":null,"broadband_type_id":6}
{"id":null,"anchorname":"RUSSELL MIDDLE SCHOOL","address":"707 RED DEVIL LN","bldgnbr":"707","predir":null,"streetname":"RED DEVIL","streettype":"LN","suffdir":null,"city":"Flatwoods","state_code":"KY","zip5":"41139","latitude":"38.5121749840000000","longitude":"-82.705573289000000","publicwifi":"U","url":null,"broadband_type_id":6}
{"id":null,"anchorname":"HANCOCK COUNTY PUBLIC LIBRARY - LEWISPORT BRANCH","address":"403 SECOND ST","bldgnbr":"403","predir":null,"streetname":"Second","streettype":"ST","suffdir":null,"city":"Lewisport","state_code":"KY","zip5":"42351","latitude":"37.9385948150000000","longitude":"-86.900055238000000","publicwifi":"U","url":null,"broadband_type_id":6}
{"id":null,"anchorname":"ELIZABETHTOWN HIGH SCHOOL","address":"620 N MULBERRY ST","bldgnbr":"620","predir":"N","streetname":"MULBERRY","streettype":"ST","suffdir":null,"city":"Elizabethtown","state_code":"KY","zip5":"42701","latitude":"37.7045960000000000","longitude":"-85.852570000000000","publicwifi":"U","url":null,"broadband_type_id":6}
{"id":null,"anchorname":"HARRISON MEMORIAL HOSPITAL","address":"1210 KENTUCKY HIGHWAY 36 E","bldgnbr":"1210","predir":null,"streetname":"Kentucky Highway 36","streettype":null,"suffdir":"E","city":"Cynthiana","state_code":"KY","zip5":"41031","latitude":"38.3839184030000000","longitude":"-84.277922556000000","publicwifi":"U","url":null,"broadband_type_id":3}
{"id":null,"anchorname":"EDWARDSVILLE NORTH FIRE STATION 2","address":"600 SOUTH EDWARDSVILLE DR, EDWARDSVILLE, KS, 66111-1146","bldgnbr":"600","predir":"S","streetname":"EDWARDSVILLE","streettype":"DR","suffdir":null,"city":"EDWARDSVILLE","state_code":"KS","zip5":"66111","latitude":"39.0873049820000000","longitude":"-94.833745390000000","publicwifi":"U","url":null,"broadband_type_id":5}
{"id":null,"anchorname":"LINDSEY WILSON COLLEGE","address":"210 LINDSEY WILSON ST","bldgnbr":"210","predir":null,"streetname":"LINDSEY WILSON","streettype":"ST","suffdir":null,"city":"COLUMBIA","state_code":"KY","zip5":"42728","latitude":"37.1028026540000000","longitude":"-85.301455735000000","publicwifi":"U","url":"www.lindsey.edu","broadband_type_id":6}
{"id":null,"anchorname":"PINEVILLE ELEMENTARY SCHOOL","address":"401 VIRGINIA AVE","bldgnbr":"401","predir":null,"streetname":"VIRGINIA","streettype":"AVE","suffdir":null,"city":"Pineville","state_code":"KY","zip5":"40977","latitude":"36.7630721660000000","longitude":"-83.697592656000000","publicwifi":"U","url":null,"broadband_type_id":6}
{"id":null,"anchorname":"BRACKEN COUNTY MIDDLE SCHOOL","address":"167 PARSLEY DR","bldgnbr":"167","predir":null,"streetname":"PARSLEY","streettype":"DR","suffdir":null,"city":"Brooksville","state_code":"KY","zip5":"41004","latitude":"38.6843930000000000","longitude":"-84.072537000000000","publicwifi":"U","url":null,"broadband_type_id":6}
{"id":null,"anchorname":"JACKSON CITY SCHOOL","address":"940 HIGHLAND AVE","bldgnbr":"940","predir":null,"streetname":"HIGHLAND","streettype":"AVE","suffdir":null,"city":"Jackson","state_code":"KY","zip5":"41339","latitude":"37.5530620000000000","longitude":"-83.379437000000000","publicwifi":"U","url":null,"broadband_type_id":6}
{"id":null,"anchorname":"CEDAR GROVE ELEMENTARY SCHOOL","address":"1900 CEDAR GROVE RD","bldgnbr":"1900","predir":null,"streetname":"CEDAR GROVE","streettype":"Rd","suffdir":null,"city":"SHEPHERDSVILLE","state_code":"KY","zip5":"40165","latitude":"37.9800060000000000","longitude":"-85.679374000000000","publicwifi":"U","url":null,"broadband_type_id":6}
{"id":null,"anchorname":"CALLOWAY COUNTY PUBLIC LIBRARY","address":"710 MAIN ST","bldgnbr":"710","predir":null,"streetname":"MAIN","streettype":"ST","suffdir":null,"city":"MURRAY","state_code":"KY","zip5":"42071","latitude":"36.6106109400000000","longitude":"-88.306118251000000","publicwifi":"U","url":null,"broadband_type_id":6}
{"id":null,"anchorname":"CAMPBELL COUNTY REGIONAL JUVENILE DETENTION CENTER ALTERNATIVE SCHOOL","address":"590 COLUMBIA ST","bldgnbr":"590","predir":null,"streetname":"COLUMBIA","streettype":"St","suffdir":null,"city":"NEWPORT","state_code":"KY","zip5":"41071","latitude":"39.0897450000000000","longitude":"-84.496438000000000","publicwifi":"U","url":null,"broadband_type_id":6}
{"id":null,"anchorname":"FORT THOMAS POLICE DEPARTMENT","address":"130 N FORT THOMAS AVE","bldgnbr":"130","predir":"N","streetname":"FORT THOMAS","streettype":"AVE","suffdir":null,"city":"FORT THOMAS","state_code":"KY","zip5":"41075","latitude":"39.0811412550000000","longitude":"-84.448909644000000","publicwifi":"U","url":null,"broadband_type_id":4}
{"id":null,"anchorname":"MURRAY STATE UNIVERSITY - HOPKINSVILLE REGIONAL CAMPUS-WEST KENTUCKY REGIONAL POST-SECONDARY EDUCATION CENTER","address":"5305 FORT CAMPBELL BLVD","bldgnbr":"5305","predir":null,"streetname":"FORT CAMPBELL","streettype":"BLVD","suffdir":null,"city":"HOPKINSVILLE","state_code":"KY","zip5":"42240","latitude":"36.8051215060000000","longitude":"-87.474080405000000","publicwifi":"U","url":null,"broadband_type_id":6}
{"id":null,"anchorname":"BLUEGRASS COMMUNITY AND TECHNICAL COLLEGE-WINCHESTER CAMPUS","address":"2020 ROLLING HILLS LN","bldgnbr":"2020","predir":null,"streetname":"ROLLING HILLS","streettype":"LN","suffdir":null,"city":"WINCHESTER","state_code":"KY","zip5":"40391","latitude":"38.0123055180000000","longitude":"-84.178184697000000","publicwifi":"U","url":null,"broadband_type_id":6}
{"id":null,"anchorname":"LEXINGTON PUBLIC LIBRARY - MAIN BRANCH","address":"140 EAST MAIN STREET","bldgnbr":"140","predir":"E","streetname":"MAIN","streettype":"ST","suffdir":null,"city":"LEXINGTON","state_code":"KY","zip5":"40507","latitude":"38.0458119870000000","longitude":"-84.496455236000000","publicwifi":"U","url":null,"broadband_type_id":6}
{"id":null,"anchorname":"WINBURN MIDDLE SCHOOL","address":"1060 WINBURN DRIVE","bldgnbr":"1060","predir":null,"streetname":"WINBURN","streettype":"DR","suffdir":null,"city":"LEXINGTON","state_code":"KY","zip5":"40511","latitude":"38.0876637940000000","longitude":"-84.478079113000000","publicwifi":"U","url":null,"broadband_type_id":6}
{"id":null,"anchorname":"HIGHLANDS REGIONAL MEDICAL CENTER","address":"5000 KENTUCKY ROUTE 321","bldgnbr":"5000","predir":null,"streetname":"Kentucky Route 321","streettype":null,"suffdir":null,"city":"Prestonsburg","state_code":"KY","zip5":"41602","latitude":"37.7287607960000000","longitude":"-82.767760577000000","publicwifi":"U","url":null,"broadband_type_id":3}
{"id":null,"anchorname":"GARRARD COUNTY HEALTH DEPARTMENT","address":"89 FARRA DR","bldgnbr":"89","predir":null,"streetname":"FARRA","streettype":"DR","suffdir":null,"city":"LANCASTER","state_code":"KY","zip5":"40444","latitude":"37.6111210640000000","longitude":"-84.581758377000000","publicwifi":"U","url":null,"broadband_type_id":3}
{"id":null,"anchorname":"GRANT COUNTY HEALTH CENTER","address":"234 BARNES RD","bldgnbr":"234","predir":null,"streetname":"BARNES","streettype":"RD","suffdir":null,"city":"WILLIAMSTOWN","state_code":"KY","zip5":"41097","latitude":"38.6479298960000000","longitude":"-84.576804255000000","publicwifi":"U","url":null,"broadband_type_id":3}
{"id":null,"anchorname":"WESTERN KENTUCKY COMMUNITY AND TECHNICAL COLLEGE-PURCHASE TRAINING CENTER","address":"234 PIONEER INDUSTRIAL DR","bldgnbr":"234","predir":null,"streetname":"PIONEER INDUSTRIAL","streettype":"DR","suffdir":null,"city":"MAYFIELD","state_code":"KY","zip5":"42066","latitude":"36.8178941200000000","longitude":"-88.655201752000000","publicwifi":"N","url":null,"broadband_type_id":6}
{"id":null,"anchorname":"GREENUP COUNTY PUBLIC LIBRARY - MAIN BRANCH","address":"508  MAIN STREET","bldgnbr":"508","predir":null,"streetname":"MAIN","streettype":"ST","suffdir":null,"city":"GREENUP","state_code":"KY","zip5":"41144","latitude":"38.5760972220000000","longitude":"-82.834166384000000","publicwifi":"U","url":null,"broadband_type_id":6}
{"id":null,"anchorname":"WEST POINT ELEMENTARY SCHOOL","address":"209 N 13TH ST","bldgnbr":"209","predir":"N","streetname":"13TH","streettype":"ST","suffdir":null,"city":"West Point","state_code":"KY","zip5":"40177","latitude":"37.9975040000000000","longitude":"-85.956295000000000","publicwifi":"U","url":null,"broadband_type_id":6}
{"id":null,"anchorname":"TALTON K STONE MIDDLE SCHOOL","address":"323 MORNINGSIDE DR","bldgnbr":"323","predir":null,"streetname":"MORNINGSIDE","streettype":"DR","suffdir":null,"city":"Elizabethtown","state_code":"KY","zip5":"42701","latitude":"37.7032380000000000","longitude":"-85.860907000000000","publicwifi":"U","url":null,"broadband_type_id":6}
{"id":null,"anchorname":"SPOTTSVILLE ELEMENTARY SCHOOL","address":"9190 USHY 60 E","bldgnbr":"9190","predir":null,"streetname":"USHY 60","streettype":null,"suffdir":"E","city":"Spottsville","state_code":"KY","zip5":"42458","latitude":"37.8590670000000000","longitude":"-87.453259000000000","publicwifi":"U","url":null,"broadband_type_id":6}
{"id":null,"anchorname":"MURRAY STATE UNIVERSITY-MADISONVILLE REGIONAL CAMPUS","address":"2000 COLLEGE DRIVE","bldgnbr":"2000","predir":null,"streetname":"COLLEGE","streettype":"DR","suffdir":null,"city":"MADISONVILLE","state_code":"KY","zip5":"42431","latitude":"37.3625004840000000","longitude":"-87.512097368000000","publicwifi":"U","url":null,"broadband_type_id":6}
{"id":null,"anchorname":"SHAWNEE MAGNET CAREER ACADEMY","address":"4018 W MARKET ST","bldgnbr":"4018","predir":"W","streetname":"MARKET","streettype":"St","suffdir":null,"city":"LOUISVILLE","state_code":"KY","zip5":"40212","latitude":"38.2620750000000000","longitude":"-85.815323000000000","publicwifi":"U","url":null,"broadband_type_id":3}
{"id":null,"anchorname":"IROQUOIS HIGH SCHOOL","address":"4615 TAYLOR BLVD","bldgnbr":"4615","predir":null,"streetname":"TAYLOR","streettype":"Blvd","suffdir":null,"city":"LOUISVILLE","state_code":"KY","zip5":"40215","latitude":"38.1724470000000000","longitude":"-85.779816000000000","publicwifi":"U","url":null,"broadband_type_id":6}
{"id":null,"anchorname":"UNIVERSITY OF LOUISVILLE-BELKNAP CAMPUS","address":"2301 SOUTH 3RD STREET","bldgnbr":"2301","predir":"S","streetname":"3RD","streettype":"ST","suffdir":null,"city":"LOUISVILLE","state_code":"KY","zip5":"40292","latitude":"38.2166952120000000","longitude":"-85.758492224000000","publicwifi":"U","url":null,"broadband_type_id":6}
{"id":null,"anchorname":"JEFFERSON COUNTY SCHOOL DISTRICT SECURITY","address":"3001 CRITTENDEN DR","bldgnbr":"3001","predir":null,"streetname":"CRITTENDEN","streettype":"DR","suffdir":null,"city":"LOUISVILLE","state_code":"KY","zip5":"40209","latitude":"38.2010950720000000","longitude":"-85.749713055000000","publicwifi":"U","url":null,"broadband_type_id":6}
{"id":null,"anchorname":"AUDUDON TRADITIONAL ELEMENTARY SCHOOL","address":"1051 HESS LANE","bldgnbr":"1051","predir":null,"streetname":"HESS","streettype":"LN","suffdir":null,"city":"LOUISVILLE","state_code":"KY","zip5":"40217","latitude":"38.2079868370000000","longitude":"-85.731255175000000","publicwifi":"U","url":null,"broadband_type_id":6}
{"id":null,"anchorname":"WEST BUECHEL POLICE DEPARTMENT","address":"3705 BASHFORD AVE","bldgnbr":"3705","predir":null,"streetname":"BASHFORD","streettype":"AVE","suffdir":null,"city":"WEST BUECHEL","state_code":"KY","zip5":"40218","latitude":"38.1948380020000000","longitude":"-85.660731299000000","publicwifi":"U","url":null,"broadband_type_id":4}
{"id":null,"anchorname":"BROWN MACKIE COLLEGE-LOUISVILLE","address":"3605 FERN VALLEY ROAD","bldgnbr":"3605","predir":null,"streetname":"FERN VALLEY","streettype":"RD","suffdir":null,"city":"LOUISVILLE","state_code":"KY","zip5":"40219","latitude":"38.1580007600000000","longitude":"-85.695231976000000","publicwifi":"U","url":"www.brownmackie.edu","broadband_type_id":6}
{"id":null,"anchorname":"CORAL RIDGE ELEMENTARY SCHOOL","address":"10608 NATIONAL TURNPIKE","bldgnbr":"10608","predir":null,"streetname":"NATIONAL","streettype":"TPKE","suffdir":null,"city":"FAIRDALE","state_code":"KY","zip5":"40118","latitude":"38.0950360000000000","longitude":"-85.739068435000000","publicwifi":"U","url":null,"broadband_type_id":6}
{"id":null,"anchorname":"CANE RUN ELEMENTARY SCHOOL","address":"3951 CANE RUN ROAD","bldgnbr":"3951","predir":null,"streetname":"CANE RUN","streettype":"RD","suffdir":null,"city":"LOUISVILLE","state_code":"KY","zip5":"40211","latitude":"38.2095940000000000","longitude":"-85.822431000000000","publicwifi":"U","url":null,"broadband_type_id":6}
{"id":null,"anchorname":"NICHOLASVILLE POLICE DEPARTMENT","address":"510 N MAIN ST","bldgnbr":"510","predir":"N","streetname":"MAIN","streettype":"ST","suffdir":null,"city":"NICHOLASVILLE","state_code":"KY","zip5":"40356","latitude":"37.8863418530000000","longitude":"-84.570149759000000","publicwifi":"U","url":null,"broadband_type_id":4}
{"id":null,"anchorname":"NICHOLASVILLE ELEMENTARY SCHOOL","address":"414 W MAPLE ST","bldgnbr":"414","predir":"W","streetname":"MAPLE","streettype":"ST","suffdir":null,"city":"Nicholasville","state_code":"KY","zip5":"40356","latitude":"37.8798440000000000","longitude":"-84.578618000000000","publicwifi":"U","url":null,"broadband_type_id":6}
{"id":null,"anchorname":"NORTHERN KENTUCKY INDEPENDENT DISTRICT HEALTH DEPARTMENT","address":"610 MEDICAL VILLAGE DR","bldgnbr":"610","predir":null,"streetname":"MEDICAL VILLAGE","streettype":"DR","suffdir":null,"city":"EDGEWOOD","state_code":"KY","zip5":"41017","latitude":"39.0098760120000000","longitude":"-84.564424355000000","publicwifi":"U","url":null,"broadband_type_id":3}
{"id":null,"anchorname":"BIGGS EARLY CHILDHOOD PRESCHOOL CENTER","address":"1124 SCOTT BLVD","bldgnbr":"1124","predir":null,"streetname":"SCOTT","streettype":"Blvd","suffdir":null,"city":"COVINGTON","state_code":"KY","zip5":"41011","latitude":"39.0783820000000000","longitude":"-84.506782000000000","publicwifi":"U","url":null,"broadband_type_id":6}
{"id":null,"anchorname":"Hazard Community College KY School of Craft","address":"PO Box 1498","bldgnbr":"1498","predir":null,"streetname":"PO Box","streettype":null,"suffdir":null,"city":"Hindman","state_code":"KY","zip5":"41822","latitude":"37.3341014570000000","longitude":"-82.975037961000000","publicwifi":"U","url":null,"broadband_type_id":6}
{"id":null,"anchorname":"CORDIA ELEMENTARY SCHOOL","address":"6050 LOTTS CREEK RD","bldgnbr":"6050","predir":null,"streetname":"LOTTS CREEK","streettype":"Rd","suffdir":null,"city":"HAZARD","state_code":"KY","zip5":"41701","latitude":"37.2766560000000000","longitude":"-83.110301000000000","publicwifi":"U","url":null,"broadband_type_id":6}
{"id":null,"anchorname":"HAZEL GREEN ELEMENTARY SCHOOL","address":"2515 HWY 1394","bldgnbr":"2515","predir":null,"streetname":"HWY 1394","streettype":null,"suffdir":null,"city":"East Bernstadt","state_code":"KY","zip5":"40729","latitude":"37.2207800000000000","longitude":"-84.101947000000000","publicwifi":"U","url":null,"broadband_type_id":6}
{"id":null,"anchorname":"LAUREL COUNTY HEALTH DEPARTMENT","address":"525 WHITLEY ST","bldgnbr":"525","predir":null,"streetname":"WHITLEY","streettype":"ST","suffdir":null,"city":"LONDON","state_code":"KY","zip5":"40741","latitude":"37.1134226420000000","longitude":"-84.085456343000000","publicwifi":"U","url":null,"broadband_type_id":3}
{"id":null,"anchorname":"St. Catherine of Siena School (C)","address":"400 Codifer Boulevard","bldgnbr":"400","predir":null,"streetname":"CODIFER","streettype":null,"suffdir":null,"city":"Metairie","state_code":"LA","zip5":"70005","latitude":"29.9870910880000000","longitude":"-90.142752996000000","publicwifi":"U","url":null,"broadband_type_id":6}
{"id":null,"anchorname":"MORTON MIDDLE SCHOOL","address":"1225 TATES CREEK ROAD","bldgnbr":"1225","predir":null,"streetname":"TATES CREEK","streettype":"RD","suffdir":null,"city":"LEXINGTON","state_code":"KY","zip5":"40502","latitude":"38.0238931910000000","longitude":"-84.490694404000000","publicwifi":"U","url":null,"broadband_type_id":6}
{"id":null,"anchorname":"GARDEN SPRINGS ELEMENTARY SCHOOL","address":"2151 GARDEN SPRINGS DRIVE","bldgnbr":"2151","predir":null,"streetname":"GARDEN SPRINGS","streettype":"DR","suffdir":null,"city":"LEXINGTON","state_code":"KY","zip5":"40504","latitude":"38.0259494540000000","longitude":"-84.548236246000000","publicwifi":"U","url":null,"broadband_type_id":6}
{"id":null,"anchorname":"HALL, BURNETTA DMD","address":"88 CHURCH RD","bldgnbr":"88","predir":null,"streetname":"CHURCH","streettype":"RD","suffdir":null,"city":"Harold","state_code":"KY","zip5":"41635","latitude":"37.5395904250000000","longitude":"-82.642326639000000","publicwifi":"U","url":null,"broadband_type_id":1}
{"id":null,"anchorname":"APPALACHIAN REGION HEALTH CARE MCDOWELL HOSPITAL","address":"9879 KENTUCKY ROUTE 122","bldgnbr":"9879","predir":null,"streetname":"Kentucky Route 122","streettype":null,"suffdir":null,"city":"McDowell","state_code":"KY","zip5":"41631","latitude":"37.4584720660000000","longitude":"-82.749038801000000","publicwifi":"U","url":null,"broadband_type_id":3}
{"id":null,"anchorname":"FULTON COUNTY HEALTH DEPARTMENT - EAST","address":"350 BROWDER ST","bldgnbr":"350","predir":null,"streetname":"BROWDER","streettype":"ST","suffdir":null,"city":"FULTON","state_code":"KY","zip5":"42041","latitude":"36.5120917720000000","longitude":"-88.876213034000000","publicwifi":"U","url":null,"broadband_type_id":3}
{"id":null,"anchorname":"CAMP DICK ROBINSON ELEMENTARY SCHOOL","address":"7541 LEXINGTON RD","bldgnbr":"7541","predir":null,"streetname":"LEXINGTON","streettype":"RD","suffdir":null,"city":"Lancaster","state_code":"KY","zip5":"40444","latitude":"37.6956080000000000","longitude":"-84.664158000000000","publicwifi":"U","url":null,"broadband_type_id":6}
{"id":null,"anchorname":"WILLIAMSTOWN HIGH SCHOOL","address":"300 HELTON ST","bldgnbr":"300","predir":null,"streetname":"HELTON","streettype":"St","suffdir":null,"city":"WILLIAMSTOWN","state_code":"KY","zip5":"41097","latitude":"38.6467020000000000","longitude":"-84.565765000000000","publicwifi":"U","url":null,"broadband_type_id":6}
{"id":null,"anchorname":"BELLEFONTE POLICE DEPARTMENT","address":"705 BELLEFONTE PRINCESS RD","bldgnbr":"705","predir":null,"streetname":"BELLEFONTE PRINCESS","streettype":"RD","suffdir":null,"city":"BELLEFONTE","state_code":"KY","zip5":"41101","latitude":"38.4908779610000000","longitude":"-82.688399768000000","publicwifi":"U","url":null,"broadband_type_id":4}
{"id":null,"anchorname":"JAMES T ALTON MIDDLE SCHOOL","address":"100 COUNTRY CLUB RD","bldgnbr":"100","predir":null,"streetname":"COUNTRY CLUB","streettype":"Rd","suffdir":null,"city":"VINE GROVE","state_code":"KY","zip5":"40175","latitude":"37.8048393930000000","longitude":"-85.988001534000000","publicwifi":"U","url":null,"broadband_type_id":6}
{"id":null,"anchorname":"HARLAN COUNTY SHERIFFS OFFICE","address":"210 E CENTRAL ST","bldgnbr":"210","predir":"E","streetname":"CENTRAL","streettype":"ST","suffdir":null,"city":"HARLAN","state_code":"KY","zip5":"40831","latitude":"36.8466456100000000","longitude":"-83.321289103000000","publicwifi":"U","url":null,"broadband_type_id":4}
{"id":null,"anchorname":"EVARTS ELEMENTARY SCHOOL","address":"132 KEISTER ST","bldgnbr":"132","predir":null,"streetname":"KEISTER","streettype":"ST","suffdir":null,"city":"Evarts","state_code":"KY","zip5":"40828","latitude":"36.8687830000000000","longitude":"-83.193193000000000","publicwifi":"U","url":null,"broadband_type_id":6}
{"id":null,"anchorname":"HORSE CAVE PUBLIC LIBRARY","address":"111 HIGBEE ST","bldgnbr":"111","predir":null,"streetname":"Higbee","streettype":"ST","suffdir":null,"city":"Horse Cave","state_code":"KY","zip5":"42749","latitude":"37.1795940020000000","longitude":"-85.905827755000000","publicwifi":"U","url":null,"broadband_type_id":6}
{"id":null,"anchorname":"HENDERSON COUNTY PUBLIC LIBRARY","address":"101 S MAIN ST","bldgnbr":"101","predir":"S","streetname":"MAIN","streettype":"ST","suffdir":null,"city":"HENDERSON","state_code":"KY","zip5":"42420","latitude":"37.8380326260000000","longitude":"-87.593756279000000","publicwifi":"U","url":null,"broadband_type_id":6}
{"id":null,"anchorname":"KENTUCKY STATE POLICE - POST 2","address":"1000 WENDELL H FORD WESTERN KENTUCKY PKWY","bldgnbr":"1000","predir":null,"streetname":"WENDELL H FORD WESTERN KENTUCKY","streettype":"PKWY","suffdir":null,"city":"NORTONVILLE","state_code":"KY","zip5":"42464","latitude":"37.2114184250000000","longitude":"-87.416737071000000","publicwifi":"U","url":null,"broadband_type_id":4}
{"id":null,"anchorname":"JACKSON COUNTY PUBLIC LIBRARY","address":"338 HIGHWAY 421 NORTH","bldgnbr":"338","predir":null,"streetname":"U.S. Hwy. 421","streettype":null,"suffdir":"N","city":"McKee","state_code":"KY","zip5":"40447","latitude":"37.4299562610000000","longitude":"-84.002934287000000","publicwifi":"U","url":null,"broadband_type_id":6}
{"id":null,"anchorname":"GALEN HEALTH INSTITUTES","address":"1031 ZORN AVE","bldgnbr":"1031 SU400","predir":null,"streetname":"ZORN","streettype":"AVE","suffdir":null,"city":"LOUISVILLE","state_code":"KY","zip5":"40207","latitude":"38.2769728240000000","longitude":"-85.695976726000000","publicwifi":"U","url":"www.galencollege.edu/louisville","broadband_type_id":3}
{"id":null,"anchorname":"DESALES CATHOLIC HIGH SCHOOL","address":"425 W KENWOOD DR","bldgnbr":"425","predir":"W","streetname":"KENWOOD","streettype":"Dr","suffdir":null,"city":"LOUISVILLE","state_code":"KY","zip5":"40214","latitude":"38.1621980000000000","longitude":"-85.773673000000000","publicwifi":"U","url":null,"broadband_type_id":6}
{"id":null,"anchorname":"LOUISVILLE BIBLE COLLEGE","address":"8211 RESTORATION DRIVE","bldgnbr":"8211","predir":null,"streetname":"RESTORATION","streettype":"DR","suffdir":null,"city":"LOUISVILLE","state_code":"KY","zip5":"40228","latitude":"38.1236484260000000","longitude":"-85.612483181000000","publicwifi":"U","url":"www.louisvillebiblecollege.org","broadband_type_id":6}
{"id":null,"anchorname":"BLUE LICK ELEMENTARY SCHOOL","address":"9801 BLUE LICK ROAD","bldgnbr":"9801","predir":null,"streetname":"BLUE LICK","streettype":"RD","suffdir":null,"city":"LOUISVILLE","state_code":"KY","zip5":"40229","latitude":"38.1062498850000000","longitude":"-85.691369522000000","publicwifi":"U","url":null,"broadband_type_id":6}
{"id":null,"anchorname":"SUM BIBLE COLLEGE AND THEOLOGICAL SEMINARY-MINORS LANE","address":"5400 MINORS LANE","bldgnbr":"5400","predir":null,"streetname":"MINORS","streettype":"LANE","suffdir":null,"city":"LOUISVILLE","state_code":"KY","zip5":"40219","latitude":"38.1445698570000000","longitude":"-85.701366352000000","publicwifi":"U","url":null,"broadband_type_id":6}
{"id":null,"anchorname":"DOSS HIGH CAREER ACADEMY","address":"7601 ST ANDREWS CHURCH RD","bldgnbr":"7601","predir":null,"streetname":"ST ANDREWS CHURCH","streettype":"Rd","suffdir":null,"city":"LOUISVILLE","state_code":"KY","zip5":"40214","latitude":"38.1532820000000000","longitude":"-85.813376000000000","publicwifi":"U","url":null,"broadband_type_id":3}
{"id":null,"anchorname":"SPENCERIAN COLLEGE","address":"4627 DIXIE HWY","bldgnbr":"4627","predir":null,"streetname":"DIXIE","streettype":"HWY","suffdir":null,"city":"LOUISVILLE","state_code":"KY","zip5":"40216","latitude":"38.1765988740000000","longitude":"-85.819982322000000","publicwifi":"U","url":"www.spencerian.edu","broadband_type_id":6}
{"id":null,"anchorname":"WEST JESSAMINE HIGH SCHOOL","address":"2101 WILMORE RD","bldgnbr":"2101","predir":null,"streetname":"WILMORE","streettype":"RD","suffdir":null,"city":"Nicholasville","state_code":"KY","zip5":"40356","latitude":"37.8871010000000000","longitude":"-84.615469000000000","publicwifi":"U","url":null,"broadband_type_id":6}
{"id":null,"anchorname":"PORTER ELEMENTARY SCHOOL","address":"7210 USHY 321 S","bldgnbr":"7210","predir":null,"streetname":"USHY 321","streettype":null,"suffdir":"S","city":"Hager Hill","state_code":"KY","zip5":"41222","latitude":"37.7798000000000000","longitude":"-82.798500000000000","publicwifi":"U","url":null,"broadband_type_id":6}
{"id":null,"anchorname":"JOHNSON CENTRAL HIGH SCHOOL","address":"257 N MAYO TRL","bldgnbr":"257","predir":"N","streetname":"MAYO","streettype":"TRL","suffdir":null,"city":"Paintsville","state_code":"KY","zip5":"41240","latitude":"37.8218145900000000","longitude":"-82.816686222000000","publicwifi":"U","url":null,"broadband_type_id":6}
{"id":null,"anchorname":"NORTHERN KENTUCKY YOUTH DEVELOPMENT CENTER ALTERNATIVE SCHOOL","address":"675 EADS RD","bldgnbr":"675","predir":null,"streetname":"EADS","streettype":"Rd","suffdir":null,"city":"CRITTENDEN","state_code":"KY","zip5":"41030","latitude":"38.7982030000000000","longitude":"-84.606352000000000","publicwifi":"U","url":null,"broadband_type_id":6}
{"id":null,"anchorname":"CORDIA HIGH SCHOOL","address":"6050 LOTTS CREEK RD","bldgnbr":"6050","predir":null,"streetname":"LOTTS CREEK","streettype":"Rd","suffdir":null,"city":"HAZARD","state_code":"KY","zip5":"41701","latitude":"37.2761430000000000","longitude":"-83.109198000000000","publicwifi":"U","url":null,"broadband_type_id":6}
{"id":null,"anchorname":"KNOX CENTRAL HIGH SCHOOL","address":"100 PANTHER WAY","bldgnbr":"100","predir":null,"streetname":"PANTHER","streettype":"WAY","suffdir":null,"city":"Barbourville","state_code":"KY","zip5":"40906","latitude":"36.8687120000000000","longitude":"-83.832095000000000","publicwifi":"U","url":null,"broadband_type_id":6}
{"id":null,"anchorname":"LOUISA POLICE DEPARTMENT","address":"215 N MAIN CROSS ST","bldgnbr":"215","predir":"N","streetname":"MAIN CROSS","streettype":"ST","suffdir":null,"city":"LOUISA","state_code":"KY","zip5":"41230","latitude":"38.1171618060000000","longitude":"-82.603617671000000","publicwifi":"U","url":null,"broadband_type_id":4}
{"id":null,"anchorname":"W B MUNCIE ELEMENTARY SCHOOL","address":"140 PIRATE DR","bldgnbr":"140","predir":null,"streetname":"PIRATE","streettype":"Dr","suffdir":null,"city":"WOOTON","state_code":"KY","zip5":"41776","latitude":"37.1831590000000000","longitude":"-83.302908000000000","publicwifi":"U","url":null,"broadband_type_id":6}
{"id":null,"anchorname":"LILLIAN WEBB MEMORIAL LIBRARY","address":"1049 HIGHWAY","bldgnbr":"1049","predir":null,"streetname":"Highway","streettype":null,"suffdir":null,"city":"Neon","state_code":"KY","zip5":"41840","latitude":"37.2069963440000000","longitude":"-82.712443147000000","publicwifi":"U","url":null,"broadband_type_id":6}
{"id":null,"anchorname":"EPHRAIM MCDOWELL FORT LOGAN HOSPITAL","address":"110 METKER TRL","bldgnbr":"110","predir":null,"streetname":"Metker","streettype":"TRL","suffdir":null,"city":"Stanford","state_code":"KY","zip5":"40484","latitude":"37.5446405960000000","longitude":"-84.654205534000000","publicwifi":"U","url":null,"broadband_type_id":3}
{"id":null,"anchorname":"LEWISBURG POLICE DEPARTMENT","address":"451 STACKER ST","bldgnbr":"451","predir":null,"streetname":"STACKER","streettype":"ST","suffdir":null,"city":"LEWISBURG","state_code":"KY","zip5":"42256","latitude":"36.9864211670000000","longitude":"-86.949359669000000","publicwifi":"U","url":null,"broadband_type_id":4}
{"id":null,"anchorname":"DAYMAR COLLEGE-RUSSELLVILLE","address":"206 SAM WALTON WAY","bldgnbr":"206","predir":null,"streetname":"SAM WALTON","streettype":"WAY","suffdir":null,"city":"RUSSELLVILLE","state_code":"KY","zip5":"42276","latitude":"36.8438627930000000","longitude":"-86.917148714000000","publicwifi":"U","url":null,"broadband_type_id":6}
{"id":null,"anchorname":"INEZ ELEMENTARY SCHOOL","address":"5000 ELEMENTARY DR","bldgnbr":"5000","predir":null,"streetname":"ELEMENTARY","streettype":"DR","suffdir":null,"city":"Inez","state_code":"KY","zip5":"41224","latitude":"37.8534070660000000","longitude":"-82.518585085000000","publicwifi":"U","url":null,"broadband_type_id":6}
{"id":null,"anchorname":"MEADOWVIEW REGIONAL HOSPITAL","address":"989 MEDICAL PARK DR","bldgnbr":"989","predir":null,"streetname":"MEDICAL PARK","streettype":"DR","suffdir":null,"city":"Maysville","state_code":"KY","zip5":"41056","latitude":"38.6396102910000000","longitude":"-83.808197021000000","publicwifi":"U","url":null,"broadband_type_id":3}
{"id":null,"anchorname":"DAVID T WILSON ELEMENTARY SCHOOL","address":"1075 OLD EKRON RD","bldgnbr":"1075","predir":null,"streetname":"Old EKRON","streettype":"Rd","suffdir":null,"city":"BRANDENBURG","state_code":"KY","zip5":"40108","latitude":"37.9779280000000000","longitude":"-86.165498000000000","publicwifi":"U","url":null,"broadband_type_id":6}
{"id":null,"anchorname":"MENIFEE COUNTY SHERIFFS OFFICE","address":"192 BACK ST","bldgnbr":"192","predir":null,"streetname":"BACK","streettype":"ST","suffdir":null,"city":"FRENCHBURG","state_code":"KY","zip5":"40322","latitude":"37.9507636830000000","longitude":"-83.627190839000000","publicwifi":"U","url":null,"broadband_type_id":4}
{"id":null,"anchorname":"MENIFFE COUNTY HIGH SCHOOL","address":"119 INDIAN CREEK RD","bldgnbr":"119","predir":null,"streetname":"Indian Creek","streettype":"Rd","suffdir":null,"city":"Frenchburg","state_code":"KY","zip5":"40322","latitude":"37.9512719270000000","longitude":"-83.646050045000000","publicwifi":"U","url":null,"broadband_type_id":6}
{"id":null,"anchorname":"EDMONTON ELEMENTARY SCHOOL","address":"104 HORNET AVE","bldgnbr":"104","predir":null,"streetname":"HORNET","streettype":"AVE","suffdir":null,"city":"Edmonton","state_code":"KY","zip5":"42129","latitude":"36.9809980000000000","longitude":"-85.625422000000000","publicwifi":"U","url":null,"broadband_type_id":6}
{"id":null,"anchorname":"MONROE CO MIDDLE SCHOOL","address":"600 S MAIN ST","bldgnbr":"600","predir":"S","streetname":"MAIN","streettype":"St","suffdir":null,"city":"TOMPKINSVILLE","state_code":"KY","zip5":"42167","latitude":"36.6938870000000000","longitude":"-85.700205000000000","publicwifi":"U","url":null,"broadband_type_id":6}
{"id":null,"anchorname":"HENRY COUNTY HIGH SCHOOL","address":"1120 EMINENCE RD","bldgnbr":"1120","predir":null,"streetname":"EMINENCE","streettype":"RD","suffdir":null,"city":"New Castle","state_code":"KY","zip5":"40050","latitude":"38.4190610000000000","longitude":"-85.168813000000000","publicwifi":"U","url":null,"broadband_type_id":6}
{"id":null,"anchorname":"DAYMAR COLLEGE-CLINTON","address":"1171 HIGHWAY 51 SOUTH","bldgnbr":"1171","predir":null,"streetname":"51","streettype":"HWY","suffdir":"S","city":"CLINTON","state_code":"KY","zip5":"42031","latitude":"36.6426415520000000","longitude":"-88.979112152000000","publicwifi":"U","url":null,"broadband_type_id":6}
{"id":null,"anchorname":"YOUNG ELEMENTARY SCHOOL","address":"3526 W MUHAMMAD ALI BLVD","bldgnbr":"3526","predir":"W","streetname":"MUHAMMAD ALI","streettype":"Blvd","suffdir":null,"city":"LOUISVILLE","state_code":"KY","zip5":"40212","latitude":"38.2565750000000000","longitude":"-85.810244000000000","publicwifi":"U","url":null,"broadband_type_id":6}
{"id":null,"anchorname":"WEBSTER UNIVERSITY-LOUISVILLE","address":"1031 ZORN AVENUE","bldgnbr":"1031 SU200","predir":null,"streetname":"ZORN","streettype":"AVE","suffdir":null,"city":"LOUISVILLE","state_code":"KY","zip5":"40207","latitude":"38.2769254740000000","longitude":"-85.695791667000000","publicwifi":"U","url":null,"broadband_type_id":6}
{"id":null,"anchorname":"LUHR ELEMENTARY SCHOOL","address":"6900 FEGENBUSH LN","bldgnbr":"6900","predir":null,"streetname":"FEGENBUSH","streettype":"LN","suffdir":null,"city":"LOUISVILLE","state_code":"KY","zip5":"40228","latitude":"38.1496239710000000","longitude":"-85.638491088000000","publicwifi":"U","url":null,"broadband_type_id":6}
{"id":null,"anchorname":"KERRICK ELEMENTARY SCHOOL","address":"2210 UPPER HUNTERS TRCE","bldgnbr":"2210","predir":null,"streetname":"UPPER HUNTERS","streettype":"Trce","suffdir":null,"city":"LOUISVILLE","state_code":"KY","zip5":"40216","latitude":"38.1656690000000000","longitude":"-85.837274000000000","publicwifi":"U","url":null,"broadband_type_id":6}
{"id":null,"anchorname":"SCHAFFNER ELEMENTARY SCHOOL","address":"2701 CRUMS LN","bldgnbr":"2701","predir":null,"streetname":"CRUMS","streettype":"Ln","suffdir":null,"city":"LOUISVILLE","state_code":"KY","zip5":"40216","latitude":"38.1958400000000000","longitude":"-85.824337000000000","publicwifi":"U","url":null,"broadband_type_id":6}
{"id":null,"anchorname":"CREEK STATE PARK CARR","address":"2086 SMITHBORO RD","bldgnbr":"2086","predir":null,"streetname":"SMITHBORO","streettype":"RD","suffdir":null,"city":"Sassafras","state_code":"KY","zip5":"41759","latitude":"37.2302677600000000","longitude":"-83.001153649000000","publicwifi":"U","url":null,"broadband_type_id":2}
{"id":null,"anchorname":"HUNTER HILLS ELEMENTARY SCHOOL","address":"8325 S USHY 25","bldgnbr":"8325","predir":"S","streetname":"USHY 25","streettype":null,"suffdir":null,"city":"Corbin","state_code":"KY","zip5":"40701","latitude":"36.9962810000000000","longitude":"-84.080840000000000","publicwifi":"U","url":null,"broadband_type_id":6}
{"id":null,"anchorname":"FLEMING-NEON CITY HALL","address":"955 HIGHWAY","bldgnbr":"955","predir":null,"streetname":"HIGHWAY","streettype":null,"suffdir":null,"city":"FLEMING-NEON","state_code":"KY","zip5":"41840","latitude":"37.1912864830000000","longitude":"-82.713848702000000","publicwifi":"U","url":null,"broadband_type_id":1}
{"id":null,"anchorname":"HARRY M. CAUDILL MEMORIAL LIBRARY","address":"220 E MAIN ST","bldgnbr":"220","predir":"E","streetname":"MAIN","streettype":"ST","suffdir":null,"city":"WHITESBURG","state_code":"KY","zip5":"41858","latitude":"37.1176397070000000","longitude":"-82.825065246000000","publicwifi":"U","url":null,"broadband_type_id":6}
{"id":null,"anchorname":"HUSTONVILLE POLICE DEPARTMENT","address":"7910 LIBERTY RD","bldgnbr":"7910","predir":null,"streetname":"LIBERTY","streettype":"RD","suffdir":null,"city":"HUSTONVILLE","state_code":"KY","zip5":"40437","latitude":"37.4714386510000000","longitude":"-84.816514559000000","publicwifi":"U","url":null,"broadband_type_id":4}
{"id":null,"anchorname":"LOGAN COUNTY ALTERNATIVE SCHOOL","address":"2200 BOWLING GREEN RD","bldgnbr":"2200","predir":null,"streetname":"BOWLING GREEN","streettype":"Rd","suffdir":null,"city":"RUSSELLVILLE","state_code":"KY","zip5":"42276","latitude":"36.8447250000000000","longitude":"-86.847576000000000","publicwifi":"U","url":null,"broadband_type_id":6}
{"id":null,"anchorname":"LONE OAK POLICE DEPARTMENT","address":"133 CUMBERLAND AVE","bldgnbr":"133","predir":null,"streetname":"CUMBERLAND","streettype":"AVE","suffdir":null,"city":"PADUCAH","state_code":"KY","zip5":"42001","latitude":"37.0365267540000000","longitude":"-88.665561618000000","publicwifi":"U","url":null,"broadband_type_id":4}
{"id":null,"anchorname":"CITY HALL,RICHMOND","address":"239 W MAIN ST","bldgnbr":"239","predir":"W","streetname":"MAIN","streettype":"ST","suffdir":null,"city":"Richmond","state_code":"KY","zip5":"40475","latitude":"37.7482503810000000","longitude":"-84.296183447000000","publicwifi":"U","url":null,"broadband_type_id":1}
{"id":null,"anchorname":"MARION COUNTY SHERIFFS OFFICE","address":"223 N SPALDING AVE","bldgnbr":"223","predir":"N","streetname":"SPALDING","streettype":"AVE","suffdir":null,"city":"LEBANON","state_code":"KY","zip5":"40033","latitude":"37.5712012550000000","longitude":"-85.252894185000000","publicwifi":"U","url":null,"broadband_type_id":4}
{"id":null,"anchorname":"MARTIN COUNTY HEALTH DEPARTMENT","address":"261 MAIN STREET","bldgnbr":"261","predir":null,"streetname":"MAIN","streettype":"ST","suffdir":null,"city":"INEZ","state_code":"KY","zip5":"41224","latitude":"37.8698497020000000","longitude":"-82.542103380000000","publicwifi":"U","url":null,"broadband_type_id":3}
{"id":null,"anchorname":"METCALFE COUNTY HEALTH DEPARTMENT","address":"615 W STOCKTON ST","bldgnbr":"615","predir":"W","streetname":"STOCKTON","streettype":"ST","suffdir":null,"city":"EDMONTON","state_code":"KY","zip5":"42129","latitude":"36.9809299170000000","longitude":"-85.622066294000000","publicwifi":"U","url":null,"broadband_type_id":3}
{"id":null,"anchorname":"CITY HALL,CAMARGO","address":"4406 CAMARGO RD","bldgnbr":"4406","predir":null,"streetname":"CAMARGO","streettype":"RD","suffdir":null,"city":"Mount Sterling","state_code":"KY","zip5":"40353","latitude":"37.9976261100000000","longitude":"-83.895046223000000","publicwifi":"U","url":null,"broadband_type_id":1}
{"id":null,"anchorname":"MORGAN COUNTY MIDDLE SCHOOL","address":"380 ROAD TO SUCCESS","bldgnbr":"380","predir":null,"streetname":"Road To Success","streettype":null,"suffdir":null,"city":"West Liberty","state_code":"KY","zip5":"41472","latitude":"37.9537200000000000","longitude":"-83.225731000000000","publicwifi":"U","url":null,"broadband_type_id":6}
{"id":null,"anchorname":"MUHLENBERG COUNTY HEALTH DEPARTMENT","address":"105 LEGION DR","bldgnbr":"105","predir":null,"streetname":"LEGION","streettype":"DR","suffdir":null,"city":"CENTRAL CITY","state_code":"KY","zip5":"42330","latitude":"37.2941179680000000","longitude":"-87.128265348000000","publicwifi":"U","url":null,"broadband_type_id":3}
{"id":null,"anchorname":"GREENVILLE POLICE DEPARTMENT","address":"200 COURT ST","bldgnbr":"200","predir":null,"streetname":"COURT","streettype":"ST","suffdir":null,"city":"GREENVILLE","state_code":"KY","zip5":"42345","latitude":"37.2000979820000000","longitude":"-87.177315010000000","publicwifi":"U","url":null,"broadband_type_id":4}
{"id":null,"anchorname":"NICHOLAS COUNTY HIGH SCHOOL","address":"103 SCHOOL DR","bldgnbr":"103","predir":null,"streetname":"SCHOOL","streettype":"DR","suffdir":null,"city":"Carlisle","state_code":"KY","zip5":"40311","latitude":"38.3172230000000000","longitude":"-84.038050518000000","publicwifi":"U","url":null,"broadband_type_id":6}
{"id":null,"anchorname":"FORDSVILLE ELEMENTARY SCHOOL","address":"359 W MAIN ST","bldgnbr":"359","predir":"W","streetname":"MAIN","streettype":"ST","suffdir":null,"city":"Fordsville","state_code":"KY","zip5":"42343","latitude":"37.6376310000000000","longitude":"-86.724366000000000","publicwifi":"U","url":null,"broadband_type_id":6}
{"id":null,"anchorname":"ROBINSON ELEMENTARY SCHOOL","address":"3311 PIGEONROOST RD","bldgnbr":"3311","predir":null,"streetname":"PIGEONROOST","streettype":"RD","suffdir":null,"city":"ARY","state_code":"KY","zip5":"41712","latitude":"37.3675330000000000","longitude":"-83.149791000000000","publicwifi":"U","url":null,"broadband_type_id":6}
{"id":null,"anchorname":"PIKE COUNTY PUBLIC LIBRARY - PIKEVILLE PUBLIC LIBRARY","address":"119 COLLEGE ST","bldgnbr":"119","predir":null,"streetname":"College","streettype":"ST","suffdir":null,"city":"Pikeville","state_code":"KY","zip5":"41501","latitude":"37.4778811330000000","longitude":"-82.519646491000000","publicwifi":"U","url":null,"broadband_type_id":6}
{"id":null,"anchorname":"SHELBY COUNTY PUBLIC LIBRARY","address":"309 EIGHTH ST","bldgnbr":"309","predir":null,"streetname":"Eighth","streettype":"ST","suffdir":null,"city":"Shelbyville","state_code":"KY","zip5":"40065","latitude":"38.2126901830000000","longitude":"-85.220157660000000","publicwifi":"U","url":null,"broadband_type_id":6}
{"id":null,"anchorname":"SIMPSON COUNTY HEALTH DEPARTMENT","address":"1131 S COLLEGE ST","bldgnbr":"1131","predir":"S","streetname":"COLLEGE","streettype":"ST","suffdir":null,"city":"FRANKLIN","state_code":"KY","zip5":"42134","latitude":"36.6994794580000000","longitude":"-86.577994618000000","publicwifi":"U","url":null,"broadband_type_id":3}
{"id":null,"anchorname":"TRIGG COUNTY SHERIFFS OFFICE","address":"31 JEFFERSON ST","bldgnbr":"31","predir":null,"streetname":"JEFFERSON","streettype":"ST","suffdir":null,"city":"CADIZ","state_code":"KY","zip5":"42211","latitude":"36.8626844760000000","longitude":"-87.838009974000000","publicwifi":"U","url":null,"broadband_type_id":4}
{"id":null,"anchorname":"WARREN COUNTY PUBLIC LIBRARY - GRAHAM DRIVE COMMUNITY LIBRARY","address":"305 GRAHAM DR","bldgnbr":"305","predir":null,"streetname":"Graham","streettype":"DR","suffdir":null,"city":"Bowling Green","state_code":"KY","zip5":"42101","latitude":"37.0032909110000000","longitude":"-86.441805698000000","publicwifi":"U","url":null,"broadband_type_id":6}
{"id":null,"anchorname":"Bowling Green Tech College Main - Hub Site","address":"1845 Loop Drive","bldgnbr":"1845","predir":null,"streetname":"Loop","streettype":"Drive","suffdir":null,"city":"Bowling Green","state_code":"KY","zip5":"42101","latitude":"36.9504347550000000","longitude":"-86.477281898000000","publicwifi":"U","url":null,"broadband_type_id":6}
{"id":null,"anchorname":"ROGERS ELEMENTARY SCHOOL","address":"1750 S KY 715","bldgnbr":"1745","predir":"S","streetname":"KY 715","streettype":null,"suffdir":null,"city":"Rogers","state_code":"KY","zip5":"41365","latitude":"37.7433760000000000","longitude":"-83.635811000000000","publicwifi":"U","url":null,"broadband_type_id":6}
{"id":null,"anchorname":"WOLFE COUNTY VOLUNTEER FIRE DEPARTMENT","address":"191 MAIN ST","bldgnbr":"191","predir":null,"streetname":"MAIN","streettype":"ST","suffdir":null,"city":"CAMPTON","state_code":"KY","zip5":"41301","latitude":"37.7343060300000000","longitude":"-83.546794051000000","publicwifi":"U","url":null,"broadband_type_id":5}
{"id":null,"anchorname":"WOODFORD COUNTY HIGH SCHOOL","address":"180 FRANKFORT ST","bldgnbr":"180","predir":null,"streetname":"FRANKFORT","streettype":"ST","suffdir":null,"city":"Versailles","state_code":"KY","zip5":"40383","latitude":"38.0622570000000000","longitude":"-84.731652000000000","publicwifi":"U","url":null,"broadband_type_id":6}
{"id":null,"anchorname":"Rayne Catholic Elementary School (C)","address":"407 South Polk Street","bldgnbr":"407","predir":"S","streetname":"POLK","streettype":null,"suffdir":null,"city":"Rayne","state_code":"LA","zip5":"70578","latitude":"30.2326398670000000","longitude":"-92.267025922000000","publicwifi":"U","url":null,"broadband_type_id":6}
{"id":null,"anchorname":"CROWLEY FIRE DEPARTMENT CENTRAL FIRE STATION","address":"104 WEST HUTCHINSON AVENUE","bldgnbr":"104","predir":"W","streetname":"HUTCHINSON","streettype":null,"suffdir":null,"city":"Crowley","state_code":"LA","zip5":"70526","latitude":"30.2143760000000000","longitude":"-92.374451000000000","publicwifi":"Y","url":null,"broadband_type_id":5}
{"id":null,"anchorname":"ESTHERWOOD VOLUNTEER FIRE DEPARTMENT","address":"303 FRONT AVENUE","bldgnbr":"303","predir":null,"streetname":"FRONT","streettype":null,"suffdir":null,"city":"Estherwood","state_code":"LA","zip5":"70534","latitude":"30.1807230000000000","longitude":"-92.463768000000000","publicwifi":"U","url":null,"broadband_type_id":5}
{"id":null,"anchorname":"MORSE POLICE DEPARTMENT","address":"232 JULES AVENUE","bldgnbr":"232","predir":null,"streetname":"JULES","streettype":null,"suffdir":null,"city":"Morse","state_code":"LA","zip5":"70559","latitude":"30.1224160000000000","longitude":"-92.500015000000000","publicwifi":"U","url":null,"broadband_type_id":4}
{"id":null,"anchorname":"Allen Parish Libraries","address":"320 S. 6th St.","bldgnbr":"320","predir":"S","streetname":"6TH","streettype":null,"suffdir":null,"city":"Kinder","state_code":"LA","zip5":"70648","latitude":"30.6253950000000000","longitude":"-92.766113000000000","publicwifi":"U","url":null,"broadband_type_id":6}
{"id":null,"anchorname":"LA Technical College-Ascension Campus","address":"9697 Airline Highway","bldgnbr":"9697","predir":null,"streetname":"AIRLINE","streettype":null,"suffdir":null,"city":"Gonzales","state_code":"LA","zip5":"70737","latitude":"30.2031000000000000","longitude":"-90.870598000000000","publicwifi":"U","url":null,"broadband_type_id":6}
{"id":null,"anchorname":"Assumption Health Unit","address":"158 Highway 1008","bldgnbr":"158","predir":null,"streetname":"1008","streettype":"HWY","suffdir":null,"city":"Napoleonville","state_code":"LA","zip5":"70390","latitude":"29.9403290000000000","longitude":"-91.028816000000000","publicwifi":"U","url":null,"broadband_type_id":3}
{"id":null,"anchorname":"BROUILLETTE VOLUNTEER FIRE DEPARTMENT SUBSTATION","address":"4036 STATE HIGHWAY 452","bldgnbr":"4036","predir":null,"streetname":"452","streettype":"HWY","suffdir":null,"city":"Marksville","state_code":"LA","zip5":"71351","latitude":"31.2103560000000000","longitude":"-92.027817000000000","publicwifi":"U","url":null,"broadband_type_id":5}
{"id":null,"anchorname":"KNOX APPALACHIAN SCHOOL","address":"1909 KY HWY 3439","bldgnbr":"1909","predir":null,"streetname":"Sthy 3439","streettype":null,"suffdir":null,"city":"BARBOURVILLE","state_code":"KY","zip5":"40906","latitude":"36.8702960000000000","longitude":"-83.848129000000000","publicwifi":"U","url":null,"broadband_type_id":6}
{"id":null,"anchorname":"MARTHA JANE POTTER ELEMENTARY SCHOOL","address":"55 KONA DRIVE","bldgnbr":"55","predir":null,"streetname":"KONA","streettype":"DR","suffdir":null,"city":"WHITESBURG","state_code":"KY","zip5":"41858","latitude":"37.1574270000000000","longitude":"-82.740685000000000","publicwifi":"U","url":null,"broadband_type_id":6}
{"id":null,"anchorname":"AUBURN FIRE DEPARTMENT","address":"108 SPRING ST  AUBURN, KY  42206","bldgnbr":"108","predir":null,"streetname":"Spring","streettype":"Street","suffdir":null,"city":"AUBURN","state_code":"KY","zip5":"42206","latitude":"36.8630000000000000","longitude":"-86.709500000000000","publicwifi":"U","url":null,"broadband_type_id":5}
{"id":null,"anchorname":"LEWISBURG CITY HALL","address":"148 N SECOND ST","bldgnbr":"148","predir":"N","streetname":"SECOND","streettype":"ST","suffdir":null,"city":"N/A","state_code":"KY","zip5":"42256","latitude":"36.9863007790000000","longitude":"-86.949591899000000","publicwifi":"U","url":null,"broadband_type_id":1}
{"id":null,"anchorname":"RUSSELLVILLE CITY POLICE DEPARTMENT","address":"168 S MAIN ST","bldgnbr":"168","predir":"S","streetname":"MAIN","streettype":"ST","suffdir":null,"city":"RUSSELLVILLE","state_code":"KY","zip5":"42276","latitude":"36.8448381350000000","longitude":"-86.887060514000000","publicwifi":"U","url":null,"broadband_type_id":4}
{"id":null,"anchorname":"MCCRACKEN COUNTY SCHOOLS DEPARTMENT OF PUBLIC SAFETY","address":"435 BERGER RD","bldgnbr":"435","predir":null,"streetname":"BERGER","streettype":"RD","suffdir":null,"city":"PADUCAH","state_code":"KY","zip5":"42003","latitude":"37.0599311560000000","longitude":"-88.637617334000000","publicwifi":"U","url":null,"broadband_type_id":6}
{"id":null,"anchorname":"LONE OAK MIDDLE SCHOOL","address":"300 CUMBERLAND AVE","bldgnbr":"300","predir":null,"streetname":"CUMBERLAND","streettype":"AVE","suffdir":null,"city":"Paducah","state_code":"KY","zip5":"42001","latitude":"37.0389150000000000","longitude":"-88.667736000000000","publicwifi":"U","url":null,"broadband_type_id":6}
{"id":null,"anchorname":"MADISON SOUTHERN HIGH SCHOOL","address":"279 GLADES RD","bldgnbr":"279","predir":null,"streetname":"GLADES","streettype":"RD","suffdir":null,"city":"Berea","state_code":"KY","zip5":"40403","latitude":"37.5874560000000000","longitude":"-84.287501000000000","publicwifi":"U","url":null,"broadband_type_id":6}
{"id":null,"anchorname":"WEST MARION ELEMENTARY SCHOOL","address":"8175 LORETTO RD","bldgnbr":"8175","predir":null,"streetname":"LORETTO","streettype":"RD","suffdir":null,"city":"Loretto","state_code":"KY","zip5":"40037","latitude":"37.6245440000000000","longitude":"-85.374278000000000","publicwifi":"U","url":null,"broadband_type_id":6}
{"id":null,"anchorname":"MAYSVILLE POLICE DEPT.","address":"212 GOVERNMENT ST","bldgnbr":"212","predir":null,"streetname":"GOVERNMENT","streettype":"ST","suffdir":null,"city":"MAYSVILLE","state_code":"KY","zip5":"41056","latitude":"38.6460418700000000","longitude":"-83.761009216000000","publicwifi":"U","url":null,"broadband_type_id":4}
{"id":null,"anchorname":"MASON COUNTY MIDDLE SCHOOL","address":"420 CHENAULT DR","bldgnbr":"420","predir":null,"streetname":"CHENAULT","streettype":"DR","suffdir":null,"city":"Maysville","state_code":"KY","zip5":"41056","latitude":"38.6329020000000000","longitude":"-83.787902000000000","publicwifi":"U","url":null,"broadband_type_id":6}
{"id":null,"anchorname":"SPECIALTY CLINIC","address":"991 MEDICAL PARK DR","bldgnbr":"991","predir":null,"streetname":"MEDICAL PARK","streettype":"DR","suffdir":null,"city":"Maysville","state_code":"KY","zip5":"41056","latitude":"38.6396102910000000","longitude":"-83.808197021000000","publicwifi":"U","url":null,"broadband_type_id":3}
{"id":null,"anchorname":"MASON COUNTY INTERMEDIATE SCHOOL","address":"720 CLARKS RUN","bldgnbr":"720","predir":null,"streetname":"CLARKS","streettype":"Run","suffdir":null,"city":"MAYSVILLE","state_code":"KY","zip5":"41056","latitude":"38.6213459740000000","longitude":"-83.812992065000000","publicwifi":"U","url":null,"broadband_type_id":6}
{"id":null,"anchorname":"METCALFE COUNTY COURTHOUSE","address":"100 W STOCKTON ST","bldgnbr":"100","predir":"W","streetname":"STOCKTON","streettype":"ST","suffdir":null,"city":"EDMONTON","state_code":"KY","zip5":"42129","latitude":"36.9792042810000000","longitude":"-85.611421517000000","publicwifi":"U","url":null,"broadband_type_id":1}
{"id":null,"anchorname":"GAMALIEL ELEMENTARY SCHOOL","address":"320 MAIN ST","bldgnbr":"320","predir":null,"streetname":"MAIN","streettype":"St","suffdir":null,"city":"GAMALIEL","state_code":"KY","zip5":"42140","latitude":"36.6404983900000000","longitude":"-85.795493756000000","publicwifi":"U","url":null,"broadband_type_id":6}
{"id":null,"anchorname":"CANEY VALLEY FIRE DEPARTMENT","address":"1380 HWY 191","bldgnbr":"1380","predir":null,"streetname":"Hwy 191","streettype":null,"suffdir":null,"city":"WEST LIBERTY","state_code":"KY","zip5":"41472","latitude":"37.8863413720000000","longitude":"-83.266261684000000","publicwifi":"U","url":null,"broadband_type_id":5}
{"id":null,"anchorname":"SHELBY VALLEY DAY TREATMENT CONTROL ALTERNATIVE SCHOOL","address":"95 DOUGLAS PARK","bldgnbr":"95","predir":null,"streetname":"DOUGLAS","streettype":"Park","suffdir":null,"city":"PIKEVILLE","state_code":"KY","zip5":"41501","latitude":"37.3781900000000000","longitude":"-82.543090000000000","publicwifi":"U","url":null,"broadband_type_id":6}
{"id":null,"anchorname":"SOMERSET POLICE DEPARTMENT","address":"400 E MOUNT VERNON ST","bldgnbr":"400","predir":"E","streetname":"MOUNT VERNON","streettype":"ST","suffdir":null,"city":"SOMERSET","state_code":"KY","zip5":"42501","latitude":"37.0935015560000000","longitude":"-84.601134075000000","publicwifi":"U","url":null,"broadband_type_id":4}
{"id":null,"anchorname":"WESTERN ELEMENTARY SCHOOL","address":"1901 FRANKFORT PIKE","bldgnbr":"1901","predir":null,"streetname":"FRANKFORT","streettype":"PIKE","suffdir":null,"city":"GEORGETOWN","state_code":"KY","zip5":"40324","latitude":"38.2117309010000000","longitude":"-84.597384395000000","publicwifi":"U","url":null,"broadband_type_id":6}
{"id":null,"anchorname":"CAMPBELLSVILLE CITY HALL","address":"110 S COLUMBIA AVE","bldgnbr":"110","predir":"S","streetname":"COLUMBIA","streettype":"AVE","suffdir":null,"city":"CAMPBELLSVILLE","state_code":"KY","zip5":"42718","latitude":"37.3399878950000000","longitude":"-85.344190877000000","publicwifi":"U","url":null,"broadband_type_id":1}
{"id":null,"anchorname":"BARREN RIVER DISTRICT HEALTH DEPARTMENT","address":"1109 STATE ST","bldgnbr":"1109","predir":null,"streetname":"STATE","streettype":"ST","suffdir":null,"city":"BOWLING GREEN","state_code":"KY","zip5":"42101","latitude":"36.9911588840000000","longitude":"-86.443814928000000","publicwifi":"U","url":null,"broadband_type_id":3}
{"id":null,"anchorname":"WARREN EAST HIGH SCHOOL","address":"6867 LOUISVILLE RD","bldgnbr":"6867","predir":null,"streetname":"LOUISVILLE","streettype":"RD","suffdir":null,"city":"Bowling Green","state_code":"KY","zip5":"42101","latitude":"37.0363620000000000","longitude":"-86.339872000000000","publicwifi":"U","url":null,"broadband_type_id":6}
{"id":null,"anchorname":"WEBSTER COUNTY HEALTH DEPARTMENT","address":"80 CLAYTON AVE","bldgnbr":"80","predir":null,"streetname":"CLAYTON","streettype":"AVE","suffdir":null,"city":"DIXON","state_code":"KY","zip5":"42409","latitude":"37.5197029300000000","longitude":"-87.688299258000000","publicwifi":"U","url":null,"broadband_type_id":3}
{"id":null,"anchorname":"VERSAILLES POLICE DEPARTMENT","address":"110 S COURT ST","bldgnbr":"110","predir":"S","streetname":"COURT","streettype":"ST","suffdir":null,"city":"VERSAILLES","state_code":"KY","zip5":"40383","latitude":"38.0522158930000000","longitude":"-84.730711071000000","publicwifi":"U","url":null,"broadband_type_id":4}
{"id":null,"anchorname":"RAYNE VOLUNTEER FIRE DEPARTMENT MAIN STATION","address":"318 SOUTH ADAMS AVENUE","bldgnbr":"318","predir":"S","streetname":"ADAMS","streettype":null,"suffdir":null,"city":"Rayne","state_code":"LA","zip5":"70578","latitude":"30.2334560000000000","longitude":"-92.268967000000000","publicwifi":"U","url":null,"broadband_type_id":5}
{"id":null,"anchorname":"Little Friends Child Care and Development Center I","address":"1805 Joseph Pete Street","bldgnbr":"1805","predir":null,"streetname":"JOSEPH PETE","streettype":null,"suffdir":null,"city":"Crowley","state_code":"LA","zip5":"70526","latitude":"30.2085990000000000","longitude":"-92.398102000000000","publicwifi":"U","url":null,"broadband_type_id":3}
{"id":null,"anchorname":"Oberlin Elementary School","address":"110 South 4th Street","bldgnbr":"110","predir":"S","streetname":"4TH","streettype":null,"suffdir":null,"city":"Oberlin","state_code":"LA","zip5":"70655","latitude":"30.6196552980000000","longitude":"-92.768704885000000","publicwifi":"N","url":null,"broadband_type_id":6}
{"id":null,"anchorname":"PRAIRIEVILLE FIRE DEPARTMENT STATION 32","address":"17899 OLD JEFFERSON HIGHWAY","bldgnbr":"17899","predir":null,"streetname":"OLD JEFFERSON","streettype":null,"suffdir":null,"city":"Prairieville","state_code":"LA","zip5":"70769","latitude":"30.3322050000000000","longitude":"-90.981468000000000","publicwifi":"U","url":null,"broadband_type_id":5}
{"id":null,"anchorname":"Dutchtown Primary School","address":"13046 Hwy 73","bldgnbr":"13046","predir":null,"streetname":"73","streettype":"HWY","suffdir":null,"city":"Geismar","state_code":"LA","zip5":"70734","latitude":"30.2561397890000000","longitude":"-90.988372314000000","publicwifi":"U","url":null,"broadband_type_id":6}
{"id":null,"anchorname":"G. W. Carver Primary School","address":"518 West Oak St.","bldgnbr":"518","predir":"W","streetname":"OAK","streettype":null,"suffdir":null,"city":"Gonzales","state_code":"LA","zip5":"70737","latitude":"30.2450164070000000","longitude":"-90.925622290000000","publicwifi":"U","url":null,"broadband_type_id":6}
{"id":null,"anchorname":"Pecan Grove Primary School","address":"3535 East Worthey Road","bldgnbr":"3535","predir":"E","streetname":"WORTHEY","streettype":null,"suffdir":null,"city":"Gonzales","state_code":"LA","zip5":"70737","latitude":"30.2194835390000000","longitude":"-90.907095517000000","publicwifi":"U","url":null,"broadband_type_id":6}
{"id":null,"anchorname":"St. Elizabeth Hospital","address":"1125 W HIGHWAY 30","bldgnbr":"1125","predir":"W","streetname":"30","streettype":"HWY","suffdir":null,"city":"Gonzales","state_code":"LA","zip5":"70737","latitude":"30.2106630000000000","longitude":"-90.933113000000000","publicwifi":"Y","url":null,"broadband_type_id":3}
{"id":null,"anchorname":"SORRENTO POLICE DEPARTMENT","address":"8173 MAIN STREET","bldgnbr":"8173","predir":null,"streetname":"MAIN","streettype":null,"suffdir":null,"city":"Sorrento","state_code":"LA","zip5":"70778","latitude":"30.1867690000000000","longitude":"-90.857697000000000","publicwifi":"U","url":null,"broadband_type_id":4}
{"id":null,"anchorname":"Rio-Sol Nursing Home, Inc.","address":"7049 Zylenne St.","bldgnbr":"7049","predir":null,"streetname":"ZYLENNE","streettype":null,"suffdir":null,"city":"Mansura","state_code":"LA","zip5":"71350","latitude":"31.0603010000000000","longitude":"-92.043800000000000","publicwifi":"U","url":null,"broadband_type_id":3}
{"id":null,"anchorname":"DUPONT VOLUNTEER FIRE DEPARTMENT MAIN STATION","address":"5451 STATE HIGHWAY 107 SOUTH","bldgnbr":"5451","predir":null,"streetname":"107","streettype":"HWY","suffdir":null,"city":"Plaucheville","state_code":"LA","zip5":"71362","latitude":"30.9297290000000000","longitude":"-91.951401000000000","publicwifi":"U","url":null,"broadband_type_id":5}
{"id":null,"anchorname":"BEAUREGARD VOLUNTEER FIRE PROTECTION DISTRICT 3 LONGACRE STATION","address":"750 LONGACRE ROAD","bldgnbr":"750","predir":null,"streetname":"LONGACRE","streettype":null,"suffdir":null,"city":"De Ridder","state_code":"LA","zip5":"70634","latitude":"30.8511640000000000","longitude":"-93.151527000000000","publicwifi":"U","url":null,"broadband_type_id":5}
{"id":null,"anchorname":"East Beauregard High School","address":"5364 Highway 113","bldgnbr":"5364","predir":null,"streetname":"113","streettype":"HWY","suffdir":null,"city":"Deridder","state_code":"LA","zip5":"70634","latitude":"30.7456673460000000","longitude":"-93.026832124000000","publicwifi":"N","url":null,"broadband_type_id":6}
{"id":null,"anchorname":"Carver Elementary School","address":"205 Martin Luther King Drive","bldgnbr":"205","predir":null,"streetname":"MARTIN LUTHER KING","streettype":null,"suffdir":null,"city":"De Ridder","state_code":"LA","zip5":"70634","latitude":"30.8438419030000000","longitude":"-93.272721981000000","publicwifi":"U","url":null,"broadband_type_id":6}
{"id":null,"anchorname":"Bienville Parish Library","address":"2768 Maple Street","bldgnbr":"2768","predir":null,"streetname":"MAPLE","streettype":null,"suffdir":null,"city":"Arcadia","state_code":"LA","zip5":"71001","latitude":"32.5524140000000000","longitude":"-92.921448000000000","publicwifi":"Y","url":null,"broadband_type_id":6}
{"id":null,"anchorname":"Bienville Health Unit","address":"1285 Pine St.","bldgnbr":"1285","predir":null,"streetname":"PINE","streettype":null,"suffdir":null,"city":"Arcadia","state_code":"LA","zip5":"71001","latitude":"32.5534590000000000","longitude":"-92.915398000000000","publicwifi":"U","url":null,"broadband_type_id":3}
{"id":null,"anchorname":"Carefree Community Center for Sr. Citizens","address":"1199 4TH ST, SALINE, LA, 71070","bldgnbr":"1199","predir":null,"streetname":"4TH SAINT SALINE LA 71070","streettype":null,"suffdir":null,"city":"Saline","state_code":"LA","zip5":"71070","latitude":"32.1645470000000000","longitude":"-92.977753000000000","publicwifi":"U","url":null,"broadband_type_id":3}
{"id":null,"anchorname":"Rusheon Middle School","address":"2401 Old Minden Road","bldgnbr":"2401","predir":null,"streetname":"OLD MINDEN","streettype":null,"suffdir":null,"city":"Bossier City","state_code":"LA","zip5":"71112","latitude":"32.5206484520000000","longitude":"-93.704341918000000","publicwifi":"U","url":null,"broadband_type_id":6}
{"id":null,"anchorname":"HAZARD COMMUNITY AND TECHNICAL COLLEGE-LESLIE COUNTY CENTER","address":"108 MAPLES AVE","bldgnbr":"108","predir":null,"streetname":"MAPLES","streettype":"AVE","suffdir":null,"city":"HYDEN","state_code":"KY","zip5":"41749","latitude":"37.1637790760000000","longitude":"-83.376514587000000","publicwifi":"U","url":null,"broadband_type_id":6}
{"id":null,"anchorname":"AUBURN CITY HALL","address":"103 E MAIN ST  AUBURN, KY  42206","bldgnbr":"103","predir":"E","streetname":"Main","streettype":"Street","suffdir":null,"city":"Auburn","state_code":"KY","zip5":"42206","latitude":"36.8632000000000000","longitude":"-86.709500000000000","publicwifi":"U","url":null,"broadband_type_id":1}
{"id":null,"anchorname":"LOGAN COUNTY COURTHOUSE","address":"299 W THIRD ST","bldgnbr":"299","predir":"W","streetname":"THIRD","streettype":"ST","suffdir":null,"city":"RUSSELLVILLE","state_code":"KY","zip5":"42276","latitude":"36.8453649900000000","longitude":"-86.889414182000000","publicwifi":"U","url":null,"broadband_type_id":1}
{"id":null,"anchorname":"CLARK ELEMENTARY SCHOOL","address":"3401 BUCKNER LN","bldgnbr":"3401","predir":null,"streetname":"BUCKNER","streettype":"LN","suffdir":null,"city":"Paducah","state_code":"KY","zip5":"42001","latitude":"37.0687660000000000","longitude":"-88.642287000000000","publicwifi":"U","url":null,"broadband_type_id":6}
{"id":null,"anchorname":"HENDRON LONE OAK ELEMENTARY SCHOOL","address":"2501 MARSHALL AVE","bldgnbr":"2501","predir":null,"streetname":"MARSHALL","streettype":"AVE","suffdir":null,"city":"Paducah","state_code":"KY","zip5":"42003","latitude":"37.0409010000000000","longitude":"-88.649668000000000","publicwifi":"U","url":null,"broadband_type_id":6}
{"id":null,"anchorname":"MCLEAN COUNTY COURTHOUSE / SHERIFFS DEPARTMENT","address":"210 MAIN ST","bldgnbr":"210","predir":null,"streetname":"MAIN","streettype":"ST","suffdir":null,"city":"CALHOUN","state_code":"KY","zip5":"42327","latitude":"37.5374806540000000","longitude":"-87.258001211000000","publicwifi":"U","url":null,"broadband_type_id":4}
{"id":null,"anchorname":"GLENN R MARSHALL ELEMENTARY SCHOOL","address":"1442 ROBERT R MARTIN BYP","bldgnbr":"1442","predir":null,"streetname":"ROBERT R MARTIN","streettype":"BYP","suffdir":null,"city":"Richmond","state_code":"KY","zip5":"40475","latitude":"37.7741070000000000","longitude":"-84.289934000000000","publicwifi":"U","url":null,"broadband_type_id":6}
{"id":null,"anchorname":"WHITE HALL ELEMENTARY SCHOOL","address":"2166 LEXINGTON RD","bldgnbr":"2166","predir":null,"streetname":"LEXINGTON","streettype":"RD","suffdir":null,"city":"Richmond","state_code":"KY","zip5":"40475","latitude":"37.7777670000000000","longitude":"-84.321504000000000","publicwifi":"U","url":null,"broadband_type_id":6}
{"id":null,"anchorname":"MAGOFFIN COUNTY SHERIFF","address":"42 E MAPLE ST","bldgnbr":"42","predir":"E","streetname":"MAPLE","streettype":"ST","suffdir":null,"city":"SALYERSVILLE","state_code":"KY","zip5":"41465","latitude":"37.7524073440000000","longitude":"-83.068045715000000","publicwifi":"U","url":null,"broadband_type_id":4}
{"id":null,"anchorname":"LEBANON POLICE DEPARTMENT","address":"124 W MULBERRY ST","bldgnbr":"124","predir":"W","streetname":"MULBERRY","streettype":"ST","suffdir":null,"city":"LEBANON","state_code":"KY","zip5":"40033","latitude":"37.5686088980000000","longitude":"-85.252621872000000","publicwifi":"U","url":null,"broadband_type_id":4}
{"id":null,"anchorname":"MARION COUNTY HIGH SCHOOL","address":"735 E MAIN ST","bldgnbr":"735","predir":"E","streetname":"MAIN","streettype":"ST","suffdir":null,"city":"Lebanon","state_code":"KY","zip5":"40033","latitude":"37.5788930000000000","longitude":"-85.225783000000000","publicwifi":"U","url":null,"broadband_type_id":6}
{"id":null,"anchorname":"CITY HALL,LORETTO","address":"72 SCHOOL DR","bldgnbr":"72","predir":null,"streetname":"SCHOOL","streettype":"DR","suffdir":null,"city":"Loretto","state_code":"KY","zip5":"40037","latitude":"37.6376208450000000","longitude":"-85.402654409000000","publicwifi":"U","url":null,"broadband_type_id":1}
{"id":null,"anchorname":"MASON COUNTY HEALTH DEPARTMENT","address":"130 E 2ND ST","bldgnbr":"130","predir":"E","streetname":"2ND","streettype":"ST","suffdir":null,"city":"MAYSVILLE","state_code":"KY","zip5":"41056","latitude":"38.6462430130000000","longitude":"-83.761590391000000","publicwifi":"U","url":null,"broadband_type_id":3}
{"id":null,"anchorname":"EKRON ELEMENTARY SCHOOL","address":"2500 HAYSVILLE RD","bldgnbr":"2500","predir":null,"streetname":"HAYSVILLE","streettype":"RD","suffdir":null,"city":"Ekron","state_code":"KY","zip5":"40117","latitude":"37.9281650000000000","longitude":"-86.176757000000000","publicwifi":"U","url":null,"broadband_type_id":6}
{"id":null,"anchorname":"METCALFE COUNTY MIDDLE SCHOOL","address":"100 HORNET AVE","bldgnbr":"100","predir":null,"streetname":"HORNET","streettype":"Ave","suffdir":null,"city":"EDMONTON","state_code":"KY","zip5":"42129","latitude":"36.9804710000000000","longitude":"-85.623015000000000","publicwifi":"U","url":null,"broadband_type_id":6}
{"id":null,"anchorname":"WILLIAM B. HARLAN MEMORIAL LIBRARY","address":"500 W FOURTH ST","bldgnbr":"500","predir":"W","streetname":"Fourth","streettype":"ST","suffdir":null,"city":"Tompkinsville","state_code":"KY","zip5":"42167","latitude":"36.7064157160000000","longitude":"-85.699712139000000","publicwifi":"U","url":null,"broadband_type_id":6}
{"id":null,"anchorname":"NELSON COUNTY SHERIFFS OFFICE","address":"210 NELSON COUNTY PLZ","bldgnbr":"210","predir":null,"streetname":"NELSON COUNTY","streettype":"PLZ","suffdir":null,"city":"BARDSTOWN","state_code":"KY","zip5":"40004","latitude":"37.8069667060000000","longitude":"-85.450349257000000","publicwifi":"U","url":null,"broadband_type_id":4}
{"id":null,"anchorname":"NICHOLAS COUNTY SHERIFFS DEPARTMENT","address":"125 E MAIN ST","bldgnbr":"125","predir":"E","streetname":"MAIN","streettype":"ST","suffdir":null,"city":"CARLISLE","state_code":"KY","zip5":"40311","latitude":"38.3125943070000000","longitude":"-84.028149257000000","publicwifi":"U","url":null,"broadband_type_id":4}
{"id":null,"anchorname":"WESTERN ELEMENTARY SCHOOL","address":"4008 KENTUCKY 85","bldgnbr":"4008","predir":null,"streetname":"KENTUCKY 85","streettype":null,"suffdir":null,"city":"CENTERTOWN","state_code":"KY","zip5":"42328","latitude":"37.3615120000000000","longitude":"-86.980000000000000","publicwifi":"U","url":null,"broadband_type_id":6}
{"id":null,"anchorname":"SOUTH OLDHAM HIGH SCHOOL","address":"5901 VETERAN'S MEMORIAL PKY","bldgnbr":"5901","predir":null,"streetname":"VETERAN'S MEMORIAL","streettype":"Pkwy","suffdir":null,"city":"CRESTWOOD","state_code":"KY","zip5":"40014","latitude":"38.3320120000000000","longitude":"-85.469147000000000","publicwifi":"U","url":null,"broadband_type_id":6}
{"id":null,"anchorname":"OWEN COUNTY ELEMENTARY SCHOOL","address":"1945 HWY 22 E","bldgnbr":"1945","predir":null,"streetname":"Hwy 22","streettype":null,"suffdir":"E","city":"OWENTON","state_code":"KY","zip5":"40359","latitude":"38.5220610000000000","longitude":"-84.808288000000000","publicwifi":"U","url":null,"broadband_type_id":6}
{"id":null,"anchorname":"LEATHERWOOD ELEMENTARY SCHOOL","address":"7777 KY HWY","bldgnbr":"7777","predir":null,"streetname":"KY","streettype":"HWY","suffdir":null,"city":"Leatherwood","state_code":"KY","zip5":"41731","latitude":"37.0473580000000000","longitude":"-83.130222000000000","publicwifi":"U","url":null,"broadband_type_id":6}
{"id":null,"anchorname":"BIG SANDY COMMUNITY AND TECHNICAL COLLEGE-PIKEVILLE CAMPUS","address":"120 S RIVERFILL DR","bldgnbr":"120","predir":"S","streetname":"RIVERFILL","streettype":"DR","suffdir":null,"city":"PIKEVILLE","state_code":"KY","zip5":"41501","latitude":"37.4769260000000000","longitude":"-82.518153000000000","publicwifi":"Y","url":null,"broadband_type_id":6}
{"id":null,"anchorname":"SCIENCE HILL ELEMENTARY SCHOOL","address":"6007 N HWY 27","bldgnbr":"6007","predir":"N","streetname":"HWY 27","streettype":null,"suffdir":null,"city":"Science Hill","state_code":"KY","zip5":"42553","latitude":"37.1780294070000000","longitude":"-84.626040169000000","publicwifi":"U","url":null,"broadband_type_id":6}
{"id":null,"anchorname":"SOUTHWESTERN HIGH SCHOOL","address":"1765 WTLO RD","bldgnbr":"1765","predir":null,"streetname":"WTLO","streettype":"RD","suffdir":null,"city":"Somerset","state_code":"KY","zip5":"42503","latitude":"37.0608338640000000","longitude":"-84.655430056000000","publicwifi":"U","url":null,"broadband_type_id":6}
{"id":null,"anchorname":"PULASKI COUNTY SHERIFF","address":"100 N MAIN ST","bldgnbr":"100","predir":"N","streetname":"MAIN","streettype":"ST","suffdir":null,"city":"SOMERSET","state_code":"KY","zip5":"42501","latitude":"37.0922495610000000","longitude":"-84.605052890000000","publicwifi":"U","url":null,"broadband_type_id":4}
{"id":null,"anchorname":"ROCKCASTLE COUNTY HIGH SCHOOL","address":"1545 HWY 461","bldgnbr":"1545","predir":null,"streetname":"Hwy 461","streettype":null,"suffdir":null,"city":"MOUNT VERNON","state_code":"KY","zip5":"40456","latitude":"37.3610940000000000","longitude":"-84.364600000000000","publicwifi":"U","url":null,"broadband_type_id":6}
{"id":null,"anchorname":"MAYSVILLE COMMUNITY AND TECHNICAL COLLEGE-ROWAN CAMPUS","address":"609 VIKING DR","bldgnbr":"609","predir":null,"streetname":"VIKING","streettype":"DR","suffdir":null,"city":"MOREHEAD","state_code":"KY","zip5":"40351","latitude":"38.2062407330000000","longitude":"-83.478568638000000","publicwifi":"U","url":null,"broadband_type_id":6}
{"id":null,"anchorname":"RUSSELL SPRINGS POLICE DEPARTMENT","address":"72 HIGH ST","bldgnbr":"72","predir":null,"streetname":"HIGH","streettype":"ST","suffdir":null,"city":"RUSSELL SPRINGS","state_code":"KY","zip5":"42642","latitude":"37.0574535260000000","longitude":"-85.089224575000000","publicwifi":"U","url":null,"broadband_type_id":4}
{"id":null,"anchorname":"TAYLOR COUNTY HEALTH DEPARTMENT","address":"1880 N BYPASS RD","bldgnbr":"1880","predir":"N","streetname":"BYPASS","streettype":"RD","suffdir":null,"city":"CAMPBELLSVILLE","state_code":"KY","zip5":"42718","latitude":"37.3659851470000000","longitude":"-85.345342890000000","publicwifi":"U","url":null,"broadband_type_id":3}
{"id":null,"anchorname":"UNION COUNTY PUBLIC LIBRARY - UNIONTOWN BRANCH","address":"520 SECOND ST","bldgnbr":"520","predir":null,"streetname":"Second","streettype":"ST","suffdir":null,"city":"Uniontown","state_code":"KY","zip5":"42461","latitude":"37.7748822330000000","longitude":"-87.932926589000000","publicwifi":"U","url":null,"broadband_type_id":6}
{"id":null,"anchorname":"BOWLING GREEN POLICE DEPARTMENT","address":"911 S KENTUCKY ST","bldgnbr":"911","predir":"S","streetname":"KENTUCKY","streettype":"ST","suffdir":null,"city":"BOWLING GREEN","state_code":"KY","zip5":"42101","latitude":"36.9958437890000000","longitude":"-86.444308755000000","publicwifi":"U","url":null,"broadband_type_id":4}
{"id":null,"anchorname":"SOUTHCENTRAL KENTUCKY COMMUNITY AND TECHNICAL COLLEGE-TRANSPARK CENTER","address":"221 COMMONWEALTH BLVD","bldgnbr":"221","predir":null,"streetname":"COMMONWEALTH","streettype":"BLVD","suffdir":null,"city":"BOWLING GREEN","state_code":"KY","zip5":"42101","latitude":"37.0139489570000000","longitude":"-86.458201421000000","publicwifi":"U","url":null,"broadband_type_id":6}
{"id":null,"anchorname":"WAYNE COUNTY EARLY CHILD CONTROL PRESCHOOL","address":"500 ALBANY RD","bldgnbr":"500","predir":null,"streetname":"ALBANY","streettype":"Rd","suffdir":null,"city":"MONTICELLO","state_code":"KY","zip5":"42633","latitude":"36.8249650000000000","longitude":"-84.865710000000000","publicwifi":"U","url":null,"broadband_type_id":6}
{"id":null,"anchorname":"EASTERN KENTUCKY UNIVERSITY-CORBIN REGIONAL CAMPUS","address":"1 PENNINGTON WAY","bldgnbr":"1","predir":null,"streetname":"PENNINGTON","streettype":"WAY","suffdir":null,"city":"CORBIN","state_code":"KY","zip5":"40701","latitude":"36.9155515630000000","longitude":"-84.089975243000000","publicwifi":"U","url":null,"broadband_type_id":6}
{"id":null,"anchorname":"BLUEGRASS COMMUNITY HOSPITAL","address":"360 AMSDEN AVE","bldgnbr":"360","predir":null,"streetname":"Amsden","streettype":"AVE","suffdir":null,"city":"Versailles","state_code":"KY","zip5":"40383","latitude":"38.0549041340000000","longitude":"-84.723390158000000","publicwifi":"U","url":null,"broadband_type_id":3}
{"id":null,"anchorname":"Louisiana State University at Eunice","address":"2048 Johnson Hwy.","bldgnbr":"2048","predir":null,"streetname":"JOHNSON","streettype":null,"suffdir":null,"city":"Eunice","state_code":"LA","zip5":"70535","latitude":"30.4272000000000000","longitude":"-92.456802000000000","publicwifi":"U","url":null,"broadband_type_id":6}
{"id":null,"anchorname":"BRANCH VOLUNTEER FIRE DEPARTMENT SUBSTATION 1","address":"6498 CHURCH POINT HIGHWAY","bldgnbr":"6498","predir":null,"streetname":"CHURCH POINT","streettype":null,"suffdir":null,"city":"Branch","state_code":"LA","zip5":"70516","latitude":"30.3459000000000000","longitude":"-92.267357000000000","publicwifi":"U","url":null,"broadband_type_id":5}
{"id":null,"anchorname":"CROWLEY FIRE DEPARTMENT SUB STATION 1","address":"225 EAST SPRUCE STREET","bldgnbr":"225","predir":"E","streetname":"SPRUCE","streettype":null,"suffdir":null,"city":"Crowley","state_code":"LA","zip5":"70526","latitude":"30.2043400000000000","longitude":"-92.368279000000000","publicwifi":"U","url":null,"broadband_type_id":5}
{"id":null,"anchorname":"Estherwood Elementary School","address":"214 Jefferson Avenue","bldgnbr":"214","predir":null,"streetname":"JEFFERSON","streettype":null,"suffdir":null,"city":"Estherwood","state_code":"LA","zip5":"70534","latitude":"30.1874010000000000","longitude":"-92.464401000000000","publicwifi":"Y","url":null,"broadband_type_id":6}
{"id":null,"anchorname":"GONZALES FIRE STATION","address":"724 W Orice Roth","bldgnbr":"724","predir":null,"streetname":"Orice Roth","streettype":null,"suffdir":null,"city":"Gonzales","state_code":"LA","zip5":"70737","latitude":"30.2181000000000000","longitude":"-90.928800000000000","publicwifi":"U","url":null,"broadband_type_id":5}
{"id":null,"anchorname":"MADISONVILLE COMMUNITY COLLEGE-MUHLENBERG COUNTY CAMPUS","address":"406 W EVERLY BROTHERS BLVD","bldgnbr":"406","predir":"W","streetname":"EVERLY BROTHERS","streettype":"BLVD","suffdir":null,"city":"Central_City","state_code":"KY","zip5":"42330","latitude":"37.2820765230000000","longitude":"-87.119589783000000","publicwifi":"U","url":null,"broadband_type_id":6}
{"id":null,"anchorname":"MUHLENBERG COMMUNITY HOSPITAL","address":"440 HOPKINSVILLE ST","bldgnbr":"440","predir":null,"streetname":"Hopkinsville","streettype":"ST","suffdir":null,"city":"Greenville","state_code":"KY","zip5":"42345","latitude":"37.1965347590000000","longitude":"-87.190142572000000","publicwifi":"U","url":null,"broadband_type_id":3}
{"id":null,"anchorname":"OWEN COUNTY ANIMAL CLINIC","address":"108 BRYAN ST","bldgnbr":"108","predir":null,"streetname":"Bryan","streettype":"St","suffdir":null,"city":"Owenton","state_code":"KY","zip5":"40359","latitude":"38.5364644230000000","longitude":"-84.836774578000000","publicwifi":"U","url":null,"broadband_type_id":3}
{"id":null,"anchorname":"CREEK VOL. FIRE DEPT LOTTS","address":"6894 LOTTS CREEK RD","bldgnbr":"6894","predir":null,"streetname":"LOTTS CREEK","streettype":"RD","suffdir":null,"city":"HAZARD","state_code":"KY","zip5":"41701","latitude":"37.2875346130000000","longitude":"-83.140371165000000","publicwifi":"U","url":null,"broadband_type_id":5}
{"id":null,"anchorname":"HAZARD COMMUNITY AND TECHNICAL COLLEGE-ALLIED HEALTH CAMPUS","address":"750 MORTON BLVD","bldgnbr":"750","predir":null,"streetname":"MORTON","streettype":"BLVD","suffdir":null,"city":"HAZARD","state_code":"KY","zip5":"41701","latitude":"37.2785134110000000","longitude":"-83.222873186000000","publicwifi":"U","url":null,"broadband_type_id":3}
{"id":null,"anchorname":"PIKE COUNTY CENTRAL HIGH SCHOOL","address":"100 WINNERS CIRCLE DR","bldgnbr":"100","predir":null,"streetname":"WINNERS CIRCLE","streettype":"DR","suffdir":null,"city":"Pikeville","state_code":"KY","zip5":"41501","latitude":"37.5145740000000000","longitude":"-82.500345000000000","publicwifi":"U","url":null,"broadband_type_id":6}
{"id":null,"anchorname":"HURRICANE CREEK VOL FIRE DEPARTMENT","address":"2981 HURRICANE RD","bldgnbr":"2981","predir":null,"streetname":"HURRICANE","streettype":"RD","suffdir":null,"city":"PIKEVILLE","state_code":"KY","zip5":"41501","latitude":"37.5136425150000000","longitude":"-82.592238246000000","publicwifi":"U","url":null,"broadband_type_id":5}
{"id":null,"anchorname":"PIKE COUNTY PUBLIC LIBRARY - VESTA ROBERTS JOHNSON MEMORIAL LIBRARY","address":"180 HWY. 610 W","bldgnbr":"180","predir":null,"streetname":"Hwy. 610","streettype":null,"suffdir":"W","city":"Virgie","state_code":"KY","zip5":"41572","latitude":"37.3468858860000000","longitude":"-82.592248758000000","publicwifi":"U","url":null,"broadband_type_id":6}
{"id":null,"anchorname":"POWELL COUNTY MIDDLE SCHOOL","address":"770 W COLLEGE AVE","bldgnbr":"770","predir":"W","streetname":"COLLEGE","streettype":"AVE","suffdir":null,"city":"Stanton","state_code":"KY","zip5":"40380","latitude":"37.8464820000000000","longitude":"-83.873596000000000","publicwifi":"U","url":null,"broadband_type_id":6}
{"id":null,"anchorname":"MOREHEAD STATE UNIVERSITY POLICE DEPARTMENT","address":"150 UNIVERSITY BLVD","bldgnbr":"150","predir":null,"streetname":"UNIVERSITY","streettype":"BLVD","suffdir":null,"city":"MOREHEAD","state_code":"KY","zip5":"40351","latitude":"38.1885487460000000","longitude":"-83.429689796000000","publicwifi":"U","url":null,"broadband_type_id":4}
{"id":null,"anchorname":"LEMONS MILL ELEMENTARY SCHOOL","address":"300 SCHOOL HOUSE ROAD","bldgnbr":"300","predir":null,"streetname":"SCHOOL HOUSE","streettype":"RD","suffdir":null,"city":"GEORGETOWN","state_code":"KY","zip5":"40324","latitude":"38.1850907750000000","longitude":"-84.535264709000000","publicwifi":"U","url":null,"broadband_type_id":6}
{"id":null,"anchorname":"ANNE MASON ELEMENTARY SCHOOL","address":"350 CHAMPION WAY","bldgnbr":"350","predir":null,"streetname":"CHAMPION","streettype":"WAY","suffdir":null,"city":"GEORGETOWN","state_code":"KY","zip5":"40324","latitude":"38.2407350000000000","longitude":"-84.566000000000000","publicwifi":"U","url":null,"broadband_type_id":6}
{"id":null,"anchorname":"BEDFORD ELEMENTARY SCHOOL","address":"204 MOUNT PLEASANT RD","bldgnbr":"204","predir":null,"streetname":"MOUNT PLEASANT","streettype":"RD","suffdir":null,"city":"Bedford","state_code":"KY","zip5":"40006","latitude":"38.6088670000000000","longitude":"-85.323239000000000","publicwifi":"U","url":null,"broadband_type_id":6}
{"id":null,"anchorname":"UNIONTOWN CITY POLICE DEPARTMENT","address":"237 MAIN ST","bldgnbr":"237","predir":null,"streetname":"MAIN","streettype":"ST","suffdir":null,"city":"UNIONTOWN","state_code":"KY","zip5":"42461","latitude":"37.7724381870000000","longitude":"-87.935551212000000","publicwifi":"U","url":null,"broadband_type_id":4}
{"id":null,"anchorname":"WARREN COUNTY SHERIFFS OFFICE","address":"429 E 10TH AVE","bldgnbr":"429","predir":"E","streetname":"10TH","streettype":"AVE","suffdir":null,"city":"BOWLING GREEN","state_code":"KY","zip5":"42101","latitude":"36.9925551520000000","longitude":"-86.442846719000000","publicwifi":"U","url":null,"broadband_type_id":4}
{"id":null,"anchorname":"ELIZABETHTOWN COMMUNITY AND TECHNICAL COLLEGE-SPRINGFIELD CAMPUS","address":"160 CORPORATE DRIVE","bldgnbr":"160","predir":null,"streetname":"CORPORATE","streettype":"DR","suffdir":null,"city":"SPRINGFIELD","state_code":"KY","zip5":"40069","latitude":"37.7063162840000000","longitude":"-85.198088979000000","publicwifi":"U","url":null,"broadband_type_id":6}
{"id":null,"anchorname":"RED RIVER VALLEY ELEMENTARY SCHOOL","address":"11134 HWY 191","bldgnbr":"11134","predir":null,"streetname":"Hwy 191","streettype":null,"suffdir":null,"city":"HAZEL GREEN","state_code":"KY","zip5":"41332","latitude":"37.7958030640000000","longitude":"-83.402663710000000","publicwifi":"U","url":null,"broadband_type_id":6}
{"id":null,"anchorname":"CHURCH POINT VOLUNTEER FIRE DEPARTMENT","address":"111 DAVID STREET","bldgnbr":"111","predir":null,"streetname":"DAVID","streettype":null,"suffdir":null,"city":"Church Point","state_code":"LA","zip5":"70525","latitude":"30.4044690000000000","longitude":"-92.218262000000000","publicwifi":"U","url":null,"broadband_type_id":5}
{"id":null,"anchorname":"MERMENTAU VOLUNTEER FIRE DEPARTMENT SUBSTATION 1","address":"1918 EVERGLADE ROAD","bldgnbr":"1918","predir":null,"streetname":"EVERGLADE","streettype":null,"suffdir":null,"city":"Morse","state_code":"LA","zip5":"70559","latitude":"30.1402260000000000","longitude":"-92.566162000000000","publicwifi":"U","url":null,"broadband_type_id":5}
{"id":null,"anchorname":"Allen Oaks Nursing Home","address":"909 E. 6th Avenue","bldgnbr":"909","predir":"E","streetname":"6TH","streettype":null,"suffdir":null,"city":"Oakdale","state_code":"LA","zip5":"71463","latitude":"30.8155990000000000","longitude":"-92.651802000000000","publicwifi":"U","url":null,"broadband_type_id":3}
{"id":null,"anchorname":"ASCENSION PARISH LIBRARY","address":"40300 Hwy 42","bldgnbr":"40300","predir":null,"streetname":"Hwy 42","streettype":null,"suffdir":null,"city":"Prairieville","state_code":"LA","zip5":"70769","latitude":"30.3332000000000000","longitude":"-90.955100000000000","publicwifi":"Y","url":null,"broadband_type_id":6}
{"id":null,"anchorname":"ASCENSION PARISH SCHOOL BOARD","address":"42211 North City Parc Dr","bldgnbr":"42211","predir":null,"streetname":"North City Parc","streettype":null,"suffdir":null,"city":"Sorrento","state_code":"LA","zip5":"70778","latitude":"30.2320179970000000","longitude":"-90.919542218000000","publicwifi":"U","url":null,"broadband_type_id":6}
{"id":null,"anchorname":"Avoyelles High School","address":"287 Main Street","bldgnbr":"287","predir":null,"streetname":"MAIN","streettype":null,"suffdir":null,"city":"Moreauville","state_code":"LA","zip5":"71355","latitude":"31.0354835330000000","longitude":"-91.973119342000000","publicwifi":"U","url":null,"broadband_type_id":6}
{"id":null,"anchorname":"BEAUREGARD VOLUNTEER FIRE PROTECTION DISTRICT 3 KIPLING STATION","address":"4444 STATE HIGHWAY 26","bldgnbr":"4444","predir":null,"streetname":"26","streettype":"HWY","suffdir":null,"city":"De Ridder","state_code":"LA","zip5":"70634","latitude":"30.8043840000000000","longitude":"-93.110420000000000","publicwifi":"U","url":null,"broadband_type_id":5}
{"id":null,"anchorname":"Molly's Childcare \u0026 Development Center","address":"1412 Airline Drive","bldgnbr":"1412","predir":null,"streetname":"AIRLINE","streettype":null,"suffdir":null,"city":"Bossier City","state_code":"LA","zip5":"71112","latitude":"32.5112000000000000","longitude":"-93.693199000000000","publicwifi":"U","url":null,"broadband_type_id":3}
{"id":null,"anchorname":"Legacy Elementary School","address":"4830 Swan Lake Road","bldgnbr":"4830","predir":null,"streetname":"SWAN LAKE","streettype":null,"suffdir":null,"city":"Bossier City","state_code":"LA","zip5":"71111","latitude":"32.6020010000000000","longitude":"-93.671204000000000","publicwifi":"U","url":null,"broadband_type_id":6}
{"id":null,"anchorname":"Bossier Parish Community College","address":"6220 East Texas Street","bldgnbr":"6220","predir":"E","streetname":"TEXAS","streettype":null,"suffdir":null,"city":"Bossier City","state_code":"LA","zip5":"71111","latitude":"32.5397000000000000","longitude":"-93.652702000000000","publicwifi":"U","url":null,"broadband_type_id":6}
{"id":null,"anchorname":"Bright Rainbow Daycare And PreSchool Center","address":"1033 Jordan","bldgnbr":"1033","predir":null,"streetname":"JORDAN","streettype":null,"suffdir":null,"city":"Shreveport","state_code":"LA","zip5":"71101","latitude":"32.4981000000000000","longitude":"-93.753197000000000","publicwifi":"U","url":null,"broadband_type_id":3}
{"id":null,"anchorname":"The Best and Brightest Preschool and Enrichment Center LLC","address":"5418 Hearne Avenue","bldgnbr":"5418","predir":null,"streetname":"HEARNE","streettype":null,"suffdir":null,"city":"Shreveport","state_code":"LA","zip5":"71108","latitude":"32.4599000000000000","longitude":"-93.780098000000000","publicwifi":"U","url":null,"broadband_type_id":6}
{"id":null,"anchorname":"Little Skool House Preschool and Learning Center","address":"367 West 79th Street","bldgnbr":"367","predir":"W","streetname":"79TH","streettype":null,"suffdir":null,"city":"Shreveport","state_code":"LA","zip5":"71106","latitude":"32.4325980000000000","longitude":"-93.762100000000000","publicwifi":"U","url":null,"broadband_type_id":6}
{"id":null,"anchorname":"Newton Smith Elementary School","address":"3000 Martin Luther King Jr. Drive","bldgnbr":"3000","predir":null,"streetname":"MARTIN LUTHER KING JR","streettype":null,"suffdir":null,"city":"Shreveport","state_code":"LA","zip5":"71107","latitude":"32.5442645810000000","longitude":"-93.830865556000000","publicwifi":"U","url":null,"broadband_type_id":6}
{"id":null,"anchorname":"SHREVEPORT FIRE DEPT EMS","address":"803 CROCKETT ST","bldgnbr":"803","predir":null,"streetname":"CROCKETT","streettype":null,"suffdir":null,"city":"Shreveport","state_code":"LA","zip5":"71101","latitude":"32.5086980000000000","longitude":"-93.751007000000000","publicwifi":"U","url":null,"broadband_type_id":5}
{"id":null,"anchorname":"Oak Park Doctor's Care","address":"2335 Oak Park Boulevard","bldgnbr":"2335","predir":null,"streetname":"OAK PARK","streettype":null,"suffdir":null,"city":"Lake Charles","state_code":"LA","zip5":"70601","latitude":"30.2035010000000000","longitude":"-93.186501000000000","publicwifi":"U","url":null,"broadband_type_id":3}
{"id":null,"anchorname":"Western Heights Elementary School","address":"1100 Elizabeth Street","bldgnbr":"1100","predir":null,"streetname":"ELIZABETH","streettype":null,"suffdir":null,"city":"Westlake","state_code":"LA","zip5":"70669","latitude":"30.2543799000000000","longitude":"-93.267986796000000","publicwifi":"U","url":null,"broadband_type_id":6}
{"id":null,"anchorname":"Sulphur High School","address":"100 Sycamore Street","bldgnbr":"100","predir":null,"streetname":"SYCAMORE","streettype":null,"suffdir":null,"city":"Sulphur","state_code":"LA","zip5":"70663","latitude":"30.2327583130000000","longitude":"-93.373413831000000","publicwifi":"U","url":null,"broadband_type_id":6}
{"id":null,"anchorname":"Cameron Parish Library","address":"501 Marshall St Cameron, LA 70631","bldgnbr":"501","predir":null,"streetname":"Marshall","streettype":"St","suffdir":null,"city":"Cameron","state_code":"LA","zip5":"70631","latitude":"29.7960700000000000","longitude":"-93.318800000000000","publicwifi":"U","url":null,"broadband_type_id":6}
{"id":null,"anchorname":"Jonesville Elementary School","address":"1219 Cora Drive","bldgnbr":"1219","predir":null,"streetname":"CORA","streettype":null,"suffdir":null,"city":"Jonesville","state_code":"LA","zip5":"71343","latitude":"31.6269000000000000","longitude":"-91.827337306000000","publicwifi":"U","url":null,"broadband_type_id":6}
{"id":null,"anchorname":"Homer Memorial Hospital","address":"620 East College Street","bldgnbr":"620","predir":"E","streetname":"COLLEGE","streettype":null,"suffdir":null,"city":"Homer","state_code":"LA","zip5":"71040","latitude":"32.7939300000000000","longitude":"-93.062408000000000","publicwifi":"U","url":null,"broadband_type_id":3}
{"id":null,"anchorname":"MANSFIELD FIRE DEPARTMENT STATION 2","address":"1735 MCARTHUR DRIVE","bldgnbr":"1735","predir":null,"streetname":"MCARTHUR","streettype":null,"suffdir":null,"city":"Mansfield","state_code":"LA","zip5":"71052","latitude":"32.0398900000000000","longitude":"-93.684700000000000","publicwifi":"U","url":null,"broadband_type_id":5}
{"id":null,"anchorname":"LA Technical College-Mansfield Campus","address":"943 Oxford Road","bldgnbr":"943","predir":null,"streetname":"OXFORD","streettype":null,"suffdir":null,"city":"Mansfield","state_code":"LA","zip5":"71052","latitude":"32.0218010000000000","longitude":"-93.705200000000000","publicwifi":"U","url":null,"broadband_type_id":6}
{"id":null,"anchorname":"River Parishes Community College","address":"7384 John LeBlanc Blvd.","bldgnbr":"7384","predir":null,"streetname":"JOHN LEBLANC","streettype":null,"suffdir":null,"city":"Sorrento","state_code":"LA","zip5":"70778","latitude":"30.1769010000000000","longitude":"-90.872200000000000","publicwifi":"U","url":null,"broadband_type_id":6}
{"id":null,"anchorname":"Marksville Middle School","address":"152 Schoolhouse Road","bldgnbr":"152","predir":null,"streetname":"SCHOOLHOUSE","streettype":null,"suffdir":null,"city":"Marksville","state_code":"LA","zip5":"71351","latitude":"31.1289157720000000","longitude":"-92.173417855000000","publicwifi":"U","url":null,"broadband_type_id":6}
{"id":null,"anchorname":"Marksville High School","address":"407 West Bon Tempt Street","bldgnbr":"407","predir":"W","streetname":"BON TEMPT","streettype":null,"suffdir":null,"city":"Marksville","state_code":"LA","zip5":"71351","latitude":"31.1276012670000000","longitude":"-92.072728843000000","publicwifi":"U","url":null,"broadband_type_id":6}
{"id":null,"anchorname":"Guardian Angel Pre-School","address":"116 South Knoll Avenue","bldgnbr":"116","predir":"S","streetname":"KNOLL","streettype":null,"suffdir":null,"city":"Bunkie","state_code":"LA","zip5":"71322","latitude":"30.9538990000000000","longitude":"-92.189796000000000","publicwifi":"U","url":null,"broadband_type_id":6}
{"id":null,"anchorname":"Beauregard Memorial Hospital","address":"600 South Pine Street","bldgnbr":"600","predir":"S","streetname":"PINE","streettype":null,"suffdir":null,"city":"De Ridder","state_code":"LA","zip5":"70634","latitude":"30.8419190000000000","longitude":"-93.289101000000000","publicwifi":"U","url":null,"broadband_type_id":3}
{"id":null,"anchorname":"BEAUREGARD VOLUNTEER FIRE PROTECTION DISTRICT 2 LONGVILLE STATION","address":"11078 UNITED STATES HIGHWAY 171","bldgnbr":"11078","predir":null,"streetname":"171","streettype":"HWY","suffdir":null,"city":"Longville","state_code":"LA","zip5":"70652","latitude":"30.6042670000000000","longitude":"-93.232819000000000","publicwifi":"U","url":null,"broadband_type_id":5}
{"id":null,"anchorname":"BIENVILLE PARISH FIRE PROTECTION DISTRICT WARDS 4 AND 5 STATION 2","address":"1566 STATE HIGHWAY 516","bldgnbr":"1566","predir":null,"streetname":"516","streettype":"HWY","suffdir":null,"city":"Heflin","state_code":"LA","zip5":"71039","latitude":"32.4129330000000000","longitude":"-93.233162000000000","publicwifi":"U","url":null,"broadband_type_id":5}
{"id":null,"anchorname":"Bienville High School","address":"325 Main Street  Hwy 507","bldgnbr":"325","predir":null,"streetname":"MAIN STREET","streettype":null,"suffdir":null,"city":"Bienville","state_code":"LA","zip5":"71008","latitude":"32.3576770010000000","longitude":"-92.977554478000000","publicwifi":"Y","url":null,"broadband_type_id":6}
{"id":null,"anchorname":"SOUTH BOSSIER VOLUNTEER FIRE DEPARTMENT, INCORPORATED STATION 2","address":"1325 ROBINSON ROAD","bldgnbr":"1325","predir":null,"streetname":"ROBINSON","streettype":null,"suffdir":null,"city":"Elm Grove","state_code":"LA","zip5":"71051","latitude":"32.3605160000000000","longitude":"-93.475273000000000","publicwifi":"U","url":null,"broadband_type_id":5}
{"id":null,"anchorname":"Christus Schumpert Adult Day Health Care","address":"1700 Buckner Square, Suite #150","bldgnbr":"1700","predir":null,"streetname":"BUCKNER","streettype":null,"suffdir":null,"city":"Shreveport","state_code":"LA","zip5":"71101","latitude":"32.4959980000000000","longitude":"-93.753601000000000","publicwifi":"Y","url":null,"broadband_type_id":3}
{"id":null,"anchorname":"Goldman School/Child Development Center","address":"351 Jordan Street","bldgnbr":"351","predir":null,"streetname":"JORDAN","streettype":null,"suffdir":null,"city":"Shreveport","state_code":"LA","zip5":"71101","latitude":"32.4981000000000000","longitude":"-93.736397000000000","publicwifi":"U","url":null,"broadband_type_id":6}
{"id":null,"anchorname":"LSU Health Sciences Ctr Shreveport","address":"1501 Kings Hwy","bldgnbr":"1501","predir":null,"streetname":"KINGS","streettype":null,"suffdir":null,"city":"Shreveport","state_code":"LA","zip5":"71103","latitude":"32.4817960000000000","longitude":"-93.760559000000000","publicwifi":"U","url":null,"broadband_type_id":3}
{"id":null,"anchorname":"Caddo Heights Elementary School","address":"1702 Corbitt Street","bldgnbr":"1702","predir":null,"streetname":"CORBITT","streettype":null,"suffdir":null,"city":"Shreveport","state_code":"LA","zip5":"71108","latitude":"32.4641386970000000","longitude":"-93.765328201000000","publicwifi":"U","url":null,"broadband_type_id":6}
{"id":null,"anchorname":"Shreve Island Elementary School","address":"836 Sewanne Place","bldgnbr":"836","predir":null,"streetname":"SEWANNE","streettype":null,"suffdir":null,"city":"Shreveport","state_code":"LA","zip5":"71105","latitude":"32.4787819590000000","longitude":"-93.712028824000000","publicwifi":"U","url":null,"broadband_type_id":6}
{"id":null,"anchorname":"Westwood Elementary School","address":"7325 Jewella Avenue","bldgnbr":"7325","predir":null,"streetname":"JEWELLA","streettype":null,"suffdir":null,"city":"Shreveport","state_code":"LA","zip5":"71108","latitude":"32.4352987250000000","longitude":"-93.796087490000000","publicwifi":"U","url":null,"broadband_type_id":6}
{"id":null,"anchorname":"Harmony House Nursing \u0026 Rehab Ctr., Inc.","address":"1825 Laurel Street","bldgnbr":"1825","predir":null,"streetname":"LAUREL","streettype":null,"suffdir":null,"city":"Shreveport","state_code":"LA","zip5":"71103","latitude":"32.4957010000000000","longitude":"-93.767899000000000","publicwifi":"Y","url":null,"broadband_type_id":3}
{"id":null,"anchorname":"Angels Among Us Child Care Center,  LLC.","address":"2508 Common Street","bldgnbr":"2508","predir":null,"streetname":"COMMON","streettype":null,"suffdir":null,"city":"Lake Charles","state_code":"LA","zip5":"70601","latitude":"30.2076000000000000","longitude":"-93.214203000000000","publicwifi":"U","url":null,"broadband_type_id":3}
{"id":null,"anchorname":"Washington/Marion Magnet High School","address":"2802 Pineview Street","bldgnbr":"2802","predir":null,"streetname":"PINEVIEW","streettype":null,"suffdir":null,"city":"Lake Charles","state_code":"LA","zip5":"70615","latitude":"30.2521125520000000","longitude":"-93.173346384000000","publicwifi":"U","url":null,"broadband_type_id":6}
{"id":null,"anchorname":"CAL CAM VOLUNTEER FIRE DEPARTMENT","address":"9248 GULF HIGHWAY","bldgnbr":"9248","predir":null,"streetname":"GULF","streettype":null,"suffdir":null,"city":"Lake Charles","state_code":"LA","zip5":"70607","latitude":"30.0695080000000000","longitude":"-93.212967000000000","publicwifi":"U","url":null,"broadband_type_id":5}
{"id":null,"anchorname":"St. Luke-Simpson United Methodist Child Care Center","address":"1500 Country Club Road","bldgnbr":"1500","predir":null,"streetname":"COUNTRY CLUB","streettype":null,"suffdir":null,"city":"Lake Charles","state_code":"LA","zip5":"70605","latitude":"30.1688000000000000","longitude":"-93.241997000000000","publicwifi":"U","url":null,"broadband_type_id":3}
{"id":null,"anchorname":"Hayleigh Childcare Learning \u0026 Development Center","address":"4820 Nelson Road","bldgnbr":"4820","predir":null,"streetname":"NELSON","streettype":null,"suffdir":null,"city":"Lake Charles","state_code":"LA","zip5":"70605","latitude":"30.1703000000000000","longitude":"-93.249199000000000","publicwifi":"U","url":null,"broadband_type_id":3}
{"id":null,"anchorname":"Union Central Elementary School","address":"649 Highway 849","bldgnbr":"649","predir":null,"streetname":"849","streettype":"HWY","suffdir":null,"city":"Columbia","state_code":"LA","zip5":"71418","latitude":"32.0762493490000000","longitude":"-92.079707928000000","publicwifi":"U","url":null,"broadband_type_id":6}
{"id":null,"anchorname":"South Cameron Memorial Hospital","address":"5360 W Creole Hwy Creole, LA 70632","bldgnbr":"5360","predir":"W","streetname":"Creole","streettype":"Hwy","suffdir":null,"city":"Creole","state_code":"LA","zip5":"70632","latitude":"29.8091907500000000","longitude":"-93.163230896000000","publicwifi":"U","url":null,"broadband_type_id":3}
{"id":null,"anchorname":"Hackberry Public Library","address":"983 Main St Hackberry, LA 70645","bldgnbr":"983","predir":null,"streetname":"Main St","streettype":"Cir","suffdir":null,"city":"Hackberry","state_code":"LA","zip5":"70645","latitude":"29.9928800000000000","longitude":"-93.364810000000000","publicwifi":"Y","url":null,"broadband_type_id":6}
