{"id":null,"anchorname":"Lucius Beebe Memorial Library","address":"345 Main Street, Wakefield, MA 01880-5093","bldgnbr":"345","predir":null,"streetname":"Main","streettype":"Street","suffdir":null,"city":"Wakefield","state_code":"MA","zip5":"01880","latitude":"42.5046287010000000","longitude":"-71.071330605000000","publicwifi":"Y","url":"http://www.wakefieldlibrary.org","broadband_type_id":6}
{"id":null,"anchorname":"Lucius Beebe Memorial Library","address":"345 Main Street, Wakefield, MA 01880-5093","bldgnbr":"345","predir":null,"streetname":"Main","streettype":"Street","suffdir":null,"city":"Wakefield","state_code":"MA","zip5":"01880","latitude":"42.5046287010000000","longitude":"-71.071330605000000","publicwifi":"Y","url":"http://www.wakefieldlibrary.org","broadband_type_id":6}
{"id":null,"anchorname":"WAKEFIELD POLICE DEPARTMENT","address":"1 Union Street, WAKEFIELD, MA 01880","bldgnbr":"1","predir":null,"streetname":"Union","streettype":"Street","suffdir":null,"city":"WAKEFIELD","state_code":"MA","zip5":"01880","latitude":"42.5042735350000000","longitude":"-71.069410772000000","publicwifi":"U","url":null,"broadband_type_id":4}
{"id":null,"anchorname":"WAKEFIELD FIRE DEPARTMENT","address":"1 Union Street, WAKEFIELD, MA 01880","bldgnbr":"1","predir":null,"streetname":"Union","streettype":"Street","suffdir":null,"city":"WAKEFIELD","state_code":"MA","zip5":"01880","latitude":"42.5042731420000000","longitude":"-71.069329865000000","publicwifi":"U","url":null,"broadband_type_id":5}
{"id":null,"anchorname":"Odyssey Day School","address":"11 Paul Avenue, Wakefield, MA 01880","bldgnbr":"11","predir":null,"streetname":"Paul","streettype":"Avenue","suffdir":null,"city":"Wakefield","state_code":"MA","zip5":"01880","latitude":"42.4936069220000000","longitude":"-71.081911195000000","publicwifi":"U","url":null,"broadband_type_id":6}
{"id":null,"anchorname":"Woodville School","address":"30 Farm Street, Wakefield, MA 01880","bldgnbr":"30","predir":null,"streetname":"Farm","streettype":"Street","suffdir":null,"city":"Wakefield","state_code":"MA","zip5":"01880","latitude":"42.4975293150000000","longitude":"-71.063897612000000","publicwifi":"U","url":null,"broadband_type_id":6}
{"id":null,"anchorname":"WAKEFIELD FIRE DEPARTMENT","address":"5 Oak Street, WAKEFIELD, MA 01880","bldgnbr":"5","predir":null,"streetname":"Oak","streettype":"Street","suffdir":null,"city":"WAKEFIELD","state_code":"MA","zip5":"01880","latitude":"42.4825156800000000","longitude":"-71.065263802000000","publicwifi":"U","url":null,"broadband_type_id":5}
{"id":null,"anchorname":"Edgewood/Gtr Boston Academy","address":"108 Pond Street, Stoneham, MA 02180","bldgnbr":"108","predir":null,"streetname":"Pond","streettype":"Street","suffdir":null,"city":"Stoneham","state_code":"MA","zip5":"02180","latitude":"42.4681711770000000","longitude":"-71.095840926000000","publicwifi":"U","url":null,"broadband_type_id":6}
{"id":null,"anchorname":"NORTHEAST CHRISTIAN ACADEMY","address":"5501 E 30TH ST","bldgnbr":"BLDGNUMBER","predir":null,"streetname":"STREETNAME","streettype":null,"suffdir":null,"city":"INDIANAPOLIS","state_code":"IN","zip5":"46218","latitude":"39.8108554830000000","longitude":"-86.074049138000000","publicwifi":"I","url":null,"broadband_type_id":6}
{"id":null,"anchorname":"SOUTHEASTERN CHURCH OF CHRIST","address":"6500 SOUTHEASTERN AVE","bldgnbr":"BLDGNUMBER","predir":null,"streetname":"STREETNAME","streettype":null,"suffdir":null,"city":"INDIANAPOLIS","state_code":"IN","zip5":"46203","latitude":"39.7297551320000000","longitude":"-86.054203432000000","publicwifi":"Y","url":"COMCAST","broadband_type_id":6}
{"id":null,"anchorname":"Roosevelt","address":"253 Vinton Street, Melrose, MA 02176","bldgnbr":"253","predir":null,"streetname":"Vinton","streettype":"Street","suffdir":null,"city":"Melrose","state_code":"MA","zip5":"02176","latitude":"42.4659858220000000","longitude":"-71.071560681000000","publicwifi":"U","url":null,"broadband_type_id":null}
{"id":null,"anchorname":"JEREMIAH GRAY-EDISON ELEM","address":"5225 GRAY RD","bldgnbr":"BLDGNUMBER","predir":null,"streetname":"STREETNAME","streettype":null,"suffdir":null,"city":"INDIANAPOLIS","state_code":"IN","zip5":"46227","latitude":"39.6906197780000000","longitude":"-86.096765180000000","publicwifi":"N","url":null,"broadband_type_id":6}
{"id":null,"anchorname":"Melrose Middle","address":"350 Lynn Fells Parkway, Melrose, MA 02176","bldgnbr":"350","predir":null,"streetname":"Lynn Fells","streettype":"Parkway","suffdir":null,"city":"Melrose","state_code":"MA","zip5":"02176","latitude":"42.4639798890000000","longitude":"-71.066590041000000","publicwifi":"U","url":null,"broadband_type_id":6}
{"id":null,"anchorname":"Horace Mann","address":"40 Damon Avenue, Melrose, MA 02176","bldgnbr":"40","predir":null,"streetname":"Damon","streettype":"Avenue","suffdir":null,"city":"Melrose","state_code":"MA","zip5":"02176","latitude":"42.4687518130000000","longitude":"-71.056668164000000","publicwifi":"U","url":null,"broadband_type_id":null}
{"id":null,"anchorname":"Winthrop","address":"162 First Street, Melrose, MA 02176","bldgnbr":"162","predir":null,"streetname":"First","streettype":"Street","suffdir":null,"city":"Melrose","state_code":"MA","zip5":"02176","latitude":"42.4578141490000000","longitude":"-71.051426949000000","publicwifi":"U","url":null,"broadband_type_id":null}
{"id":null,"anchorname":"Stoneham High","address":"149 Franklin Street, Stoneham, MA 02180","bldgnbr":"149","predir":null,"streetname":"Franklin","streettype":"Street","suffdir":null,"city":"Stoneham","state_code":"MA","zip5":"02180","latitude":"42.4734484270000000","longitude":"-71.088512318000000","publicwifi":"U","url":null,"broadband_type_id":6}
{"id":null,"anchorname":"Herbert Clark Hoover","address":"37 Glendower Road, Melrose, MA 02176","bldgnbr":"37","predir":null,"streetname":"Glendower","streettype":"Road","suffdir":null,"city":"Melrose","state_code":"MA","zip5":"02176","latitude":"42.4496770830000000","longitude":"-71.049912189000000","publicwifi":"U","url":null,"broadband_type_id":null}
{"id":null,"anchorname":"Early Childhood Center","address":"94 Lebanon Street, Melrose, MA 02176","bldgnbr":"94","predir":null,"streetname":"Lebanon","streettype":"Street","suffdir":null,"city":"Melrose","state_code":"MA","zip5":"02176","latitude":"42.4433432820000000","longitude":"-71.055539644000000","publicwifi":"U","url":null,"broadband_type_id":null}
{"id":null,"anchorname":"St Patrick Elementary","address":"20 Pleasant, Stoneham, MA 02180","bldgnbr":"20","predir":null,"streetname":"Pleasant","streettype":null,"suffdir":null,"city":"Stoneham","state_code":"MA","zip5":"02180","latitude":"42.4822705080000000","longitude":"-71.098270635000000","publicwifi":"U","url":null,"broadband_type_id":6}
{"id":null,"anchorname":"Lynch Elementary","address":"10 Brantwood Road, Winchester, MA 01890","bldgnbr":"10","predir":null,"streetname":"Brantwood","streettype":"Road","suffdir":null,"city":"Winchester","state_code":"MA","zip5":"01890","latitude":"42.4610277880000000","longitude":"-71.150421537000000","publicwifi":"U","url":null,"broadband_type_id":6}
{"id":null,"anchorname":"Lincoln","address":"80 West Wyoming Avenue, Melrose, MA 02176","bldgnbr":"80","predir":"West","streetname":"Wyoming","streettype":"Avenue","suffdir":null,"city":"Melrose","state_code":"MA","zip5":"02176","latitude":"42.4523509630000000","longitude":"-71.070789693000000","publicwifi":"U","url":null,"broadband_type_id":null}
{"id":null,"anchorname":"Central","address":"36 Pomeworth Street, Stoneham, MA 02180","bldgnbr":"36","predir":null,"streetname":"Pomeworth","streettype":"Street","suffdir":null,"city":"Stoneham","state_code":"MA","zip5":"02180","latitude":"42.4828565220000000","longitude":"-71.096090999000000","publicwifi":"U","url":null,"broadband_type_id":null}
{"id":null,"anchorname":"K-9 Unit","address":"166 Pond Street, Stoneham, MA 02180","bldgnbr":"166","predir":null,"streetname":"Pond","streettype":"Street","suffdir":null,"city":"Stoneham","state_code":"MA","zip5":"02180","latitude":"42.4649726770000000","longitude":"-71.095350586000000","publicwifi":"U","url":null,"broadband_type_id":null}
{"id":null,"anchorname":"Robin Hood","address":"70 Oak Street, Stoneham, MA 02180","bldgnbr":"70","predir":null,"streetname":"Oak","streettype":"Street","suffdir":null,"city":"Stoneham","state_code":"MA","zip5":"02180","latitude":"42.4932924990000000","longitude":"-71.107576800000000","publicwifi":"U","url":null,"broadband_type_id":null}
{"id":null,"anchorname":"North Shore Cataract And Laser Center","address":"91 Montvale Ave, Stoneham, MA 02180","bldgnbr":"91","predir":null,"streetname":"Montvale","streettype":"Ave","suffdir":null,"city":"Stoneham","state_code":"MA","zip5":"02180","latitude":"42.4810407610000000","longitude":"-71.109637757000000","publicwifi":"U","url":null,"broadband_type_id":null}
{"id":null,"anchorname":"Montvale Diagnostics Center","address":"88 Montvale Ave, Stoneham, MA 02180","bldgnbr":"88","predir":null,"streetname":"Montvale","streettype":"Ave","suffdir":null,"city":"Stoneham","state_code":"MA","zip5":"02180","latitude":"42.4809584580000000","longitude":"-71.109499250000000","publicwifi":"U","url":null,"broadband_type_id":null}
{"id":null,"anchorname":"South","address":"11 Summer Street, Stoneham, MA 02180","bldgnbr":"11","predir":null,"streetname":"Summer","streettype":"Street","suffdir":null,"city":"Stoneham","state_code":"MA","zip5":"02180","latitude":"42.4736305150000000","longitude":"-71.099799142000000","publicwifi":"U","url":null,"broadband_type_id":null}
{"id":null,"anchorname":"Ambulatory Surgery Center","address":"620 Washington St, Winchester, MA 01890","bldgnbr":"620","predir":null,"streetname":"Washington","streettype":"St","suffdir":null,"city":"Winchester","state_code":"MA","zip5":"01890","latitude":"42.4697674260000000","longitude":"-71.125098082000000","publicwifi":"U","url":null,"broadband_type_id":null}
{"id":null,"anchorname":"Melrose Public Library","address":"69 West Emerson Street, Melrose, MA 02176-3173","bldgnbr":"69","predir":"West","streetname":"Emerson","streettype":"Street","suffdir":null,"city":"Melrose","state_code":"MA","zip5":"02176","latitude":"42.4590086930000000","longitude":"-71.066320600000000","publicwifi":"U","url":"http://www.melrosepubliclibrary.org","broadband_type_id":6}
{"id":null,"anchorname":"Melrose Wakefield Hospital","address":"585 Lebanon St, Melrose, MA 02176","bldgnbr":"585","predir":null,"streetname":"Lebanon","streettype":"St","suffdir":null,"city":"Melrose","state_code":"MA","zip5":"02176","latitude":"42.4602037950000000","longitude":"-71.061921263000000","publicwifi":"U","url":null,"broadband_type_id":3}
{"id":null,"anchorname":"Hallmark Health System, Inc.","address":"585 Lebanon Street, Melrose, MA 02176","bldgnbr":"585","predir":null,"streetname":"Lebanon","streettype":"Street","suffdir":null,"city":"Melrose","state_code":"MA","zip5":"02176","latitude":"42.4603954210000000","longitude":"-71.061448621000000","publicwifi":"U","url":null,"broadband_type_id":3}
{"id":null,"anchorname":"MELROSE FIRE DEPARTMENT","address":"280 E. Foster Street, MELROSE, MA 02176","bldgnbr":"280","predir":"E","streetname":"E. Foster","streettype":"Street","suffdir":null,"city":"MELROSE","state_code":"MA","zip5":"02176","latitude":"42.4564471830000000","longitude":"-71.053351123000000","publicwifi":"U","url":null,"broadband_type_id":5}
{"id":null,"anchorname":"Melrose Town Hall","address":"562 Main Street, Melrose, MA 02176","bldgnbr":"562","predir":null,"streetname":"Main","streettype":"Street","suffdir":null,"city":"Melrose","state_code":"MA","zip5":"02176","latitude":"42.4566712440000000","longitude":"-71.064728883000000","publicwifi":"U","url":null,"broadband_type_id":1}
{"id":null,"anchorname":"MELROSE FIRE DEPARTMENT","address":"576 Main Street, MELROSE, MA 02176","bldgnbr":"576","predir":null,"streetname":"Main","streettype":"Street","suffdir":null,"city":"MELROSE","state_code":"MA","zip5":"02176","latitude":"42.4569254440000000","longitude":"-71.064600570000000","publicwifi":"U","url":null,"broadband_type_id":5}
{"id":null,"anchorname":"MELROSE POLICE DEPARTMENT","address":"56 West Foster Street, MELROSE, MA 02176","bldgnbr":"56","predir":"West","streetname":"Foster","streettype":"Street","suffdir":null,"city":"MELROSE","state_code":"MA","zip5":"02176","latitude":"42.4546404680000000","longitude":"-71.066509332000000","publicwifi":"U","url":null,"broadband_type_id":4}
{"id":null,"anchorname":"Stoneham Middle School","address":"101 Central Street, Stoneham, MA 02180","bldgnbr":"101","predir":null,"streetname":"Central","streettype":"Street","suffdir":null,"city":"Stoneham","state_code":"MA","zip5":"02180","latitude":"42.4852846890000000","longitude":"-71.098584966000000","publicwifi":"U","url":null,"broadband_type_id":6}
{"id":null,"anchorname":"Colonial Park","address":"30 Avalon Road, Stoneham, MA 02180","bldgnbr":"30","predir":null,"streetname":"Avalon","streettype":"Road","suffdir":null,"city":"Stoneham","state_code":"MA","zip5":"02180","latitude":"42.4680205910000000","longitude":"-71.084960289000000","publicwifi":"U","url":null,"broadband_type_id":2}
{"id":null,"anchorname":"STONEHAM FIRE DEPARTMENT","address":"25 Central Street, STONEHAM, MA 02180","bldgnbr":"25","predir":null,"streetname":"Central","streettype":"Street","suffdir":null,"city":"STONEHAM","state_code":"MA","zip5":"02180","latitude":"42.4797125880000000","longitude":"-71.099303418000000","publicwifi":"U","url":null,"broadband_type_id":5}
{"id":null,"anchorname":"Stoneham Public Library","address":"431 Main Street, Stoneham, MA 02180-2696","bldgnbr":"431","predir":null,"streetname":"Main","streettype":"Street","suffdir":null,"city":"Stoneham","state_code":"MA","zip5":"02180","latitude":"42.4801386940000000","longitude":"-71.100300611000000","publicwifi":"U","url":"http://www.stonehamlibrary.org","broadband_type_id":6}
{"id":null,"anchorname":"Winchester Hospital","address":"41 Highland Avenue, Winchester, MA 01890","bldgnbr":"41","predir":null,"streetname":"Highland","streettype":"Avenue","suffdir":null,"city":"Winchester","state_code":"MA","zip5":"01890","latitude":"42.4659275810000000","longitude":"-71.121204728000000","publicwifi":"U","url":null,"broadband_type_id":3}
{"id":null,"anchorname":"Winchester Hospital","address":"41 Highland Avenue, Winchester, MA 01890","bldgnbr":"41","predir":null,"streetname":"Highland","streettype":"Avenue","suffdir":null,"city":"Winchester","state_code":"MA","zip5":"01890","latitude":"42.4659994490000000","longitude":"-71.122764361000000","publicwifi":"U","url":null,"broadband_type_id":3}
{"id":null,"anchorname":"Winchester Hospital","address":"41 Highland Ave, Winchester, MA 01890","bldgnbr":"41","predir":null,"streetname":"Highland","streettype":"Ave","suffdir":null,"city":"Winchester","state_code":"MA","zip5":"01890","latitude":"42.4659275770000000","longitude":"-71.121204692000000","publicwifi":"U","url":null,"broadband_type_id":3}
{"id":null,"anchorname":"Winchester Hospital","address":"41 Highland Avenue, Winchester, MA 01890","bldgnbr":"41","predir":null,"streetname":"Highland","streettype":"Avenue","suffdir":null,"city":"Winchester","state_code":"MA","zip5":"01890","latitude":"42.4659275810000000","longitude":"-71.121204728000000","publicwifi":"U","url":null,"broadband_type_id":3}
{"id":null,"anchorname":"Muraco Elementary School","address":"33 Bates Road, Winchester, MA 01890","bldgnbr":"33","predir":null,"streetname":"Bates","streettype":"Road","suffdir":null,"city":"Winchester","state_code":"MA","zip5":"01890","latitude":"42.4632216560000000","longitude":"-71.131478249000000","publicwifi":"U","url":null,"broadband_type_id":6}
{"id":null,"anchorname":"Vinson-Owen Elementary School","address":"75 Johnson Road, Winchester, MA 01890","bldgnbr":"75","predir":null,"streetname":"Johnson","streettype":"Road","suffdir":null,"city":"Winchester","state_code":"MA","zip5":"01890","latitude":"42.4505759850000000","longitude":"-71.175306233000000","publicwifi":"U","url":null,"broadband_type_id":6}
{"id":null,"anchorname":"STONEGATE EARLY CLG HS FOR SCI/TEC","address":"2855 NORTH FRANKLIN RD","bldgnbr":"BLDGNUMBER","predir":null,"streetname":"STREETNAME","streettype":null,"suffdir":null,"city":"INDIANAPOLIS","state_code":"IN","zip5":"46219","latitude":"39.8098274350000000","longitude":"-86.026734899000000","publicwifi":"N","url":null,"broadband_type_id":6}
{"id":null,"anchorname":"McCall Middle","address":"458 Main Street, Winchester, MA 01890","bldgnbr":"458","predir":null,"streetname":"Main","streettype":"Street","suffdir":null,"city":"Winchester","state_code":"MA","zip5":"01890","latitude":"42.4435826540000000","longitude":"-71.134034287000000","publicwifi":"U","url":null,"broadband_type_id":6}
{"id":null,"anchorname":"St Mary Elementary","address":"162 Washington, Winchester, MA 01890-2885","bldgnbr":"162","predir":null,"streetname":"Washington","streettype":null,"suffdir":null,"city":"Winchester","state_code":"MA","zip5":"01890","latitude":"42.4551529010000000","longitude":"-71.132142676000000","publicwifi":"U","url":null,"broadband_type_id":6}
{"id":null,"anchorname":"Winchester Place","address":"11 Shore Road, Winchester, MA 01890","bldgnbr":"11","predir":null,"streetname":"Shore","streettype":"Rd","suffdir":null,"city":"Winchester","state_code":"MA","zip5":"01890","latitude":"42.4555308160000000","longitude":"-71.135677232000000","publicwifi":"U","url":null,"broadband_type_id":6}
{"id":null,"anchorname":"Medford Voc Tech High","address":"489 Winthrop Street, Medford, MA 02155","bldgnbr":"489","predir":null,"streetname":"Winthrop","streettype":"Street","suffdir":null,"city":"Medford","state_code":"MA","zip5":"02155","latitude":"42.4304421630000000","longitude":"-71.124621289000000","publicwifi":"U","url":null,"broadband_type_id":6}
{"id":null,"anchorname":"Cvs Pharmacy #1010","address":"85 High St, Medford, MA 02155","bldgnbr":"85","predir":null,"streetname":"High","streettype":"St","suffdir":null,"city":"Medford","state_code":"MA","zip5":"02155","latitude":"42.4189293860000000","longitude":"-71.112322805000000","publicwifi":"U","url":null,"broadband_type_id":3}
{"id":null,"anchorname":"St Joseph Elementary","address":"132 High, Medford, MA 02155","bldgnbr":"132","predir":null,"streetname":"High","streettype":null,"suffdir":null,"city":"Medford","state_code":"MA","zip5":"02155","latitude":"42.4199890500000000","longitude":"-71.115148693000000","publicwifi":"U","url":null,"broadband_type_id":6}
{"id":null,"anchorname":"St Clement Elementary","address":"589 Boston Avenue, Medford, MA 02144-1399","bldgnbr":"589","predir":null,"streetname":"Boston","streettype":"Avenue","suffdir":null,"city":"Medford","state_code":"MA","zip5":"02144","latitude":"42.4021621690000000","longitude":"-71.113658325000000","publicwifi":"U","url":null,"broadband_type_id":6}
{"id":null,"anchorname":"Curtis-Tufts","address":"437 Main Street, Medford, MA 02155","bldgnbr":"437","predir":null,"streetname":"Main","streettype":"Street","suffdir":null,"city":"Medford","state_code":"MA","zip5":"02155","latitude":"42.4029215270000000","longitude":"-71.107317612000000","publicwifi":"U","url":null,"broadband_type_id":6}
{"id":null,"anchorname":"Christopher Columbus","address":"37 Hicks Avenue, Medford, MA 02155","bldgnbr":"37","predir":null,"streetname":"Hicks","streettype":"Avenue","suffdir":null,"city":"Medford","state_code":"MA","zip5":"02155","latitude":"42.4012805100000000","longitude":"-71.102027464000000","publicwifi":"U","url":null,"broadband_type_id":6}
{"id":null,"anchorname":"Armory Building","address":"92 High St, Medford, MA 02155","bldgnbr":"92","predir":null,"streetname":"High","streettype":"St","suffdir":null,"city":"Medford","state_code":"MA","zip5":"02155","latitude":"42.4189372620000000","longitude":"-71.112736842000000","publicwifi":"U","url":null,"broadband_type_id":null}
{"id":null,"anchorname":"Madeleine Dugger Andrews","address":"3000 Mystic Valley Parkway, Medford, MA 02155","bldgnbr":"3000","predir":null,"streetname":"Mystic Valley","streettype":"Parkway","suffdir":null,"city":"Medford","state_code":"MA","zip5":"02155","latitude":"42.4118473260000000","longitude":"-71.099502696000000","publicwifi":"U","url":null,"broadband_type_id":null}
{"id":null,"anchorname":"WINCHESTER FIRE DEPARTMENT","address":"45 Lockeland Road, WINCHESTER, MA 01890","bldgnbr":"45","predir":null,"streetname":"Lockeland","streettype":"Road","suffdir":null,"city":"WINCHESTER","state_code":"MA","zip5":"01890","latitude":"42.4421435750000000","longitude":"-71.173627964000000","publicwifi":"U","url":null,"broadband_type_id":5}
{"id":null,"anchorname":"WINCHESTER FIRE DEPARTMENT","address":"16 Alben Street, WINCHESTER, MA 01890","bldgnbr":"16","predir":null,"streetname":"Alben","streettype":"Street","suffdir":null,"city":"WINCHESTER","state_code":"MA","zip5":"01890","latitude":"42.4649460810000000","longitude":"-71.119941359000000","publicwifi":"U","url":null,"broadband_type_id":5}
{"id":null,"anchorname":"Childrens Own School","address":"86 Main, Winchester, MA 01890-3928","bldgnbr":"86","predir":null,"streetname":"Main","streettype":null,"suffdir":null,"city":"Winchester","state_code":"MA","zip5":"01890","latitude":"42.4384944670000000","longitude":"-71.133510746000000","publicwifi":"U","url":null,"broadband_type_id":6}
{"id":null,"anchorname":"Winchester High School","address":"80 Skillings Road, Winchester, MA 01890","bldgnbr":"80","predir":null,"streetname":"Skillings","streettype":"Road","suffdir":null,"city":"Winchester","state_code":"MA","zip5":"01890","latitude":"42.4562317390000000","longitude":"-71.134675618000000","publicwifi":"U","url":null,"broadband_type_id":6}
{"id":null,"anchorname":"WINCHESTER FIRE DEPARTMENT","address":"32 Mt. Vernon Street, WINCHESTER, MA 01890","bldgnbr":"32","predir":null,"streetname":"Mt. Vernon","streettype":"Street","suffdir":null,"city":"WINCHESTER","state_code":"MA","zip5":"01890","latitude":"42.4530466580000000","longitude":"-71.135747316000000","publicwifi":"U","url":null,"broadband_type_id":5}
{"id":null,"anchorname":"Winchester Public Library","address":"80 Washington Street, Winchester, MA 01890-2799","bldgnbr":"80","predir":null,"streetname":"Washington","streettype":"Street","suffdir":null,"city":"Winchester","state_code":"MA","zip5":"01890","latitude":"42.4526486890000000","longitude":"-71.133750621000000","publicwifi":"Y","url":"http://www.winpublib.org","broadband_type_id":6}
{"id":null,"anchorname":"Winchester Town Hall","address":"71 Mount Vernon Street, WINCHESTER, MA 01890","bldgnbr":"71","predir":null,"streetname":"Mount Vernon","streettype":"Street","suffdir":null,"city":"WINCHESTER","state_code":"MA","zip5":"01890","latitude":"42.4527497610000000","longitude":"-71.134613576000000","publicwifi":"U","url":null,"broadband_type_id":1}
{"id":null,"anchorname":"Winchester Public Library","address":"80 Washington Street, Winchester, MA 01890-2799","bldgnbr":"80","predir":null,"streetname":"Washington","streettype":"Street","suffdir":null,"city":"Winchester","state_code":"MA","zip5":"01890","latitude":"42.4526486890000000","longitude":"-71.133750621000000","publicwifi":"Y","url":"http://www.winpublib.org","broadband_type_id":6}
{"id":null,"anchorname":"Medford City Hall","address":"85 George P. Hassett Drive, MEDFORD, MA 02155","bldgnbr":"85","predir":null,"streetname":"George P. Hassett","streettype":"Drive","suffdir":null,"city":"MEDFORD","state_code":"MA","zip5":"02155","latitude":"42.4182500920000000","longitude":"-71.105866159000000","publicwifi":"U","url":null,"broadband_type_id":1}
{"id":null,"anchorname":"Medford Public Library","address":"111 High Street, Medford, MA 02155-3870","bldgnbr":"111","predir":null,"streetname":"High","streettype":"Street","suffdir":null,"city":"Medford","state_code":"MA","zip5":"02155","latitude":"42.4199486840000000","longitude":"-71.114400612000000","publicwifi":"U","url":"http://www.medfordlibrary.org/","broadband_type_id":6}
{"id":null,"anchorname":"Hallmark Health System - Lawrence Memorial Hospital Campus","address":"170 Governors Avenue, Medford, MA 02155","bldgnbr":"170","predir":null,"streetname":"Governors","streettype":"Avenue","suffdir":null,"city":"Medford","state_code":"MA","zip5":"02155","latitude":"42.4259265870000000","longitude":"-71.111368182000000","publicwifi":"U","url":null,"broadband_type_id":3}
{"id":null,"anchorname":"Lawrence Memorial Hospital School Of Nursing","address":"170 Governors Avenue, Medford, MA 02155","bldgnbr":"170","predir":null,"streetname":"Governors","streettype":"Avenue","suffdir":null,"city":"Medford","state_code":"MA","zip5":"02155","latitude":"42.4267748190000000","longitude":"-71.111408572000000","publicwifi":"U","url":null,"broadband_type_id":3}
{"id":null,"anchorname":"Lawrence Memorial Hospital","address":"170 Governors Ave, Medford, MA 02155","bldgnbr":"170","predir":null,"streetname":"Governors","streettype":"Ave","suffdir":null,"city":"Medford","state_code":"MA","zip5":"02155","latitude":"42.4256195190000000","longitude":"-71.110272361000000","publicwifi":"U","url":null,"broadband_type_id":3}
{"id":null,"anchorname":"Brooks School","address":"388 High Street, Medford, MA 02155","bldgnbr":"388","predir":null,"streetname":"High","streettype":"Street","suffdir":null,"city":"Medford","state_code":"MA","zip5":"02155","latitude":"42.4205817300000000","longitude":"-71.127918623000000","publicwifi":"U","url":null,"broadband_type_id":6}
{"id":null,"anchorname":"MEDFORD FIRE DEPARTMENT","address":"26 Harvard Avenue, MEDFORD, MA 02155","bldgnbr":"26","predir":null,"streetname":"Harvard","streettype":"Avenue","suffdir":null,"city":"MEDFORD","state_code":"MA","zip5":"02155","latitude":"42.4206594550000000","longitude":"-71.133259130000000","publicwifi":"U","url":null,"broadband_type_id":5}
{"id":null,"anchorname":"Elizabeth Grady School Of Esthetics","address":"222 Boston Avenue, Medford, MA 02155","bldgnbr":"222","predir":null,"streetname":"Boston","streettype":"Avenue","suffdir":null,"city":"Medford","state_code":"MA","zip5":"02155","latitude":"42.4146870470000000","longitude":"-71.125988377000000","publicwifi":"U","url":null,"broadband_type_id":6}
{"id":null,"anchorname":"MEDFORD POLICE DEPARTMENT","address":"100 Main Street, MEDFORD, MA 02155","bldgnbr":"100","predir":null,"streetname":"Main","streettype":"Street","suffdir":null,"city":"MEDFORD","state_code":"MA","zip5":"02155","latitude":"42.4158443430000000","longitude":"-71.110060204000000","publicwifi":"U","url":null,"broadband_type_id":4}
{"id":null,"anchorname":"MEDFORD FIRE DEPARTMENT","address":"120 Main Street, MEDFORD, MA 02155","bldgnbr":"120","predir":null,"streetname":"Main","streettype":"Street","suffdir":null,"city":"MEDFORD","state_code":"MA","zip5":"02155","latitude":"42.4154471800000000","longitude":"-71.110098376000000","publicwifi":"U","url":null,"broadband_type_id":5}
{"id":null,"anchorname":"MEDFORD FIRE DEPARTMENT","address":"0 Medford Street, MEDFORD, MA 02155","bldgnbr":"0","predir":null,"streetname":"Medford","streettype":"Street","suffdir":null,"city":"MEDFORD","state_code":"MA","zip5":"02155","latitude":"42.4013223210000000","longitude":"-71.105831522000000","publicwifi":"U","url":null,"broadband_type_id":5}
{"id":null,"anchorname":"MEDFORD FIRE DEPARTMENT","address":"437 Riverside Avenue, MEDFORD, MA 02155","bldgnbr":"437","predir":null,"streetname":"Riverside","streettype":"Avenue","suffdir":null,"city":"MEDFORD","state_code":"MA","zip5":"02155","latitude":"42.4108508090000000","longitude":"-71.088779518000000","publicwifi":"U","url":null,"broadband_type_id":5}
{"id":null,"anchorname":"John J McGlynn Elementary School","address":"3002 Mystic Valley Parkway, Medford, MA 02155","bldgnbr":"3002","predir":null,"streetname":"Mystic Valley","streettype":"Parkway","suffdir":null,"city":"Medford","state_code":"MA","zip5":"02155","latitude":"42.4113553730000000","longitude":"-71.099361607000000","publicwifi":"U","url":null,"broadband_type_id":6}
{"id":null,"anchorname":"State Police Medford","address":"520 Fellsway, Medford, MA 02155","bldgnbr":"520","predir":null,"streetname":"Fellsway","streettype":null,"suffdir":null,"city":"Medford","state_code":"MA","zip5":"02155","latitude":"42.4043262020000000","longitude":"-71.083218884000000","publicwifi":"U","url":null,"broadband_type_id":4}
{"id":null,"anchorname":"PLEASANT RUN ELEMENTARY SCH","address":"1800 NORTH FRANKLIN RD","bldgnbr":"BLDGNUMBER","predir":null,"streetname":"STREETNAME","streettype":null,"suffdir":null,"city":"INDIANAPOLIS","state_code":"IN","zip5":"46219","latitude":"39.7917567610000000","longitude":"-86.025331394000000","publicwifi":"N","url":null,"broadband_type_id":6}
{"id":null,"anchorname":"Milton Fuller Roberts","address":"35 Court Street, Medford, MA 02155","bldgnbr":"35","predir":null,"streetname":"Court","streettype":"Street","suffdir":null,"city":"Medford","state_code":"MA","zip5":"02155","latitude":"42.4218612590000000","longitude":"-71.099522226000000","publicwifi":"U","url":null,"broadband_type_id":null}
{"id":null,"anchorname":"Malden High","address":"77 Salem Street, Malden, MA 02148","bldgnbr":"77","predir":null,"streetname":"Salem","streettype":"Street","suffdir":null,"city":"Malden","state_code":"MA","zip5":"02148","latitude":"42.4271972380000000","longitude":"-71.064544621000000","publicwifi":"U","url":null,"broadband_type_id":6}
{"id":null,"anchorname":"New England Hair Academy","address":"492-500 Main Street, Malden, MA 02148","bldgnbr":"492-500","predir":null,"streetname":"Main","streettype":"Street","suffdir":null,"city":"Malden","state_code":"MA","zip5":"02148","latitude":"42.4279576020000000","longitude":"-71.067312138000000","publicwifi":"U","url":null,"broadband_type_id":6}
{"id":null,"anchorname":"Phoenix Charter Academy","address":"59 Nichols Street, Chelsea, MA 02150","bldgnbr":"59","predir":null,"streetname":"Nichols","streettype":"Street","suffdir":null,"city":"Chelsea","state_code":"MA","zip5":"02150","latitude":"42.4065289320000000","longitude":"-71.037511256000000","publicwifi":"U","url":null,"broadband_type_id":6}
{"id":null,"anchorname":"Cheverus Elementary","address":"30 Irving, Malden, MA 02148","bldgnbr":"30","predir":null,"streetname":"Irving","streettype":null,"suffdir":null,"city":"Malden","state_code":"MA","zip5":"02148","latitude":"42.4262006700000000","longitude":"-71.066319579000000","publicwifi":"U","url":null,"broadband_type_id":6}
{"id":null,"anchorname":"Beebe","address":"401 Pleasant Street, Malden, MA 02148","bldgnbr":"401","predir":null,"streetname":"Pleasant","streettype":"Street","suffdir":null,"city":"Malden","state_code":"MA","zip5":"02148","latitude":"42.4272275050000000","longitude":"-71.079196818000000","publicwifi":"U","url":null,"broadband_type_id":null}
{"id":null,"anchorname":"Learning Institute For Beauty Sciences","address":"384 Main Street, Malden, MA 02148","bldgnbr":"384","predir":null,"streetname":"Main","streettype":"Street","suffdir":null,"city":"Malden","state_code":"MA","zip5":"02148","latitude":"42.4262895840000000","longitude":"-71.067627112000000","publicwifi":"U","url":null,"broadband_type_id":6}
{"id":null,"anchorname":"Malden EN-DTA","address":"200 Pleasant Street, Malden, MA 02148","bldgnbr":"200","predir":null,"streetname":"Pleasant","streettype":"Street","suffdir":null,"city":"Malden","state_code":"MA","zip5":"02148","latitude":"42.4272738150000000","longitude":"-71.073424656000000","publicwifi":"U","url":null,"broadband_type_id":null}
{"id":null,"anchorname":"Ferryway","address":"150 Cross Street, Malden, MA 02148","bldgnbr":"150","predir":null,"streetname":"Cross","streettype":"Street","suffdir":null,"city":"Malden","state_code":"MA","zip5":"02148","latitude":"42.4197484470000000","longitude":"-71.063334959000000","publicwifi":"U","url":null,"broadband_type_id":null}
{"id":null,"anchorname":"Malden ELC","address":"257 Mountain Avenue, Malden, MA 02148","bldgnbr":"257","predir":null,"streetname":"Mountain","streettype":"Avenue","suffdir":null,"city":"Malden","state_code":"MA","zip5":"02148","latitude":"42.4315450510000000","longitude":"-71.063480574000000","publicwifi":"U","url":null,"broadband_type_id":null}
{"id":null,"anchorname":"Salemwood","address":"529 Salem Street, Malden, MA 02148","bldgnbr":"529","predir":null,"streetname":"Salem","streettype":"Street","suffdir":null,"city":"Malden","state_code":"MA","zip5":"02148","latitude":"42.4315909950000000","longitude":"-71.050317497000000","publicwifi":"U","url":null,"broadband_type_id":null}
{"id":null,"anchorname":"Linden","address":"29 Wescott Street, Malden, MA 02148","bldgnbr":"29","predir":null,"streetname":"Wescott","streettype":"Street","suffdir":null,"city":"Malden","state_code":"MA","zip5":"02148","latitude":"42.4333025700000000","longitude":"-71.034164046000000","publicwifi":"U","url":null,"broadband_type_id":null}
{"id":null,"anchorname":"Linden Branch","address":"141 OLIVER Street, Malden, MA 02148","bldgnbr":"141","predir":null,"streetname":"OLIVER","streettype":"Street","suffdir":null,"city":"Malden","state_code":"MA","zip5":"02148","latitude":"42.4321621550000000","longitude":"-71.029680001000000","publicwifi":"U","url":null,"broadband_type_id":null}
{"id":null,"anchorname":"MEDFORD FIRE DEPARTMENT","address":"2 Ames Street, MEDFORD, MA 02155","bldgnbr":"2","predir":null,"streetname":"Ames","streettype":"Street","suffdir":null,"city":"MEDFORD","state_code":"MA","zip5":"02155","latitude":"42.4359835350000000","longitude":"-71.096696436000000","publicwifi":"U","url":null,"broadband_type_id":5}
{"id":null,"anchorname":"Blaine The Beauty Career School-Malden","address":"347 Pleasant Street, Malden, MA 02148","bldgnbr":"347","predir":null,"streetname":"Pleasant","streettype":"Street","suffdir":null,"city":"Malden","state_code":"MA","zip5":"02148","latitude":"42.4274553740000000","longitude":"-71.076620645000000","publicwifi":"U","url":null,"broadband_type_id":3}
{"id":null,"anchorname":"MALDEN FIRE DEPARTMENT","address":"332 Pleasant Street, MALDEN, MA 02148","bldgnbr":"332","predir":null,"streetname":"Pleasant","streettype":"Street","suffdir":null,"city":"MALDEN","state_code":"MA","zip5":"02148","latitude":"42.4269687480000000","longitude":"-71.075904268000000","publicwifi":"U","url":null,"broadband_type_id":5}
{"id":null,"anchorname":"The Salter School-Malden","address":"2 Florence Street, Malden, MA 02148","bldgnbr":"2","predir":null,"streetname":"Florence","streettype":"Street","suffdir":null,"city":"Malden","state_code":"MA","zip5":"02148","latitude":"42.4274012000000000","longitude":"-71.073042962000000","publicwifi":"U","url":null,"broadband_type_id":6}
{"id":null,"anchorname":"Malden Police Department","address":"200 Pleasant Street, Malden, MA 02148","bldgnbr":"200","predir":null,"streetname":"Pleasant","streettype":"Street","suffdir":null,"city":"Malden","state_code":"MA","zip5":"02148","latitude":"42.4267270170000000","longitude":"-71.073076197000000","publicwifi":"U","url":null,"broadband_type_id":4}
{"id":null,"anchorname":"Malden Family Medicine Center","address":"195 Canal St, Malden, MA 02148","bldgnbr":"195","predir":null,"streetname":"Canal","streettype":"St","suffdir":null,"city":"Malden","state_code":"MA","zip5":"02148","latitude":"42.4207299310000000","longitude":"-71.072404087000000","publicwifi":"U","url":null,"broadband_type_id":3}
{"id":null,"anchorname":"Malden Public Library","address":"36 Salem Street, Malden, MA 02148-5208","bldgnbr":"36","predir":null,"streetname":"Salem","streettype":"Street","suffdir":null,"city":"Malden","state_code":"MA","zip5":"02148","latitude":"42.4273486860000000","longitude":"-71.065940599000000","publicwifi":"N","url":"http://www.maldenpubliclibrary.org/","broadband_type_id":6}
{"id":null,"anchorname":"MALDEN FIRE DEPARTMENT","address":"4 Laurel Street, MALDEN, MA 02148","bldgnbr":"4","predir":null,"streetname":"Laurel","streettype":"Street","suffdir":null,"city":"MALDEN","state_code":"MA","zip5":"02148","latitude":"42.4348938070000000","longitude":"-71.044174218000000","publicwifi":"U","url":null,"broadband_type_id":5}
{"id":null,"anchorname":"Mystic Valley Regional Charter School","address":"770 Salem Street, Malden, MA 02148","bldgnbr":"770","predir":null,"streetname":"Salem","streettype":"Street","suffdir":null,"city":"Malden","state_code":"MA","zip5":"02148","latitude":"42.4343097270000000","longitude":"-71.043136333000000","publicwifi":"U","url":null,"broadband_type_id":6}
{"id":null,"anchorname":"Webster School","address":"30 Dartmouth Street, Everett, MA 02149","bldgnbr":"30","predir":null,"streetname":"Dartmouth","streettype":"Street","suffdir":null,"city":"Everett","state_code":"MA","zip5":"02149","latitude":"42.4125156850000000","longitude":"-71.038964143000000","publicwifi":"U","url":null,"broadband_type_id":6}
{"id":null,"anchorname":"Webster School","address":"30 Dartmouth Street, Everett, MA 02149","bldgnbr":"30","predir":null,"streetname":"Dartmouth","streettype":"Street","suffdir":null,"city":"Everett","state_code":"MA","zip5":"02149","latitude":"42.4125156850000000","longitude":"-71.038964143000000","publicwifi":"U","url":null,"broadband_type_id":6}
{"id":null,"anchorname":"EVERETT POLICE CHIEF","address":"45 Elm Street, EVERETT, MA 02149","bldgnbr":"45","predir":null,"streetname":"Elm","streettype":"Street","suffdir":null,"city":"EVERETT","state_code":"MA","zip5":"02149","latitude":"42.4125811820000000","longitude":"-71.044753794000000","publicwifi":"U","url":null,"broadband_type_id":4}
{"id":null,"anchorname":"EVERETT FIRE DEPARTMENT","address":"243 Ferry Street, EVERETT, MA 02149","bldgnbr":"243","predir":null,"streetname":"Ferry","streettype":"Street","suffdir":null,"city":"EVERETT","state_code":"MA","zip5":"02149","latitude":"42.4122765340000000","longitude":"-71.045393211000000","publicwifi":"U","url":null,"broadband_type_id":5}
{"id":null,"anchorname":"Keverian School","address":"20 Nichols Street, Everett, MA 02149","bldgnbr":"20","predir":null,"streetname":"Nichols","streettype":"Street","suffdir":null,"city":"Everett","state_code":"MA","zip5":"02149","latitude":"42.4089132110000000","longitude":"-71.044855168000000","publicwifi":"U","url":null,"broadband_type_id":6}
{"id":null,"anchorname":"Keverian School","address":"20 Nichols Street, Everett, MA 02149","bldgnbr":"20","predir":null,"streetname":"Nichols","streettype":"Street","suffdir":null,"city":"Everett","state_code":"MA","zip5":"02149","latitude":"42.4089132110000000","longitude":"-71.044855168000000","publicwifi":"U","url":null,"broadband_type_id":6}
{"id":null,"anchorname":"Anna May Powers Health Center","address":"20 Nichols Street, Everett, MA 02149","bldgnbr":"20","predir":null,"streetname":"Nichols","streettype":"Street","suffdir":null,"city":"Everett","state_code":"MA","zip5":"02149","latitude":"42.4089131750000000","longitude":"-71.044855178000000","publicwifi":"U","url":null,"broadband_type_id":3}
{"id":null,"anchorname":"Women's Health Center","address":"96 Garland Street, Everett, MA 02149","bldgnbr":"96","predir":null,"streetname":"Garland","streettype":"Street","suffdir":null,"city":"Everett","state_code":"MA","zip5":"02149","latitude":"42.4097117340000000","longitude":"-71.039281849000000","publicwifi":"U","url":null,"broadband_type_id":3}
{"id":null,"anchorname":"Cambridge Health Alliance - Whidden Memorial Campus","address":"103 Garland Street, Everett, MA 02149","bldgnbr":"103","predir":null,"streetname":"Garland","streettype":"Street","suffdir":null,"city":"Everett","state_code":"MA","zip5":"02149","latitude":"42.4092036050000000","longitude":"-71.039558815000000","publicwifi":"U","url":null,"broadband_type_id":3}
{"id":null,"anchorname":"Whidden Hospital","address":"103 Garland St, Everett, MA 02149","bldgnbr":"103","predir":null,"streetname":"Garland","streettype":"St","suffdir":null,"city":"Everett","state_code":"MA","zip5":"02149","latitude":"42.4094420010000000","longitude":"-71.039193758000000","publicwifi":"U","url":null,"broadband_type_id":3}
{"id":null,"anchorname":"Everett Teen Health Center","address":"100 Elm St, Everett, MA 02149","bldgnbr":"100","predir":null,"streetname":"Elm","streettype":"St","suffdir":null,"city":"Everett","state_code":"MA","zip5":"02149","latitude":"42.4135065180000000","longitude":"-71.043150585000000","publicwifi":"U","url":null,"broadband_type_id":3}
{"id":null,"anchorname":"Everett High School","address":"100 Elm Street, Everett, MA 02149","bldgnbr":"100","predir":null,"streetname":"Elm","streettype":"Street","suffdir":null,"city":"Everett","state_code":"MA","zip5":"02149","latitude":"42.4143738700000000","longitude":"-71.043795129000000","publicwifi":"U","url":null,"broadband_type_id":6}
{"id":null,"anchorname":"Everett High School","address":"100 Elm Street, Everett, MA 02149","bldgnbr":"100","predir":null,"streetname":"Elm","streettype":"Street","suffdir":null,"city":"Everett","state_code":"MA","zip5":"02149","latitude":"42.4143738700000000","longitude":"-71.043795129000000","publicwifi":"U","url":null,"broadband_type_id":6}
{"id":null,"anchorname":"Shute Memorial Library","address":"781 Broadway, Everett, MA 02149","bldgnbr":"781","predir":null,"streetname":"Broadway","streettype":null,"suffdir":null,"city":"Everett","state_code":"MA","zip5":"02149","latitude":"42.4167407950000000","longitude":"-71.046804656000000","publicwifi":"U","url":null,"broadband_type_id":6}
{"id":null,"anchorname":"BEVERLY ENTERPRISES REHAB","address":"7145 E 21ST ST","bldgnbr":"BLDGNUMBER","predir":null,"streetname":"STREETNAME","streettype":null,"suffdir":null,"city":"INDIANAPOLIS","state_code":"IN","zip5":"46219","latitude":"39.7963858830000000","longitude":"-86.042427923000000","publicwifi":"I","url":null,"broadband_type_id":6}
{"id":null,"anchorname":"West Branch","address":"40 COLLEGE Avenue, Somerville, MA 02144","bldgnbr":"40","predir":null,"streetname":"COLLEGE","streettype":"Avenue","suffdir":null,"city":"Somerville","state_code":"MA","zip5":"02144","latitude":"42.3979887750000000","longitude":"-71.121479920000000","publicwifi":"U","url":null,"broadband_type_id":6}
{"id":null,"anchorname":"Cvs Pharmacy #717","address":"36 White St, Cambridge, MA 02140","bldgnbr":"36","predir":null,"streetname":"White","streettype":"St","suffdir":null,"city":"Cambridge","state_code":"MA","zip5":"02140","latitude":"42.3887669830000000","longitude":"-71.117623890000000","publicwifi":"U","url":null,"broadband_type_id":3}
{"id":null,"anchorname":"Computer-ed Institute-Somerville","address":"5 Middlesex Avenue, Somerville, MA 02145","bldgnbr":"5","predir":null,"streetname":"Middlesex","streettype":"Avenue","suffdir":null,"city":"Somerville","state_code":"MA","zip5":"02145","latitude":"42.3910687640000000","longitude":"-71.082403896000000","publicwifi":"U","url":null,"broadband_type_id":null}
{"id":null,"anchorname":"East Branch","address":"115 Broadway, Somerville, MA 02145","bldgnbr":"115","predir":null,"streetname":"Broadway","streettype":null,"suffdir":null,"city":"Somerville","state_code":"MA","zip5":"02145","latitude":"42.3879117910000000","longitude":"-71.083947541000000","publicwifi":"U","url":null,"broadband_type_id":null}
{"id":null,"anchorname":"St Catherine Of Genoa","address":"194 Summer, Somerville, MA 02143","bldgnbr":"194","predir":null,"streetname":"Summer","streettype":null,"suffdir":null,"city":"Somerville","state_code":"MA","zip5":"02143","latitude":"42.3869849340000000","longitude":"-71.108664404000000","publicwifi":"U","url":null,"broadband_type_id":null}
{"id":null,"anchorname":"Pope John XXIII High School","address":"888 Broadway, Everett, MA 02149-3199","bldgnbr":"888","predir":null,"streetname":"Broadway","streettype":null,"suffdir":null,"city":"Everett","state_code":"MA","zip5":"02149","latitude":"42.4203998200000000","longitude":"-71.044976574000000","publicwifi":"U","url":null,"broadband_type_id":6}
{"id":null,"anchorname":"EVERETT FIRE DEPARTMENT","address":"54 Hancock Street, EVERETT, MA 02149","bldgnbr":"54","predir":null,"streetname":"Hancock","streettype":"Street","suffdir":null,"city":"EVERETT","state_code":"MA","zip5":"02149","latitude":"42.4121184140000000","longitude":"-71.054178039000000","publicwifi":"U","url":null,"broadband_type_id":5}
{"id":null,"anchorname":"English School","address":"105 Woodville Street, Everett, MA 02149","bldgnbr":"105","predir":null,"streetname":"Woodville","streettype":"Street","suffdir":null,"city":"Everett","state_code":"MA","zip5":"02149","latitude":"42.4134998180000000","longitude":"-71.069074727000000","publicwifi":"U","url":null,"broadband_type_id":6}
{"id":null,"anchorname":"English School","address":"105 Woodville Street, Everett, MA 02149","bldgnbr":"105","predir":null,"streetname":"Woodville","streettype":"Street","suffdir":null,"city":"Everett","state_code":"MA","zip5":"02149","latitude":"42.4134998180000000","longitude":"-71.069074727000000","publicwifi":"U","url":null,"broadband_type_id":6}
{"id":null,"anchorname":"Parlin Memorial Library","address":"410 Broadway, Everett, MA 02149-3496","bldgnbr":"410","predir":null,"streetname":"Broadway","streettype":null,"suffdir":null,"city":"Everett","state_code":"MA","zip5":"02149","latitude":"42.4056386810000000","longitude":"-71.056930590000000","publicwifi":"Y","url":"http://www.noblenet.org/everett/","broadband_type_id":6}
{"id":null,"anchorname":"EVERETT FIRE DEPARTMENT","address":"384 Broadway, EVERETT, MA 02149","bldgnbr":"384","predir":null,"streetname":"Broadway","streettype":null,"suffdir":null,"city":"EVERETT","state_code":"MA","zip5":"02149","latitude":"42.4055435900000000","longitude":"-71.057096647000000","publicwifi":"U","url":null,"broadband_type_id":5}
{"id":null,"anchorname":"Everett City Hall","address":"484 Broadway, EVERETT, MA 02149","bldgnbr":"484","predir":null,"streetname":"Broadway","streettype":null,"suffdir":null,"city":"EVERETT","state_code":"MA","zip5":"02149","latitude":"42.4083977330000000","longitude":"-71.054758369000000","publicwifi":"U","url":null,"broadband_type_id":1}
{"id":null,"anchorname":"MGH Everett Family Care","address":"19-21 Norwood Street, Everett, MA 02149","bldgnbr":"19-21","predir":null,"streetname":"Norwood","streettype":"Street","suffdir":null,"city":"Everett","state_code":"MA","zip5":"02149","latitude":"42.4075276960000000","longitude":"-71.056572288000000","publicwifi":"U","url":null,"broadband_type_id":3}
{"id":null,"anchorname":"Mgh Everett Family Care","address":"19­23 Norwood St, Everett, MA 02149","bldgnbr":"19?¡23","predir":null,"streetname":"Norwood","streettype":"St","suffdir":null,"city":"Everett","state_code":"MA","zip5":"02149","latitude":"42.4074150210000000","longitude":"-71.056286747000000","publicwifi":"U","url":null,"broadband_type_id":3}
{"id":null,"anchorname":"Parlin School","address":"587 Broadway Street, Everett, MA 02149","bldgnbr":"587","predir":null,"streetname":"Broadway","streettype":"Street","suffdir":null,"city":"Everett","state_code":"MA","zip5":"02149","latitude":"42.4109381410000000","longitude":"-71.050910779000000","publicwifi":"U","url":null,"broadband_type_id":6}
{"id":null,"anchorname":"Parlin School","address":"587 Broadway Street, Everett, MA 02149","bldgnbr":"587","predir":null,"streetname":"Broadway","streettype":"Street","suffdir":null,"city":"Everett","state_code":"MA","zip5":"02149","latitude":"42.4109381410000000","longitude":"-71.050910779000000","publicwifi":"U","url":null,"broadband_type_id":6}
{"id":null,"anchorname":"Pioneer Charter School of Science","address":"51-59 Summer Street, Everett, MA 02149","bldgnbr":"51-59","predir":null,"streetname":"Summer","streettype":"Street","suffdir":null,"city":"Everett","state_code":"MA","zip5":"02149","latitude":"42.4081713940000000","longitude":"-71.051240933000000","publicwifi":"U","url":null,"broadband_type_id":6}
{"id":null,"anchorname":"Everett Family Health Center","address":"391 Broadway Ste 204, Everett, MA 02149","bldgnbr":"391","predir":null,"streetname":"Broadway","streettype":null,"suffdir":null,"city":"Everett","state_code":"MA","zip5":"02149","latitude":"42.4055954690000000","longitude":"-71.056755792000000","publicwifi":"U","url":null,"broadband_type_id":3}
{"id":null,"anchorname":"Whittier School","address":"337 Broadway, Everett, MA 02149","bldgnbr":"337","predir":null,"streetname":"Broadway","streettype":null,"suffdir":null,"city":"Everett","state_code":"MA","zip5":"02149","latitude":"42.4040624490000000","longitude":"-71.057635079000000","publicwifi":"U","url":null,"broadband_type_id":6}
{"id":null,"anchorname":"Whittier School","address":"337 Broadway, Everett, MA 02149","bldgnbr":"337","predir":null,"streetname":"Broadway","streettype":null,"suffdir":null,"city":"Everett","state_code":"MA","zip5":"02149","latitude":"42.4040624490000000","longitude":"-71.057635079000000","publicwifi":"U","url":null,"broadband_type_id":6}
{"id":null,"anchorname":"Career Source, Everett","address":"1935 Revere Beach Parkway, Everett, MA 02149","bldgnbr":"1935","predir":null,"streetname":"Revere Beach","streettype":"Parkway","suffdir":null,"city":"Everett","state_code":"MA","zip5":"02149","latitude":"42.4031310440000000","longitude":"-71.052094242000000","publicwifi":"U","url":null,"broadband_type_id":3}
{"id":null,"anchorname":"Arthur D. Healey School","address":"5 Meacham Street, Somerville, MA 02145","bldgnbr":"5","predir":null,"streetname":"Meacham","streettype":"Street","suffdir":null,"city":"Somerville","state_code":"MA","zip5":"02145","latitude":"42.3975829400000000","longitude":"-71.095332384000000","publicwifi":"U","url":null,"broadband_type_id":6}
{"id":null,"anchorname":"Next Wave Alternative Junior High School","address":"8 Bonair Street, Somervill, MA 02145","bldgnbr":"8","predir":null,"streetname":"Bonair","streettype":"Street","suffdir":null,"city":"Somervill","state_code":"MA","zip5":"02145","latitude":"42.3888827690000000","longitude":"-71.085986303000000","publicwifi":"U","url":null,"broadband_type_id":6}
{"id":null,"anchorname":"Winter Hill Community School","address":"115 Sycamore Street, Somerville, MA 02145","bldgnbr":"115","predir":null,"streetname":"Sycamore","streettype":"Street","suffdir":null,"city":"Somerville","state_code":"MA","zip5":"02145","latitude":"42.3918300110000000","longitude":"-71.098817344000000","publicwifi":"U","url":null,"broadband_type_id":6}
{"id":null,"anchorname":"Broadway Health Center","address":"300 Broadway, Somerville, MA 02145","bldgnbr":"300","predir":null,"streetname":"Broadway","streettype":null,"suffdir":null,"city":"Somerville","state_code":"MA","zip5":"02145","latitude":"42.3922581980000000","longitude":"-71.092982254000000","publicwifi":"U","url":null,"broadband_type_id":3}
{"id":null,"anchorname":"SOMERVILLE FIRE DEPARTMENT","address":"266 Broadway, SOMERVILLE, MA 02145","bldgnbr":"266","predir":null,"streetname":"Broadway","streettype":null,"suffdir":null,"city":"SOMERVILLE","state_code":"MA","zip5":"02145","latitude":"42.3910208470000000","longitude":"-71.091476556000000","publicwifi":"U","url":null,"broadband_type_id":5}
{"id":null,"anchorname":"Benjamin G. Brown School","address":"201 Willow Avenue, Somerville, MA 02144","bldgnbr":"201","predir":null,"streetname":"Willow","streettype":"Avenue","suffdir":null,"city":"Somerville","state_code":"MA","zip5":"02144","latitude":"42.3975413370000000","longitude":"-71.114175778000000","publicwifi":"U","url":null,"broadband_type_id":6}
{"id":null,"anchorname":"Tufts University","address":"169 Holland Street, Medford, MA 02155","bldgnbr":"169","predir":null,"streetname":"Holland","streettype":"Street","suffdir":null,"city":"Medford","state_code":"MA","zip5":"02155","latitude":"42.4011375450000000","longitude":"-71.125416127000000","publicwifi":"U","url":null,"broadband_type_id":6}
{"id":null,"anchorname":"Tufts Educational Day Care Center","address":"165 Holland Street, Somerville, MA 02144","bldgnbr":"165","predir":null,"streetname":"Holland","streettype":"Street","suffdir":null,"city":"Somerville","state_code":"MA","zip5":"02144","latitude":"42.4001749520000000","longitude":"-71.125190192000000","publicwifi":"U","url":null,"broadband_type_id":3}
{"id":null,"anchorname":"West Somerville Neighborhood School","address":"177 Powderhouse Boulevard, Somerville, MA 02144","bldgnbr":"177","predir":null,"streetname":"Powderhouse","streettype":"Boulevard","suffdir":null,"city":"Somerville","state_code":"MA","zip5":"02144","latitude":"42.4063201780000000","longitude":"-71.126275374000000","publicwifi":"U","url":null,"broadband_type_id":6}
{"id":null,"anchorname":"SOMERVILLE FIRE DEPARTMENT","address":"2 Newbury Street, SOMERVILLE, MA 02144","bldgnbr":"2","predir":null,"streetname":"Newbury","streettype":"Street","suffdir":null,"city":"SOMERVILLE","state_code":"MA","zip5":"02144","latitude":"42.4027217940000000","longitude":"-71.126949685000000","publicwifi":"U","url":null,"broadband_type_id":5}
{"id":null,"anchorname":"SOMERVILLE FIRE DEPARTMENT","address":"265 Highland Avenue, SOMERVILLE, MA 02143","bldgnbr":"265","predir":null,"streetname":"Highland","streettype":"Avenue","suffdir":null,"city":"SOMERVILLE","state_code":"MA","zip5":"02143","latitude":"42.3917840090000000","longitude":"-71.110797755000000","publicwifi":"U","url":null,"broadband_type_id":5}
{"id":null,"anchorname":"SOMERVILLE FIRE DEPARTMENT","address":"651 Somerville Avenue, SOMERVILLE, MA 02143","bldgnbr":"651","predir":null,"streetname":"Somerville","streettype":"Avenue","suffdir":null,"city":"SOMERVILLE","state_code":"MA","zip5":"02143","latitude":"42.3846734160000000","longitude":"-71.111334680000000","publicwifi":"U","url":null,"broadband_type_id":5}
{"id":null,"anchorname":"John F. Kennedy Elementary School","address":"5 Cherry Street, Somerville, MA 02144","bldgnbr":"5","predir":null,"streetname":"Cherry","streettype":"Street","suffdir":null,"city":"Somerville","state_code":"MA","zip5":"02144","latitude":"42.3892536450000000","longitude":"-71.115851065000000","publicwifi":"U","url":null,"broadband_type_id":6}
{"id":null,"anchorname":"Central Street Health Center","address":"26 Central Street, Somerville, MA 02143","bldgnbr":"26","predir":null,"streetname":"Central","streettype":"Street","suffdir":null,"city":"Somerville","state_code":"MA","zip5":"02143","latitude":"42.3850166870000000","longitude":"-71.106021995000000","publicwifi":"U","url":null,"broadband_type_id":3}
{"id":null,"anchorname":"Cambridge Health Alliance - Somerville Campus","address":"230 Highland Avenue, Somerville, MA 02143","bldgnbr":"230","predir":null,"streetname":"Highland","streettype":"Avenue","suffdir":null,"city":"Somerville","state_code":"MA","zip5":"02143","latitude":"42.3901181450000000","longitude":"-71.109405606000000","publicwifi":"U","url":null,"broadband_type_id":3}
{"id":null,"anchorname":"CRESTON INTERMEDIATE ACADEMY","address":"10925 EAST PROSPECT ST","bldgnbr":"BLDGNUMBER","predir":null,"streetname":"STREETNAME","streettype":null,"suffdir":null,"city":"INDIANAPOLIS","state_code":"IN","zip5":"46239","latitude":"39.7553230940000000","longitude":"-85.971961042000000","publicwifi":"N","url":null,"broadband_type_id":6}
{"id":null,"anchorname":"MARY BRYAN ELEMENTARY SCH","address":"4355 EAST STOP 11 RD","bldgnbr":"BLDGNUMBER","predir":null,"streetname":"STREETNAME","streettype":null,"suffdir":null,"city":"INDIANAPOLIS","state_code":"IN","zip5":"46237","latitude":"39.6508028830000000","longitude":"-86.094059658000000","publicwifi":"N","url":null,"broadband_type_id":6}
{"id":null,"anchorname":"FRANKLIN TOWNSHIP MIDDLE SCH WEST","address":"6019 SOUTH FRANKLIN RD","bldgnbr":"BLDGNUMBER","predir":null,"streetname":"STREETNAME","streettype":null,"suffdir":null,"city":"INDIANAPOLIS","state_code":"IN","zip5":"46259","latitude":"39.6799911890000000","longitude":"-86.018584932000000","publicwifi":"N","url":null,"broadband_type_id":6}
{"id":null,"anchorname":"Fletcher/Maynard Academy","address":"225 Windsor Street, Cambridge, MA 02139","bldgnbr":"225","predir":null,"streetname":"Windsor","streettype":"Street","suffdir":null,"city":"Cambridge","state_code":"MA","zip5":"02139","latitude":"42.3668015290000000","longitude":"-71.095927276000000","publicwifi":"U","url":null,"broadband_type_id":6}
{"id":null,"anchorname":"Somerville Teen Connection","address":"81 Highland Ave, Somerville, MA 02143","bldgnbr":"81","predir":null,"streetname":"Highland","streettype":"Ave","suffdir":null,"city":"Somerville","state_code":"MA","zip5":"02143","latitude":"42.3865791620000000","longitude":"-71.097806531000000","publicwifi":"U","url":null,"broadband_type_id":null}
{"id":null,"anchorname":"Michael E. Capuano Early Childhood Center","address":"150 Glen Street, Somerville, MA 02145","bldgnbr":"150","predir":null,"streetname":"Glen","streettype":"Street","suffdir":null,"city":"Somerville","state_code":"MA","zip5":"02145","latitude":"42.3875395220000000","longitude":"-71.087182211000000","publicwifi":"U","url":null,"broadband_type_id":null}
{"id":null,"anchorname":"Cambridge Pediatrics","address":"1493 Cambridge Street, Cambridge, MA 02139","bldgnbr":"1493","predir":null,"streetname":"Cambridge","streettype":"Street","suffdir":null,"city":"Cambridge","state_code":"MA","zip5":"02139","latitude":"42.3744907930000000","longitude":"-71.104092084000000","publicwifi":"U","url":null,"broadband_type_id":null}
{"id":null,"anchorname":"Somerville Hospital Primary Care","address":"236 Highland Ave, Somerville, MA 02143","bldgnbr":"236","predir":null,"streetname":"Highland","streettype":"Ave","suffdir":null,"city":"Somerville","state_code":"MA","zip5":"02143","latitude":"42.3906630080000000","longitude":"-71.109165971000000","publicwifi":"U","url":null,"broadband_type_id":3}
{"id":null,"anchorname":"Somerville Hospital","address":"236 Highland Ave, Somerville, MA 02143","bldgnbr":"236","predir":null,"streetname":"Highland","streettype":"Ave","suffdir":null,"city":"Somerville","state_code":"MA","zip5":"02143","latitude":"42.3906630080000000","longitude":"-71.109165971000000","publicwifi":"U","url":null,"broadband_type_id":3}
{"id":null,"anchorname":"Prospect Hill Academy Charter School","address":"15 Webster Avenue, Somerville, MA 02143","bldgnbr":"15","predir":null,"streetname":"Webster","streettype":"Avenue","suffdir":null,"city":"Somerville","state_code":"MA","zip5":"02143","latitude":"42.3787052030000000","longitude":"-71.096435047000000","publicwifi":"U","url":null,"broadband_type_id":6}
{"id":null,"anchorname":"Dr. Albert F. Argenziano School at Lincoln Park","address":"290 Washington Street, Somerville, MA 02143","bldgnbr":"290","predir":null,"streetname":"Washington","streettype":"Street","suffdir":null,"city":"Somerville","state_code":"MA","zip5":"02143","latitude":"42.3791546560000000","longitude":"-71.099281152000000","publicwifi":"U","url":null,"broadband_type_id":6}
{"id":null,"anchorname":"Union Square Health Center","address":"337 Somerville Avenue, Somerville, MA 02143","bldgnbr":"337","predir":null,"streetname":"Somerville","streettype":"Avenue","suffdir":null,"city":"Somerville","state_code":"MA","zip5":"02143","latitude":"42.3807991690000000","longitude":"-71.097946548000000","publicwifi":"U","url":null,"broadband_type_id":3}
{"id":null,"anchorname":"Somerville Teen Connection at Somerville High School","address":"81 Highland Avenue, Somerville, MA 02143","bldgnbr":"81","predir":null,"streetname":"Highland","streettype":"Avenue","suffdir":null,"city":"Somerville","state_code":"MA","zip5":"02143","latitude":"42.3871642240000000","longitude":"-71.097046181000000","publicwifi":"U","url":null,"broadband_type_id":6}
{"id":null,"anchorname":"Somerville City Hall","address":"93 Highland Avenue, SOMERVILLE, MA 02143","bldgnbr":"93","predir":null,"streetname":"Highland","streettype":"Avenue","suffdir":null,"city":"SOMERVILLE","state_code":"MA","zip5":"02143","latitude":"42.3871321830000000","longitude":"-71.096970008000000","publicwifi":"U","url":null,"broadband_type_id":1}
{"id":null,"anchorname":"East Somerville Health Center","address":"42 Cross Street, Somerville, MA 02145","bldgnbr":"42","predir":null,"streetname":"Cross","streettype":"Street","suffdir":null,"city":"Somerville","state_code":"MA","zip5":"02145","latitude":"42.3867241150000000","longitude":"-71.086916441000000","publicwifi":"U","url":null,"broadband_type_id":3}
{"id":null,"anchorname":"Full Circle Alternative High School","address":"11 Otis Street, Somerville, MA 02145","bldgnbr":"11","predir":null,"streetname":"Otis","streettype":"Street","suffdir":null,"city":"Somerville","state_code":"MA","zip5":"02145","latitude":"42.3874563300000000","longitude":"-71.087683100000000","publicwifi":"U","url":null,"broadband_type_id":6}
{"id":null,"anchorname":"East Somerville Community School","address":"8 Bonair Street, Somerville, MA 02145","bldgnbr":"8","predir":null,"streetname":"Bonair","streettype":"Street","suffdir":null,"city":"Somerville","state_code":"MA","zip5":"02145","latitude":"42.3876997780000000","longitude":"-71.087195524000000","publicwifi":"U","url":null,"broadband_type_id":6}
{"id":null,"anchorname":"SOMERVILLE FIRE DEPARTMENT","address":"255 Somerville Avenue, SOMERVILLE, MA 02143","bldgnbr":"255","predir":null,"streetname":"Somerville","streettype":"Avenue","suffdir":null,"city":"SOMERVILLE","state_code":"MA","zip5":"02143","latitude":"42.3782135930000000","longitude":"-71.092162288000000","publicwifi":"U","url":null,"broadband_type_id":5}
{"id":null,"anchorname":"SOMERVILLE POLICE","address":"220 Washington Street, SOMERVILLE, MA 02143","bldgnbr":"220","predir":null,"streetname":"Washington","streettype":"Street","suffdir":null,"city":"SOMERVILLE","state_code":"MA","zip5":"02143","latitude":"42.3791379980000000","longitude":"-71.092439738000000","publicwifi":"U","url":null,"broadband_type_id":4}
{"id":null,"anchorname":"Hult International Business School","address":"1 Education Street, Cambridge, MA 02141","bldgnbr":"1","predir":null,"streetname":"Education","streettype":"Street","suffdir":null,"city":"Cambridge","state_code":"MA","zip5":"02141","latitude":"42.3701056110000000","longitude":"-71.070588612000000","publicwifi":"U","url":null,"broadband_type_id":6}
{"id":null,"anchorname":"Middlesex County Sheriff's Office","address":"40 Thorndike Street, Cambridge, MA 02141","bldgnbr":"40","predir":null,"streetname":"Thorndike","streettype":"Street","suffdir":null,"city":"Cambridge","state_code":"MA","zip5":"02141","latitude":"42.3694168690000000","longitude":"-71.079502035000000","publicwifi":"U","url":null,"broadband_type_id":4}
{"id":null,"anchorname":"CAMBRIDGE FIRE DEPARTMENT","address":"175 Cambridge Street, CAMBRIDGE, MA 02141","bldgnbr":"175","predir":null,"streetname":"Cambridge","streettype":"Street","suffdir":null,"city":"CAMBRIDGE","state_code":"MA","zip5":"02141","latitude":"42.3711674630000000","longitude":"-71.078858203000000","publicwifi":"U","url":null,"broadband_type_id":5}
{"id":null,"anchorname":"East Cambridge Health Center","address":"163 Gore Street, Cambridge, MA 02141","bldgnbr":"163","predir":null,"streetname":"Gore","streettype":"Street","suffdir":null,"city":"Cambridge","state_code":"MA","zip5":"02141","latitude":"42.3731262620000000","longitude":"-71.085390647000000","publicwifi":"U","url":null,"broadband_type_id":3}
{"id":null,"anchorname":"East Cambridge Health Center","address":"163 Gore St, Cambridge, MA 02141","bldgnbr":"163","predir":null,"streetname":"Gore","streettype":"St","suffdir":null,"city":"Cambridge","state_code":"MA","zip5":"02141","latitude":"42.3728178100000000","longitude":"-71.085692519000000","publicwifi":"U","url":null,"broadband_type_id":3}
{"id":null,"anchorname":"William Cardinal O'Connell Branch Library","address":"48 6TH Street, Cambridge, MA 02141","bldgnbr":"48","predir":null,"streetname":"6TH","streettype":"Street","suffdir":null,"city":"Cambridge","state_code":"MA","zip5":"02141","latitude":"42.3704159320000000","longitude":"-71.085010362000000","publicwifi":"U","url":null,"broadband_type_id":6}
{"id":null,"anchorname":"Community Charter School of Cambridge","address":"245 Bent Street, Cambridge, MA 02141","bldgnbr":"245","predir":null,"streetname":"Bent","streettype":"Street","suffdir":null,"city":"Cambridge","state_code":"MA","zip5":"02141","latitude":"42.3670897590000000","longitude":"-71.084552312000000","publicwifi":"U","url":null,"broadband_type_id":6}
{"id":null,"anchorname":"Salvatore Valente Branch Library","address":"826 Cambridge Street, Cambridge, MA 02139","bldgnbr":"826","predir":null,"streetname":"Cambridge","streettype":"Street","suffdir":null,"city":"Cambridge","state_code":"MA","zip5":"02139","latitude":"42.3723734610000000","longitude":"-71.090276799000000","publicwifi":"U","url":null,"broadband_type_id":6}
{"id":null,"anchorname":"Cambridge Family Health","address":"237 Hampshire Street, Cambridge, MA 02139","bldgnbr":"237","predir":null,"streetname":"Hampshire","streettype":"Street","suffdir":null,"city":"Cambridge","state_code":"MA","zip5":"02139","latitude":"42.3740261690000000","longitude":"-71.100897164000000","publicwifi":"U","url":null,"broadband_type_id":3}
{"id":null,"anchorname":"Cambridge Family Health","address":"237 Hampshire St, Cambridge, MA 02139","bldgnbr":"237","predir":null,"streetname":"Hampshire","streettype":"St","suffdir":null,"city":"Cambridge","state_code":"MA","zip5":"02139","latitude":"42.3740652500000000","longitude":"-71.101155163000000","publicwifi":"U","url":null,"broadband_type_id":3}
{"id":null,"anchorname":"CAMBRIDGE FIRE DEPARTMENT","address":"1384 Cambridge Street, CAMBRIDGE, MA 02139","bldgnbr":"1384","predir":null,"streetname":"Cambridge","streettype":"Street","suffdir":null,"city":"CAMBRIDGE","state_code":"MA","zip5":"02139","latitude":"42.3734842520000000","longitude":"-71.100459558000000","publicwifi":"U","url":null,"broadband_type_id":5}
{"id":null,"anchorname":"Cambridge Health Alliance","address":"1493 Cambridge Street, Cambridge, MA 02140","bldgnbr":"1493","predir":null,"streetname":"Cambridge","streettype":"Street","suffdir":null,"city":"Cambridge","state_code":"MA","zip5":"02140","latitude":"42.3744907790000000","longitude":"-71.104092075000000","publicwifi":"U","url":null,"broadband_type_id":3}
{"id":null,"anchorname":"Primary Care Center","address":"1493 Cambridge Street, Cambridge, MA 02139","bldgnbr":"1493","predir":null,"streetname":"Cambridge","streettype":"Street","suffdir":null,"city":"Cambridge","state_code":"MA","zip5":"02139","latitude":"42.3744907930000000","longitude":"-71.104092084000000","publicwifi":"U","url":null,"broadband_type_id":3}
{"id":null,"anchorname":"Zinberg Clinic","address":"1493 Cambridge Street, Cambridge, MA 02139","bldgnbr":"1493","predir":null,"streetname":"Cambridge","streettype":"Street","suffdir":null,"city":"Cambridge","state_code":"MA","zip5":"02139","latitude":"42.3744907930000000","longitude":"-71.104092084000000","publicwifi":"U","url":null,"broadband_type_id":3}
{"id":null,"anchorname":"Cambridge Health Alliance","address":"1493 Cambridge Street, Cambridge, MA 02139","bldgnbr":"1493","predir":null,"streetname":"Cambridge","streettype":"Street","suffdir":null,"city":"Cambridge","state_code":"MA","zip5":"02139","latitude":"42.3744907930000000","longitude":"-71.104092084000000","publicwifi":"U","url":null,"broadband_type_id":3}
{"id":null,"anchorname":"Cambridge Health Alliance Birth Center","address":"1493 Cambridge Street, Cambridge, MA 02139","bldgnbr":"1493","predir":null,"streetname":"Cambridge","streettype":"Street","suffdir":null,"city":"Cambridge","state_code":"MA","zip5":"02139","latitude":"42.3744907930000000","longitude":"-71.104092084000000","publicwifi":"U","url":null,"broadband_type_id":3}
{"id":null,"anchorname":"Cambridge Hospital","address":"1493 Cambridge St, Cambridge, MA 02139","bldgnbr":"1493","predir":null,"streetname":"Cambridge","streettype":"St","suffdir":null,"city":"Cambridge","state_code":"MA","zip5":"02139","latitude":"42.3742744230000000","longitude":"-71.104477059000000","publicwifi":"U","url":null,"broadband_type_id":3}
{"id":null,"anchorname":"RISE LEARNING CENTER","address":"5391 SOUTH SHELBY ST","bldgnbr":"BLDGNUMBER","predir":null,"streetname":"STREETNAME","streettype":null,"suffdir":null,"city":"INDIANAPOLIS","state_code":"IN","zip5":"46227","latitude":"39.6883645880000000","longitude":"-86.138747169000000","publicwifi":"N","url":null,"broadband_type_id":6}
{"id":null,"anchorname":"Kennedy-Longfellow","address":"158 Spring Street, Cambridge, MA 02141","bldgnbr":"158","predir":null,"streetname":"Spring","streettype":"Street","suffdir":null,"city":"Cambridge","state_code":"MA","zip5":"02141","latitude":"42.3710263290000000","longitude":"-71.103906670000000","publicwifi":"U","url":null,"broadband_type_id":null}
{"id":null,"anchorname":"Cambridgeport","address":"89 Elm Street, Cambridge, MA 02139","bldgnbr":"89","predir":null,"streetname":"Elm","streettype":"Street","suffdir":null,"city":"Cambridge","state_code":"MA","zip5":"02139","latitude":"42.3608653800000000","longitude":"-71.108152259000000","publicwifi":"U","url":null,"broadband_type_id":null}
{"id":null,"anchorname":"Morse","address":"40 Granite Street, Cambridge, MA 02139","bldgnbr":"40","predir":null,"streetname":"Granite","streettype":"Street","suffdir":null,"city":"Cambridge","state_code":"MA","zip5":"02139","latitude":"42.3558871480000000","longitude":"-71.112750849000000","publicwifi":"U","url":null,"broadband_type_id":null}
{"id":null,"anchorname":"Martin Luther King Jr.","address":"100 Putnam Avenue, Cambridge, MA 02139","bldgnbr":"100","predir":null,"streetname":"Putnam","streettype":"Avenue","suffdir":null,"city":"Cambridge","state_code":"MA","zip5":"02139","latitude":"42.3667621840000000","longitude":"-71.113129699000000","publicwifi":"U","url":null,"broadband_type_id":null}
{"id":null,"anchorname":"King Open","address":"850 Cambridge Street, Cambridge, MA 02141","bldgnbr":"850","predir":null,"streetname":"Cambridge","streettype":"Street","suffdir":null,"city":"Cambridge","state_code":"MA","zip5":"02141","latitude":"42.3667621840000000","longitude":"-71.113129699000000","publicwifi":"U","url":null,"broadband_type_id":null}
{"id":null,"anchorname":"Maria L. Baldwin","address":"28 Sacramento Street, Cambridge, MA 02138","bldgnbr":"28","predir":null,"streetname":"Sacramento","streettype":"Street","suffdir":null,"city":"Cambridge","state_code":"MA","zip5":"02138","latitude":"42.3824887490000000","longitude":"-71.116581054000000","publicwifi":"U","url":null,"broadband_type_id":null}
{"id":null,"anchorname":"Boston Arch Choir","address":"29 Mt Auburn, Cambridge, MA 02138","bldgnbr":"29","predir":null,"streetname":"Mt Auburn","streettype":null,"suffdir":null,"city":"Cambridge","state_code":"MA","zip5":"02138","latitude":"42.3711424970000000","longitude":"-71.115780283000000","publicwifi":"U","url":null,"broadband_type_id":null}
{"id":null,"anchorname":"Peabody","address":"70 Rindge Avenue, Cambridge, MA 02140","bldgnbr":"70","predir":null,"streetname":"Rindge","streettype":"Avenue","suffdir":null,"city":"Cambridge","state_code":"MA","zip5":"02140","latitude":"42.3828232360000000","longitude":"-71.123817852000000","publicwifi":"U","url":null,"broadband_type_id":null}
{"id":null,"anchorname":"Brackett","address":"66 Eastern Avenue, Arlington, MA 02476","bldgnbr":"66","predir":null,"streetname":"Eastern","streettype":"Avenue","suffdir":null,"city":"Arlington","state_code":"MA","zip5":"02476","latitude":"42.4125107920000000","longitude":"-71.176463256000000","publicwifi":"U","url":null,"broadband_type_id":null}
{"id":null,"anchorname":"Central Square Branch Library","address":"45 PEARL Street, Cambridge, MA 02139","bldgnbr":"45","predir":null,"streetname":"PEARL","streettype":"Street","suffdir":null,"city":"Cambridge","state_code":"MA","zip5":"02139","latitude":"42.3637741970000000","longitude":"-71.103670215000000","publicwifi":"U","url":null,"broadband_type_id":6}
{"id":null,"anchorname":"Cambridge City Hall","address":"795 Massachusetts Avenue, CAMBRIDGE, MA 02139","bldgnbr":"795","predir":null,"streetname":"Massachusetts","streettype":"Avenue","suffdir":null,"city":"CAMBRIDGE","state_code":"MA","zip5":"02139","latitude":"42.3671209690000000","longitude":"-71.105659682000000","publicwifi":"U","url":null,"broadband_type_id":1}
{"id":null,"anchorname":"CAMBRIDGE FIRE DEPARTMENT","address":"378 Massachusetts Avenue, CAMBRIDGE, MA 02139","bldgnbr":"378","predir":null,"streetname":"Massachusetts","streettype":"Avenue","suffdir":null,"city":"CAMBRIDGE","state_code":"MA","zip5":"02139","latitude":"42.3629944230000000","longitude":"-71.100160411000000","publicwifi":"U","url":null,"broadband_type_id":5}
{"id":null,"anchorname":"Windsor Street Health Center","address":"119 Windsor Street, Cambridge, MA 02139","bldgnbr":"119","predir":null,"streetname":"Windsor","streettype":"Street","suffdir":null,"city":"Cambridge","state_code":"MA","zip5":"02139","latitude":"42.3647024290000000","longitude":"-71.096707464000000","publicwifi":"U","url":null,"broadband_type_id":3}
{"id":null,"anchorname":"Windsor Street Health Center","address":"119 Windsor St, Cambridge, MA 02139","bldgnbr":"119","predir":null,"streetname":"Windsor","streettype":"St","suffdir":null,"city":"Cambridge","state_code":"MA","zip5":"02139","latitude":"42.3644394890000000","longitude":"-71.096487598000000","publicwifi":"U","url":null,"broadband_type_id":3}
{"id":null,"anchorname":"Graham and Parks","address":"44 Linnaean Street, Cambridge, MA 02138","bldgnbr":"44","predir":null,"streetname":"Linnaean","streettype":"Street","suffdir":null,"city":"Cambridge","state_code":"MA","zip5":"02138","latitude":"42.3630598490000000","longitude":"-71.108342611000000","publicwifi":"U","url":null,"broadband_type_id":2}
{"id":null,"anchorname":"CAMBRIDGE FIRE DEPARTMENT","address":"176 River Street, CAMBRIDGE, MA 02139","bldgnbr":"176","predir":null,"streetname":"River","streettype":"Street","suffdir":null,"city":"CAMBRIDGE","state_code":"MA","zip5":"02139","latitude":"42.3631285080000000","longitude":"-71.110108509000000","publicwifi":"U","url":null,"broadband_type_id":5}
{"id":null,"anchorname":"CAMBRIDGE POLICE DEPT","address":"5 Western Avenue, CAMBRIDGE, MA 02139","bldgnbr":"5","predir":null,"streetname":"Western","streettype":"Avenue","suffdir":null,"city":"CAMBRIDGE","state_code":"MA","zip5":"02139","latitude":"42.3655226990000000","longitude":"-71.105741394000000","publicwifi":"U","url":null,"broadband_type_id":4}
{"id":null,"anchorname":"Riverside Health Center","address":"205 Western Avenue, Cambridge, MA 02139","bldgnbr":"205","predir":null,"streetname":"Western","streettype":"Avenue","suffdir":null,"city":"Cambridge","state_code":"MA","zip5":"02139","latitude":"42.3649386500000000","longitude":"-71.110460575000000","publicwifi":"U","url":null,"broadband_type_id":3}
{"id":null,"anchorname":"Amigos School","address":"101 Kinnaird Street, Cambridge, MA 02139","bldgnbr":"101","predir":null,"streetname":"Kinnaird","streettype":"Street","suffdir":null,"city":"Cambridge","state_code":"MA","zip5":"02139","latitude":"42.3677091540000000","longitude":"-71.113304680000000","publicwifi":"U","url":null,"broadband_type_id":6}
{"id":null,"anchorname":"Lesley University","address":"29 Everett Street, Cambridge, MA 02138-2790","bldgnbr":"29","predir":null,"streetname":"Everett","streettype":"Street","suffdir":null,"city":"Cambridge","state_code":"MA","zip5":"02138","latitude":"42.3802651580000000","longitude":"-71.117235563000000","publicwifi":"U","url":null,"broadband_type_id":6}
{"id":null,"anchorname":"Harvard University","address":"1563 Mass Avenue, Cambridge, MA 02138","bldgnbr":"1563","predir":null,"streetname":"Mass","streettype":"Avenue","suffdir":null,"city":"Cambridge","state_code":"MA","zip5":"02138","latitude":"42.3792349940000000","longitude":"-71.119524757000000","publicwifi":"U","url":null,"broadband_type_id":6}
{"id":null,"anchorname":"Spaulding Hospital For Continuing Medical Care Cambridge","address":"1575 Cambridge St, Cambridge, MA 02138","bldgnbr":"1575","predir":null,"streetname":"Cambridge","streettype":"St","suffdir":null,"city":"Cambridge","state_code":"MA","zip5":"02138","latitude":"42.3746303820000000","longitude":"-71.107205542000000","publicwifi":"U","url":null,"broadband_type_id":3}
{"id":null,"anchorname":"Cambridge Public Schools","address":"459 Broadway, Cambridge, MA 02138","bldgnbr":"459","predir":null,"streetname":"Broadway","streettype":null,"suffdir":null,"city":"Cambridge","state_code":"MA","zip5":"02138","latitude":"42.3744270260000000","longitude":"-71.111977299000000","publicwifi":"U","url":null,"broadband_type_id":6}
{"id":null,"anchorname":"Cambridge Public Library","address":"449 Broadway, Cambridge, MA 02139-4191","bldgnbr":"449","predir":null,"streetname":"Broadway","streettype":null,"suffdir":null,"city":"Cambridge","state_code":"MA","zip5":"02139","latitude":"42.3733486740000000","longitude":"-71.111050608000000","publicwifi":"Y","url":"http://www.cambridgepubliclibrary.org","broadband_type_id":6}
{"id":null,"anchorname":"Teen Health Center at Cambridge Rindge and Latin School","address":"459 Broadway, Cambridge, MA 02138","bldgnbr":"459","predir":null,"streetname":"Broadway","streettype":null,"suffdir":null,"city":"Cambridge","state_code":"MA","zip5":"02138","latitude":"42.3744269920000000","longitude":"-71.111977303000000","publicwifi":"U","url":null,"broadband_type_id":3}
{"id":null,"anchorname":"Cambridge Public Library","address":"449 Broadway, Cambridge, MA 02139-4191","bldgnbr":"449","predir":null,"streetname":"Broadway","streettype":null,"suffdir":null,"city":"Cambridge","state_code":"MA","zip5":"02139","latitude":"42.3733486740000000","longitude":"-71.111050608000000","publicwifi":"Y","url":"http://www.cambridgepubliclibrary.org","broadband_type_id":6}
{"id":null,"anchorname":"CAMBRIDGE POLICE DEPT","address":"489 Broadway Avenue, CAMBRIDGE, MA 02138","bldgnbr":"489","predir":null,"streetname":"Broadway","streettype":"Avenue","suffdir":null,"city":"CAMBRIDGE","state_code":"MA","zip5":"02138","latitude":"42.3749275110000000","longitude":"-71.114499750000000","publicwifi":"U","url":null,"broadband_type_id":4}
{"id":null,"anchorname":"CAMBRIDGE FIRE DEPARTMENT","address":"491 Broadway, CAMBRIDGE, MA 02138","bldgnbr":"491","predir":null,"streetname":"Broadway","streettype":null,"suffdir":null,"city":"CAMBRIDGE","state_code":"MA","zip5":"02138","latitude":"42.3752417010000000","longitude":"-71.114604320000000","publicwifi":"U","url":null,"broadband_type_id":5}
{"id":null,"anchorname":"Harvard University","address":"48 Quincy Street, Cambridge, MA 02138","bldgnbr":"48","predir":null,"streetname":"Quincy","streettype":"Street","suffdir":null,"city":"Cambridge","state_code":"MA","zip5":"02138","latitude":"42.3758469410000000","longitude":"-71.113953579000000","publicwifi":"U","url":null,"broadband_type_id":6}
{"id":null,"anchorname":"Cambridge College","address":"1000 Massachusetts Avenue, Cambridge, MA 02138","bldgnbr":"1000","predir":null,"streetname":"Massachusetts","streettype":"Avenue","suffdir":null,"city":"Cambridge","state_code":"MA","zip5":"02138","latitude":"42.3688579560000000","longitude":"-71.110966266000000","publicwifi":"U","url":null,"broadband_type_id":6}
{"id":null,"anchorname":"HARVARD UNIVERSITY POLICE","address":"29 Garden Street, CAMBRIDGE, MA 02138","bldgnbr":"29","predir":null,"streetname":"Garden","streettype":"Street","suffdir":null,"city":"CAMBRIDGE","state_code":"MA","zip5":"02138","latitude":"42.3789373850000000","longitude":"-71.123857968000000","publicwifi":"U","url":null,"broadband_type_id":4}
{"id":null,"anchorname":"Longy School Of Music","address":"1 Follen Street, Cambridge, MA 02138","bldgnbr":"1","predir":null,"streetname":"Follen","streettype":"Street","suffdir":null,"city":"Cambridge","state_code":"MA","zip5":"02138","latitude":"42.3790117600000000","longitude":"-71.123723713000000","publicwifi":"U","url":null,"broadband_type_id":6}
{"id":null,"anchorname":"Harvard College","address":"8 Garden Street, Cambridge, MA 02138","bldgnbr":"8","predir":null,"streetname":"Garden","streettype":"Street","suffdir":null,"city":"Cambridge","state_code":"MA","zip5":"02138","latitude":"42.3756828070000000","longitude":"-71.120907252000000","publicwifi":"U","url":null,"broadband_type_id":6}
{"id":null,"anchorname":"Episcopal Divinity School","address":"99 Brattle Street, Cambridge, MA 02138","bldgnbr":"99","predir":null,"streetname":"Brattle","streettype":"Street","suffdir":null,"city":"Cambridge","state_code":"MA","zip5":"02138","latitude":"42.3767268100000000","longitude":"-71.125010546000000","publicwifi":"U","url":null,"broadband_type_id":6}
{"id":null,"anchorname":"Weston Jesuit School Of Theology","address":"3 Phillips Place, Cambridge, MA 02138","bldgnbr":"3","predir":null,"streetname":"Phillips","streettype":"Place","suffdir":null,"city":"Cambridge","state_code":"MA","zip5":"02138","latitude":"42.3765772910000000","longitude":"-71.123225187000000","publicwifi":"U","url":null,"broadband_type_id":6}
{"id":null,"anchorname":"Harvard University","address":"79 JFK Street, Cambridge, MA 02138","bldgnbr":"79","predir":null,"streetname":"JFK","streettype":"Street","suffdir":null,"city":"Cambridge","state_code":"MA","zip5":"02138","latitude":"42.3713811040000000","longitude":"-71.122040074000000","publicwifi":"U","url":null,"broadband_type_id":6}
{"id":null,"anchorname":"HUMAN SERVICES TRANSPORT","address":"2412 LARMAN DR","bldgnbr":"BLDGNUMBER","predir":null,"streetname":"STREETNAME","streettype":null,"suffdir":null,"city":"INDIANAPOLIS","state_code":"IN","zip5":"46227","latitude":"39.6465070760000000","longitude":"-86.119828529000000","publicwifi":"I","url":null,"broadband_type_id":6}
{"id":null,"anchorname":"I U RESEARCH TECHNOLOGY CORP","address":"351 W 10TH ST # 200","bldgnbr":"BLDGNUMBER","predir":null,"streetname":"STREETNAME","streettype":null,"suffdir":null,"city":"INDIANAPOLIS","state_code":"IN","zip5":"46202","latitude":"39.7809486400000000","longitude":"-86.164917501000000","publicwifi":"N","url":"INDIANA UNIVERSITY","broadband_type_id":6}
{"id":null,"anchorname":"CARD SERVICES","address":"420 UNIVERSITY BLVD # 217","bldgnbr":"BLDGNUMBER","predir":null,"streetname":"STREETNAME","streettype":null,"suffdir":null,"city":"INDIANAPOLIS","state_code":"IN","zip5":"46202","latitude":"39.7735437000000000","longitude":"-86.175666194000000","publicwifi":"Y","url":null,"broadband_type_id":6}
{"id":null,"anchorname":"Mount Auburn Walk In Center","address":"330 Mount Auburn St, Cambridge, MA 02138","bldgnbr":"330","predir":null,"streetname":"Mount Auburn","streettype":"St","suffdir":null,"city":"Cambridge","state_code":"MA","zip5":"02138","latitude":"42.3748849850000000","longitude":"-71.134210872000000","publicwifi":"U","url":null,"broadband_type_id":null}
{"id":null,"anchorname":"Shady Hill","address":"178 Coolidge Hill, Cambridge, MA 02138","bldgnbr":"178","predir":null,"streetname":"Coolidge Hill","streettype":"Hl","suffdir":null,"city":"Cambridge","state_code":"MA","zip5":"02138","latitude":"42.3727749180000000","longitude":"-71.135683168000000","publicwifi":"U","url":null,"broadband_type_id":null}
{"id":null,"anchorname":"Buckingham Browne Nichols","address":"80 Gerrys Landing Road, Cambridge, MA 02138","bldgnbr":"80","predir":null,"streetname":"Gerrys Landing","streettype":"Road","suffdir":null,"city":"Cambridge","state_code":"MA","zip5":"02138","latitude":"42.3709313640000000","longitude":"-71.135612927000000","publicwifi":"U","url":null,"broadband_type_id":null}
{"id":null,"anchorname":"St Peter Elem","address":"96 Concord Avenue, Cambridge, MA 02138","bldgnbr":"96","predir":null,"streetname":"Concord","streettype":"Avenue","suffdir":null,"city":"Cambridge","state_code":"MA","zip5":"02138","latitude":"42.3811113940000000","longitude":"-71.129602116000000","publicwifi":"U","url":null,"broadband_type_id":null}
{"id":null,"anchorname":"Fayerweather Street","address":"765 Concord Avenue, Cambridge, MA 02138","bldgnbr":"765","predir":null,"streetname":"Concord","streettype":"Avenue","suffdir":null,"city":"Cambridge","state_code":"MA","zip5":"02138","latitude":"42.3807556700000000","longitude":"-71.136854289000000","publicwifi":"U","url":null,"broadband_type_id":null}
{"id":null,"anchorname":"Haggerty","address":"110 Cushing Street, Cambridge, MA 02138","bldgnbr":"110","predir":null,"streetname":"Cushing","streettype":"Street","suffdir":null,"city":"Cambridge","state_code":"MA","zip5":"02138","latitude":"42.3780849890000000","longitude":"-71.152450172000000","publicwifi":"U","url":null,"broadband_type_id":null}
{"id":null,"anchorname":"MONTGOMERY COUNTY PUBLIC HLTH","address":"110 W SOUTH BLVD","bldgnbr":"BLDGNUMBER","predir":null,"streetname":"STREETNAME","streettype":null,"suffdir":null,"city":"CRAWFORDSVILLE","state_code":"IN","zip5":"47933","latitude":"40.0250319620000000","longitude":"-86.902202610000000","publicwifi":"N","url":null,"broadband_type_id":1}
{"id":null,"anchorname":"John M Tobin","address":"197 Vassal Lane, Cambridge, MA 02138","bldgnbr":"197","predir":null,"streetname":"Vassal","streettype":"Lane","suffdir":null,"city":"Cambridge","state_code":"MA","zip5":"02138","latitude":"42.3845829420000000","longitude":"-71.139687066000000","publicwifi":"U","url":null,"broadband_type_id":null}
{"id":null,"anchorname":"Muscular Therapy Institute","address":"122 Rindge Avenue, Cambridge, MA 02140","bldgnbr":"122","predir":null,"streetname":"Rindge","streettype":"Avenue","suffdir":null,"city":"Cambridge","state_code":"MA","zip5":"02140","latitude":"42.3926571930000000","longitude":"-71.128585530000000","publicwifi":"U","url":null,"broadband_type_id":3}
{"id":null,"anchorname":"Cambridge Friends","address":"5 Cadbury Road, Cambridge, MA 02140","bldgnbr":"5","predir":null,"streetname":"Cadbury","streettype":"Road","suffdir":null,"city":"Cambridge","state_code":"MA","zip5":"02140","latitude":"42.3878925830000000","longitude":"-71.130470156000000","publicwifi":"U","url":null,"broadband_type_id":null}
{"id":null,"anchorname":"Cambridge Montessori","address":"161 Garden Street, Cambridge, MA 02138","bldgnbr":"161","predir":null,"streetname":"Garden","streettype":"Street","suffdir":null,"city":"Cambridge","state_code":"MA","zip5":"02138","latitude":"42.3858050590000000","longitude":"-71.132227083000000","publicwifi":"U","url":null,"broadband_type_id":6}
{"id":null,"anchorname":"Cvs Pharmacy #1022","address":"215 Alewife Brook Pkwy, Cambridge, MA 02138","bldgnbr":"215","predir":null,"streetname":"Alewife Brook","streettype":"Pky","suffdir":null,"city":"Cambridge","state_code":"MA","zip5":"02138","latitude":"42.3891567480000000","longitude":"-71.143021959000000","publicwifi":"U","url":null,"broadband_type_id":3}
{"id":null,"anchorname":"N Cambridge Catholic High","address":"40 Norris, North Cambridge, MA 02140","bldgnbr":"40","predir":null,"streetname":"Norris","streettype":null,"suffdir":null,"city":"North Cambridge","state_code":"MA","zip5":"02140","latitude":"42.3952640520000000","longitude":"-71.129733423000000","publicwifi":"U","url":null,"broadband_type_id":6}
{"id":null,"anchorname":"New England Ambulatory Surgicenter ","address":"799 Concord Ave, Cambridge, MA 02138","bldgnbr":"799","predir":null,"streetname":"Concord","streettype":"Ave","suffdir":null,"city":"Cambridge","state_code":"MA","zip5":"02138","latitude":"42.3908605900000000","longitude":"-71.156107777000000","publicwifi":"U","url":null,"broadband_type_id":null}
{"id":null,"anchorname":"Matignon High","address":"1 Matignon Road, Cambridge, MA 02140","bldgnbr":"1","predir":null,"streetname":"Matignon","streettype":"Road","suffdir":null,"city":"Cambridge","state_code":"MA","zip5":"02140","latitude":"42.4016520480000000","longitude":"-71.131465105000000","publicwifi":"U","url":null,"broadband_type_id":6}
{"id":null,"anchorname":"St Agnes Elementary","address":"39 Medford, Arlington, MA 02174","bldgnbr":"39","predir":null,"streetname":"Medford","streettype":null,"suffdir":null,"city":"Arlington","state_code":"MA","zip5":"02174","latitude":"42.4158062620000000","longitude":"-71.148969721000000","publicwifi":"U","url":null,"broadband_type_id":6}
{"id":null,"anchorname":"John A Bishop","address":"25 Columbia Road, Arlington, MA 02474","bldgnbr":"25","predir":null,"streetname":"Columbia","streettype":"Road","suffdir":null,"city":"Arlington","state_code":"MA","zip5":"02474","latitude":"42.4244315760000000","longitude":"-71.154976619000000","publicwifi":"U","url":null,"broadband_type_id":6}
{"id":null,"anchorname":"North Metro WIB - Cambridge","address":"125 Cambridgepark Drive, Cambridge, MA 02140","bldgnbr":"125","predir":null,"streetname":"Cambridgepark","streettype":"Drive","suffdir":null,"city":"Cambridge","state_code":"MA","zip5":"02140","latitude":"42.3947261160000000","longitude":"-71.144521122000000","publicwifi":"U","url":null,"broadband_type_id":null}
{"id":null,"anchorname":"Hardy","address":"52 Lake Street, Arlington, MA 02474","bldgnbr":"52","predir":null,"streetname":"Lake","streettype":"Street","suffdir":null,"city":"Arlington","state_code":"MA","zip5":"02474","latitude":"42.4044511920000000","longitude":"-71.145392391000000","publicwifi":"U","url":null,"broadband_type_id":null}
{"id":null,"anchorname":"Thompson","address":"60 North Union Street, Arlington, MA 02474","bldgnbr":"60","predir":"North","streetname":"Union","streettype":"Street","suffdir":null,"city":"Arlington","state_code":"MA","zip5":"02474","latitude":"42.4117213580000000","longitude":"-71.138298876000000","publicwifi":"U","url":null,"broadband_type_id":null}
{"id":null,"anchorname":"M Norcross Stratton","address":"180 Mountain Avenue, Arlington, MA 02474","bldgnbr":"180","predir":null,"streetname":"Mountain","streettype":"Avenue","suffdir":null,"city":"Arlington","state_code":"MA","zip5":"02474","latitude":"42.4288567070000000","longitude":"-71.167313253000000","publicwifi":"U","url":null,"broadband_type_id":null}
{"id":null,"anchorname":"Peirce","address":"85 Park Avenue Extension, Arlington, MA 02474","bldgnbr":"85","predir":null,"streetname":"Park","streettype":"Avenue","suffdir":"Extension","city":"Arlington","state_code":"MA","zip5":"02474","latitude":"42.4287997140000000","longitude":"-71.178143512000000","publicwifi":"U","url":null,"broadband_type_id":null}
{"id":null,"anchorname":"Mount Auburn Hospital","address":"330 Mount Auburn Street, Cambridge, MA 02138","bldgnbr":"330","predir":null,"streetname":"Mount Auburn","streettype":"Street","suffdir":null,"city":"Cambridge","state_code":"MA","zip5":"02138","latitude":"42.3743652010000000","longitude":"-71.133434536000000","publicwifi":"U","url":null,"broadband_type_id":3}
{"id":null,"anchorname":"Mount Auburn Hospital","address":"330 Mount Auburn St, Cambridge, MA 02138","bldgnbr":"330","predir":null,"streetname":"Mount Auburn","streettype":"St","suffdir":null,"city":"Cambridge","state_code":"MA","zip5":"02138","latitude":"42.3748849850000000","longitude":"-71.134210872000000","publicwifi":"U","url":null,"broadband_type_id":3}
{"id":null,"anchorname":"Daniel P. Collins Branch Library","address":"64 ABERDEEN Avenue, Cambridge, MA 02138","bldgnbr":"64","predir":null,"streetname":"ABERDEEN","streettype":"Avenue","suffdir":null,"city":"Cambridge","state_code":"MA","zip5":"02138","latitude":"42.3769392610000000","longitude":"-71.146687943000000","publicwifi":"U","url":null,"broadband_type_id":6}
{"id":null,"anchorname":"CAMBRIDGE FIRE DEPARTMENT","address":"113 Garden Street, CAMBRIDGE, MA 02138","bldgnbr":"113","predir":null,"streetname":"Garden","streettype":"Street","suffdir":null,"city":"CAMBRIDGE","state_code":"MA","zip5":"02138","latitude":"42.3843501560000000","longitude":"-71.129826230000000","publicwifi":"U","url":null,"broadband_type_id":5}
{"id":null,"anchorname":"Career Source, Cambridge","address":"186 Alewife Brook Parkway, Cambridge, MA 02138","bldgnbr":"186","predir":null,"streetname":"Alewife Brook","streettype":"Parkway","suffdir":null,"city":"Cambridge","state_code":"MA","zip5":"02138","latitude":"42.3896605880000000","longitude":"-71.142397671000000","publicwifi":"U","url":null,"broadband_type_id":3}
{"id":null,"anchorname":"Mildred A. O'Neill Branch Library","address":"70 RINDGE Avenue, Cambridge, MA 02140","bldgnbr":"70","predir":null,"streetname":"RINDGE","streettype":"Avenue","suffdir":null,"city":"Cambridge","state_code":"MA","zip5":"02140","latitude":"42.3926748060000000","longitude":"-71.128091565000000","publicwifi":"U","url":null,"broadband_type_id":6}
{"id":null,"anchorname":"Benjamin Banneker Charter Public School","address":"21 Notre Dame Avenue, Cambridge, MA 02140","bldgnbr":"21","predir":null,"streetname":"Notre Dame","streettype":"Avenue","suffdir":null,"city":"Cambridge","state_code":"MA","zip5":"02140","latitude":"42.3921458380000000","longitude":"-71.131682667000000","publicwifi":"U","url":null,"broadband_type_id":6}
{"id":null,"anchorname":"North Cambridge Health Center","address":"266B Rindge Avenue, Cambridge, MA 02140","bldgnbr":"266B","predir":null,"streetname":"Rindge","streettype":"Avenue","suffdir":null,"city":"Cambridge","state_code":"MA","zip5":"02140","latitude":"42.3934119240000000","longitude":"-71.134867679000000","publicwifi":"U","url":null,"broadband_type_id":3}
{"id":null,"anchorname":"International School of Boston","address":"45 Matignon Road, Cambridge, MA 02140","bldgnbr":"45","predir":null,"streetname":"Matignon","streettype":"Road","suffdir":null,"city":"Cambridge","state_code":"MA","zip5":"02140","latitude":"42.4023035860000000","longitude":"-71.132339911000000","publicwifi":"U","url":null,"broadband_type_id":6}
{"id":null,"anchorname":"Covenant School","address":"9 Westminister Avenue, Arlington, MA 02474","bldgnbr":"9","predir":null,"streetname":"Westminister","streettype":"Avenue","suffdir":null,"city":"Arlington","state_code":"MA","zip5":"02474","latitude":"42.4264315300000000","longitude":"-71.181827721000000","publicwifi":"U","url":null,"broadband_type_id":6}
{"id":null,"anchorname":"Arlington Heights Nursery","address":"127 Lowell Street, Arlington, MA 02474","bldgnbr":"127","predir":null,"streetname":"Lowell","streettype":"Street","suffdir":null,"city":"Arlington","state_code":"MA","zip5":"02474","latitude":"42.4263664280000000","longitude":"-71.183030711000000","publicwifi":"U","url":null,"broadband_type_id":3}
{"id":null,"anchorname":"ARLINGTON FIRE DEPARTMENT","address":"1007 Massachusetts Avenue, ARLINGTON, MA 02476","bldgnbr":"1007","predir":null,"streetname":"Massachusetts","streettype":"Avenue","suffdir":null,"city":"ARLINGTON","state_code":"MA","zip5":"02476","latitude":"42.4200319620000000","longitude":"-71.168526769000000","publicwifi":"U","url":null,"broadband_type_id":5}
{"id":null,"anchorname":"ST FRANCIS EDUCATION CTR","address":"5935 S EMERSON AVE # 100","bldgnbr":"BLDGNUMBER","predir":null,"streetname":"STREETNAME","streettype":null,"suffdir":null,"city":"INDIANAPOLIS","state_code":"IN","zip5":"46237","latitude":"39.6817262050000000","longitude":"-86.082446409000000","publicwifi":"I","url":null,"broadband_type_id":6}
{"id":null,"anchorname":"Cyrus E Dallin","address":"185 Florence Avenue, Arlington, MA 02476","bldgnbr":"185","predir":null,"streetname":"Florence","streettype":"Avenue","suffdir":null,"city":"Arlington","state_code":"MA","zip5":"02476","latitude":"42.4176204770000000","longitude":"-71.187909823000000","publicwifi":"U","url":null,"broadband_type_id":null}
{"id":null,"anchorname":"Fox Branch","address":"175 Massachusetts Avenue, Arlington, MA 02474","bldgnbr":"175","predir":null,"streetname":"Massachusetts","streettype":"Avenue","suffdir":null,"city":"Arlington","state_code":"MA","zip5":"02474","latitude":"42.4054535940000000","longitude":"-71.141757483000000","publicwifi":"U","url":null,"broadband_type_id":null}
{"id":null,"anchorname":"WOMEN'S COMMISSION","address":"402 W WASHINGTON ST # W252","bldgnbr":"BLDGNUMBER","predir":null,"streetname":"STREETNAME","streettype":null,"suffdir":null,"city":"INDIANAPOLIS","state_code":"IN","zip5":"46204","latitude":"39.7673033010000000","longitude":"-86.165230611000000","publicwifi":"N","url":null,"broadband_type_id":6}
{"id":null,"anchorname":"Lesley Ellis","address":"41 Foster Street, Arlington, MA 02474","bldgnbr":"41","predir":null,"streetname":"Foster","streettype":"Street","suffdir":null,"city":"Arlington","state_code":"MA","zip5":"02474","latitude":"42.4106278880000000","longitude":"-71.145097026000000","publicwifi":"U","url":null,"broadband_type_id":6}
{"id":null,"anchorname":"Belmont High","address":"221 Concord Avenue, Belmont, MA 02478","bldgnbr":"221","predir":null,"streetname":"Concord","streettype":"Avenue","suffdir":null,"city":"Belmont","state_code":"MA","zip5":"02478","latitude":"42.3952859590000000","longitude":"-71.165152564000000","publicwifi":"U","url":null,"broadband_type_id":6}
{"id":null,"anchorname":"Winthrop L Chenery Middle","address":"95 Washington Street, Belmont, MA 02478","bldgnbr":"95","predir":null,"streetname":"Washington","streettype":"Street","suffdir":null,"city":"Belmont","state_code":"MA","zip5":"02478","latitude":"42.3862135390000000","longitude":"-71.170660579000000","publicwifi":"U","url":null,"broadband_type_id":6}
{"id":null,"anchorname":"Jonas Clarke Middle","address":"17 Stedman Road, Lexington, MA 02421","bldgnbr":"17","predir":null,"streetname":"Stedman","streettype":"Road","suffdir":null,"city":"Lexington","state_code":"MA","zip5":"02421","latitude":"42.4286021980000000","longitude":"-71.228833132000000","publicwifi":"U","url":null,"broadband_type_id":6}
{"id":null,"anchorname":"Arlington Children's Center","address":"17 Irving Street, Arlington, MA 02476","bldgnbr":"17","predir":null,"streetname":"Irving","streettype":"Street","suffdir":null,"city":"Arlington","state_code":"MA","zip5":"02476","latitude":"42.4124146500000000","longitude":"-71.158848408000000","publicwifi":"U","url":null,"broadband_type_id":null}
{"id":null,"anchorname":"Lexington High","address":"251 Waltham Street, Lexington, MA 02421","bldgnbr":"251","predir":null,"streetname":"Waltham","streettype":"Street","suffdir":null,"city":"Lexington","state_code":"MA","zip5":"02421","latitude":"42.4430557610000000","longitude":"-71.233053650000000","publicwifi":"U","url":null,"broadband_type_id":6}
{"id":null,"anchorname":"Winn Brook","address":"97 Waterhouse Road, Belmont, MA 02478","bldgnbr":"97","predir":null,"streetname":"Waterhouse","streettype":"Road","suffdir":null,"city":"Belmont","state_code":"MA","zip5":"02478","latitude":"42.3995400080000000","longitude":"-71.165048649000000","publicwifi":"U","url":null,"broadband_type_id":null}
{"id":null,"anchorname":"Mary Lee Burbank","address":"266 School Street, Belmont, MA 02478","bldgnbr":"266","predir":null,"streetname":"School","streettype":"Street","suffdir":null,"city":"Belmont","state_code":"MA","zip5":"02478","latitude":"42.3885040790000000","longitude":"-71.164197852000000","publicwifi":"U","url":null,"broadband_type_id":null}
{"id":null,"anchorname":"Roger E Wellington","address":"121 Orchard Street, Belmont, MA 02478","bldgnbr":"121","predir":null,"streetname":"Orchard","streettype":"Street","suffdir":null,"city":"Belmont","state_code":"MA","zip5":"02478","latitude":"42.3921919780000000","longitude":"-71.171842380000000","publicwifi":"U","url":null,"broadband_type_id":null}
{"id":null,"anchorname":"Daniel Butler","address":"90 White Street, Belmont, MA 02478","bldgnbr":"90","predir":null,"streetname":"White","streettype":"Street","suffdir":null,"city":"Belmont","state_code":"MA","zip5":"02478","latitude":"42.3861757160000000","longitude":"-71.187969203000000","publicwifi":"U","url":null,"broadband_type_id":null}
