{"id":null,"anchorname":"RIVER CITY MIDDLE SCHOOL","address":"2832 E POLELINE RD","bldgnbr":"2832","predir":"E","streetname":"POLELINE","streettype":"RD","suffdir":null,"city":"POST FALLS","state_code":"ID","zip5":"83877","latitude":"47.7242860000000000","longitude":"-116.95469400000000","publicwifi":"Y","url":null,"broadband_type_id":6}
{"id":null,"anchorname":"SELTICE ELEMENTARY SCHOOL","address":"1100 N CHASE","bldgnbr":"1100","predir":"N","streetname":"CHASE","streettype":null,"suffdir":null,"city":"POST FALLS","state_code":"ID","zip5":"83877","latitude":"47.7137800000000000","longitude":"-116.94182000000000","publicwifi":"N","url":null,"broadband_type_id":6}
{"id":null,"anchorname":"POST FALLS MIDDLE SCHOOL","address":"301 E 16TH AVE","bldgnbr":"301","predir":"E","streetname":"16TH","streettype":"AVE","suffdir":null,"city":"POST FALLS","state_code":"ID","zip5":"83877","latitude":"47.7241340000000000","longitude":"-116.94403200100000","publicwifi":"Y","url":null,"broadband_type_id":6}
{"id":null,"anchorname":"POST FALLS HIGH SCHOOL","address":"2832 E POLELINE RD","bldgnbr":"2832","predir":"E","streetname":"POLELINE","streettype":"RD","suffdir":null,"city":"POST FALLS","state_code":"ID","zip5":"83877","latitude":"47.7292610000000000","longitude":"-116.90893100000000","publicwifi":"Y","url":null,"broadband_type_id":6}
{"id":null,"anchorname":"PONDEROSA ELEMENTARY SCHOOL","address":"2950  NAOMI AVE","bldgnbr":"2950","predir":null,"streetname":"NAOMI","streettype":"AVE","suffdir":null,"city":"MERIDIAN","state_code":"ID","zip5":"83646","latitude":"47.7137800000000000","longitude":"-116.94182000000000","publicwifi":"Y","url":null,"broadband_type_id":6}
{"id":null,"anchorname":"KOOTENAI COUNTY FIRE \u0026 RESCUE STATION 1","address":"404 N IDAHO ST","bldgnbr":"404","predir":"N","streetname":"IDAHO","streettype":"ST","suffdir":null,"city":"POST FALLS","state_code":"ID","zip5":"83854","latitude":"47.7118870000000000","longitude":"-116.93642400000000","publicwifi":"N","url":null,"broadband_type_id":5}
{"id":null,"anchorname":"ATLAS ELEMENTARY SCHOOL","address":"3000 W HONEYSUCKLE","bldgnbr":"3000","predir":"W","streetname":"HONEYSUCKLE","streettype":null,"suffdir":null,"city":"HAYDEN LAKE","state_code":"ID","zip5":"83835","latitude":"47.7519070000000000","longitude":"-116.82611100000000","publicwifi":"N","url":null,"broadband_type_id":6}
{"id":null,"anchorname":"SKYWAY ELEMENTARY SCHOOL","address":"6621  COURCELLES PKW PKW","bldgnbr":"6621","predir":null,"streetname":"COURCELLES PKW","streettype":"PKW","suffdir":null,"city":"COEUR D'ALENE","state_code":"ID","zip5":"83815","latitude":"47.7318710000000000","longitude":"-116.81738900000000","publicwifi":"N","url":null,"broadband_type_id":6}
{"id":null,"anchorname":"RAMSEY ELEMENTARY SCHOOL","address":"1351 W KATHLEEN AVE","bldgnbr":"1351","predir":"W","streetname":"KATHLEEN","streettype":"AVE","suffdir":null,"city":"COEUR D'ALENE","state_code":"ID","zip5":"83815","latitude":"47.7155340000000000","longitude":"-116.80332100000000","publicwifi":"N","url":null,"broadband_type_id":6}
{"id":null,"anchorname":"LITTLE FOLKS INCORP SCHOOL","address":"1165 W IRONWOOD DR","bldgnbr":"1165","predir":"W","streetname":"IRONWOOD","streettype":"DR","suffdir":null,"city":"COEUR D'ALENE","state_code":"ID","zip5":"83814","latitude":"47.6971190000000000","longitude":"-116.79843700000000","publicwifi":"N","url":null,"broadband_type_id":6}
{"id":null,"anchorname":"KOOTENAI MEDICAL CENTER","address":"2003  KOOTENAI HEALTH WAY","bldgnbr":"2003","predir":null,"streetname":"KOOTENAI HEALTH","streettype":"WAY","suffdir":null,"city":"COEUR D'ALENE","state_code":"ID","zip5":"83814","latitude":"47.6962380000000000","longitude":"-116.79320800000000","publicwifi":"N","url":null,"broadband_type_id":3}
{"id":null,"anchorname":"WINTON ELEMENTARY SCHOOL","address":"920  LA CROSSE AVE","bldgnbr":"920","predir":null,"streetname":"LA CROSSE","streettype":"AVE","suffdir":null,"city":"COEUR D'ALENE","state_code":"ID","zip5":"83814","latitude":"47.6899060000000000","longitude":"-116.79697100000000","publicwifi":"N","url":null,"broadband_type_id":6}
{"id":null,"anchorname":"DISCOVERY DAYCARE PRESCHOOL KINDERGARTEN","address":"521  EMMA AVE","bldgnbr":"521","predir":null,"streetname":"EMMA","streettype":"AVE","suffdir":null,"city":"COEUR D'ALENE","state_code":"ID","zip5":"83814","latitude":"47.6929320000000000","longitude":"-116.79087800000000","publicwifi":"N","url":null,"broadband_type_id":3}
{"id":null,"anchorname":"ABCD DAY CARE CENTER","address":"1124 N C ST","bldgnbr":"1124","predir":"N","streetname":"C","streettype":"ST","suffdir":null,"city":"COEUR D'ALENE","state_code":"ID","zip5":"83814","latitude":"47.6859930000000000","longitude":"-116.78951999900000","publicwifi":"Y","url":null,"broadband_type_id":3}
{"id":null,"anchorname":"COEUR D'ALENE FIRE STATION 2","address":"3850 N RAMSEY RD","bldgnbr":"3850","predir":"N","streetname":"RAMSEY","streettype":"RD","suffdir":null,"city":"COEUR D'ALENE","state_code":"ID","zip5":"83815","latitude":"47.7145651730000000","longitude":"-116.80803604400000","publicwifi":"Y","url":null,"broadband_type_id":5}
{"id":null,"anchorname":"HAYDEN BRANCH LIBRARY","address":"8385 N GOV'T WAY","bldgnbr":"8385","predir":"N","streetname":"GOV'T","streettype":"WAY","suffdir":null,"city":"HAYDEN","state_code":"ID","zip5":"83835","latitude":"47.7464290000000000","longitude":"-116.78676100000000","publicwifi":"N","url":null,"broadband_type_id":6}
{"id":null,"anchorname":"NORTH IDAHO CHRISTIAN SCHOOL","address":"251 WEST MILES AVENUE","bldgnbr":"251","predir":"W","streetname":"MILES","streettype":"AVE","suffdir":null,"city":"HAYDEN LAKE","state_code":"ID","zip5":"83835","latitude":"47.7671550000000000","longitude":"-116.78984800100000","publicwifi":"N","url":null,"broadband_type_id":6}
{"id":null,"anchorname":"NORTHERN LAKES FIRE DEPARTMENT","address":"125 W HAYDEN AVE","bldgnbr":"125","predir":"W","streetname":"HAYDEN","streettype":"AVE","suffdir":null,"city":"HAYDEN","state_code":"ID","zip5":"83835","latitude":"47.7594530000000000","longitude":"-116.78832200000000","publicwifi":"Y","url":null,"broadband_type_id":5}
{"id":null,"anchorname":"KOOTENAI COUNTY FIRE \u0026 RESCUE STATION 5","address":"6288 N 4TH ST","bldgnbr":"6288","predir":"N","streetname":"4TH","streettype":"ST","suffdir":null,"city":"DALTON GARDENS","state_code":"ID","zip5":"83815","latitude":"47.7285460000000000","longitude":"-116.77518500000000","publicwifi":"Y","url":null,"broadband_type_id":5}
{"id":null,"anchorname":"COEUR D'ALENE HIGH SCHOOL","address":"5530 N 4TH ST","bldgnbr":"5530","predir":"N","streetname":"4TH","streettype":"ST","suffdir":null,"city":"COEUR D'ALENE","state_code":"ID","zip5":"83815","latitude":"47.7226740000000000","longitude":"-116.77594900000000","publicwifi":"N","url":null,"broadband_type_id":6}
{"id":null,"anchorname":"COEUR D'ALENE CHRISTIAN SCHOOL","address":"6439 N 4TH ST","bldgnbr":"6439","predir":"N","streetname":"4TH","streettype":"ST","suffdir":null,"city":"COEUR D'ALENE","state_code":"ID","zip5":"83815","latitude":"47.7303390000000000","longitude":"-116.77661899900000","publicwifi":"Y","url":null,"broadband_type_id":6}
{"id":null,"anchorname":"KOOTENAI CSO COUNTY SHERIFF","address":"5500 N GOVERNMENT WAY","bldgnbr":"5500","predir":"N","streetname":"GOVERNMENT","streettype":"WAY","suffdir":null,"city":"COEUR D'ALENE","state_code":"ID","zip5":"83815","latitude":"47.7210960000000000","longitude":"-116.78542300000000","publicwifi":"N","url":null,"broadband_type_id":4}
{"id":null,"anchorname":"BORAH ELEMENTARY SCHOOL","address":"632  BORAH AVE","bldgnbr":"632","predir":null,"streetname":"BORAH","streettype":"AVE","suffdir":null,"city":"COEUR D'ALENE","state_code":"ID","zip5":"83814","latitude":"47.6989160000000000","longitude":"-116.77731100000000","publicwifi":"N","url":null,"broadband_type_id":6}
{"id":null,"anchorname":"COEUR D'ALENE PUBLIC LIBRARY","address":"702 E FRONT AVE","bldgnbr":"702","predir":"E","streetname":"FRONT","streettype":"AVE","suffdir":null,"city":"COEUR D'ALENE","state_code":"ID","zip5":"83814","latitude":"47.6862950000000000","longitude":"-116.78426800000000","publicwifi":"N","url":null,"broadband_type_id":6}
{"id":null,"anchorname":"KOOTENAI  COUNTY COURTHOUSE","address":"324 W GARDEN AVE","bldgnbr":"324","predir":"W","streetname":"GARDEN","streettype":"AVE","suffdir":null,"city":"COEUR D'ALENE","state_code":"ID","zip5":"83816","latitude":"47.6776050000000000","longitude":"-116.78762799900000","publicwifi":"Y","url":null,"broadband_type_id":1}
{"id":null,"anchorname":"CDA JUVENILE DETENTION CENTER","address":"501  GOVERNMENT WAY","bldgnbr":"501","predir":null,"streetname":"GOVERNMENT","streettype":"WAY","suffdir":null,"city":"COEUR D'ALENE","state_code":"ID","zip5":"83814","latitude":"47.6768780000000000","longitude":"-116.78624800000000","publicwifi":"N","url":null,"broadband_type_id":null}
{"id":null,"anchorname":"MCMILLAN COMMUNITY LEARNING CENTER","address":"1403 ST JOSEPH AVE, PENSACOLA, FL 32501","bldgnbr":"1403","predir":null,"streetname":"SAINT JOSEPH","streettype":"AVE","suffdir":null,"city":"PENSACOLA","state_code":"FL","zip5":"32501","latitude":"30.4381362700000000","longitude":"-87.234960240000000","publicwifi":"Y","url":"0","broadband_type_id":6}
{"id":null,"anchorname":"FLORIDA DEPARTMENT OF CORRECTIONS PENSACOLA WEST PROBATION AND PAROLE","address":"3100 W FAIRFIELD DR, PENSACOLA, FL 32505","bldgnbr":"3100","predir":null,"streetname":"FAIRFIELD","streettype":"DR","suffdir":null,"city":"PENSACOLA","state_code":"FL","zip5":"32505","latitude":"30.4431519500000000","longitude":"-87.253221800000000","publicwifi":"Y","url":"0","broadband_type_id":6}
{"id":null,"anchorname":"A.B. McDONALD ELEMENTARY SCH","address":"2323 E D ST","bldgnbr":"2323","predir":"E","streetname":"D","streettype":"ST","suffdir":null,"city":"MOSCOW","state_code":"ID","zip5":"83843","latitude":"46.7374310000000000","longitude":"-116.97233600000000","publicwifi":"N","url":null,"broadband_type_id":6}
{"id":null,"anchorname":"MOSCOW PD - CAMPUS","address":"101 S LINE ST","bldgnbr":"101","predir":"S","streetname":"LINE","streettype":"ST","suffdir":null,"city":"MOSCOW","state_code":"ID","zip5":"83843","latitude":"46.7329531160000000","longitude":"-117.01200664000000","publicwifi":"N","url":null,"broadband_type_id":6}
{"id":null,"anchorname":"HUALALAI ACADEMY","address":"74-4966 KEALAKAA ST","bldgnbr":"1","predir":null,"streetname":"KEALAKAA","streettype":"ST","suffdir":null,"city":"KAILUA-KONA","state_code":"HI","zip5":"96740","latitude":"19.6779597330000000","longitude":"-155.98783416700000","publicwifi":"Y","url":null,"broadband_type_id":6}
{"id":null,"anchorname":"WORD OF LIFE ACADEMY","address":"544 QUEEN ST","bldgnbr":"1","predir":null,"streetname":"QUEEN","streettype":"ST","suffdir":null,"city":"HONOLULU","state_code":"HI","zip5":"96813","latitude":"21.3031110000000000","longitude":"-157.85868300000000","publicwifi":"U","url":null,"broadband_type_id":6}
{"id":null,"anchorname":"COEUR D'ALENE PD","address":"3818  SCHREIBER WAY","bldgnbr":"3818","predir":null,"streetname":"SCHREIBER","streettype":"WAY","suffdir":null,"city":"COEUR D'ALENE","state_code":"ID","zip5":"83814","latitude":"47.6694370000000000","longitude":"-116.77185099900000","publicwifi":"Y","url":null,"broadband_type_id":null}
{"id":null,"anchorname":"ST. ROSE S KINDERGARTEN","address":"412 N HOWARD ST","bldgnbr":"412","predir":"N","streetname":"HOWARD","streettype":"ST","suffdir":null,"city":"MOSCOW","state_code":"ID","zip5":"83843","latitude":"46.7366180000000000","longitude":"-116.99232200000000","publicwifi":"N","url":null,"broadband_type_id":null}
{"id":null,"anchorname":"MOSCOW PD","address":"118 E 4TH ST","bldgnbr":"118","predir":"E","streetname":"4TH","streettype":"ST","suffdir":null,"city":"MOSCOW","state_code":"ID","zip5":"83843","latitude":"46.7318800000000000","longitude":"-117.00045600000000","publicwifi":"N","url":null,"broadband_type_id":null}
{"id":null,"anchorname":"NORTH IDAHO COLLEGE","address":"1000 W GARDEN AVE","bldgnbr":"1000","predir":"W","streetname":"GARDEN","streettype":"AVE","suffdir":null,"city":"COEUR D'ALENE","state_code":"ID","zip5":"83814","latitude":"47.6764590000000000","longitude":"-116.79636600000000","publicwifi":"Y","url":null,"broadband_type_id":6}
{"id":null,"anchorname":"BRYAN ELEMENTARY SCHOOL","address":"802  HARRISON AVE","bldgnbr":"802","predir":null,"streetname":"HARRISON","streettype":"AVE","suffdir":null,"city":"COEUR D'ALENE","state_code":"ID","zip5":"83814","latitude":"47.6861970000000000","longitude":"-116.77493100000000","publicwifi":"N","url":null,"broadband_type_id":6}
{"id":null,"anchorname":"CHRIST THE KING LUTHERAN PRESCHOOL","address":"1700  PENNSYLVANIA AVE","bldgnbr":"1700","predir":null,"streetname":"PENNSYLVANIA","streettype":"AVE","suffdir":null,"city":"COEUR D'ALENE","state_code":"ID","zip5":"83814","latitude":"47.6798670000000000","longitude":"-116.76116900000000","publicwifi":"N","url":null,"broadband_type_id":6}
{"id":null,"anchorname":"LAKES MIDDLE SCHOOL","address":"930 N 15TH ST","bldgnbr":"930","predir":"N","streetname":"15TH","streettype":"ST","suffdir":null,"city":"COEUR D'ALENE","state_code":"ID","zip5":"83814","latitude":"47.6818820000000000","longitude":"-116.76477000000000","publicwifi":"N","url":null,"broadband_type_id":6}
{"id":null,"anchorname":"HOLY FAMILY CATHOLIC SCHOOL","address":"406 N 10TH AVE","bldgnbr":"406","predir":"N","streetname":"10TH","streettype":"AVE","suffdir":null,"city":"COEUR D'ALENE","state_code":"ID","zip5":"83814","latitude":"47.6760370000000000","longitude":"-116.77170599900000","publicwifi":"N","url":null,"broadband_type_id":6}
{"id":null,"anchorname":"SORENSEN ELEMENTARY SCHOOL","address":"311 N 9TH ST","bldgnbr":"311","predir":"N","streetname":"9TH","streettype":"ST","suffdir":null,"city":"COEUR D'ALENE","state_code":"ID","zip5":"83814","latitude":"47.6750930000000000","longitude":"-116.77380800000000","publicwifi":"N","url":null,"broadband_type_id":6}
{"id":null,"anchorname":"FERNAN ELEMENTARY SCHOOL","address":"520 N 21ST ST","bldgnbr":"520","predir":"N","streetname":"21ST","streettype":"ST","suffdir":null,"city":"COEUR D'ALENE","state_code":"ID","zip5":"83814","latitude":"47.6772270000000000","longitude":"-116.75667000000000","publicwifi":"N","url":null,"broadband_type_id":6}
{"id":null,"anchorname":"COEUR D'ALENE FIRE STATION 3","address":"1500 N 15TH ST","bldgnbr":"1500","predir":"N","streetname":"15TH","streettype":"ST","suffdir":null,"city":"COEUR D'ALENE","state_code":"ID","zip5":"83814","latitude":"47.6900250000000000","longitude":"-116.76420600000000","publicwifi":"Y","url":null,"broadband_type_id":5}
{"id":null,"anchorname":"CANFIELD MIDDLE SCHOOL","address":"E 1800 DALTON AVE","bldgnbr":"0","predir":"E","streetname":"1800 DALTON","streettype":"AVE","suffdir":null,"city":"COEUR D'ALENE","state_code":"ID","zip5":"83815","latitude":"47.7225260000000000","longitude":"-116.76508900000000","publicwifi":"N","url":null,"broadband_type_id":6}
{"id":null,"anchorname":"HARRISON BRANCH LIBRARY","address":"111 S COEUR D'ALENE AVE","bldgnbr":"111","predir":"S","streetname":"COEUR D'ALENE","streettype":"AVE","suffdir":null,"city":"HARRISON","state_code":"ID","zip5":"83833","latitude":"47.4536850000000000","longitude":"-116.78594700100000","publicwifi":"N","url":null,"broadband_type_id":6}
{"id":null,"anchorname":"MICA-KIDD ISLAND FIRE PROTECTION DISTRICT","address":"6891 W KIDD ISLAND RD","bldgnbr":"6891","predir":"W","streetname":"KIDD ISLAND","streettype":"RD","suffdir":null,"city":"COEUR D'ALENE","state_code":"ID","zip5":"83814","latitude":"47.6221079990000000","longitude":"-116.86274700000000","publicwifi":"Y","url":null,"broadband_type_id":5}
{"id":null,"anchorname":"WORLEY FIRE PROTECTION DISTRICT","address":"29803 S 3RD ST","bldgnbr":"29803","predir":"S","streetname":"3RD","streettype":"ST","suffdir":null,"city":"WORLEY","state_code":"ID","zip5":"83876","latitude":"47.4010710000000000","longitude":"-116.92073099900000","publicwifi":"N","url":null,"broadband_type_id":5}
{"id":null,"anchorname":"KOOTENAI JR-SR HIGH SCHOOL","address":"13030 E O'GARA RD","bldgnbr":"13030","predir":"E","streetname":"O'GARA","streettype":"RD","suffdir":null,"city":"HARRISON","state_code":"ID","zip5":"83833","latitude":"47.4010480000000000","longitude":"-116.67147099900000","publicwifi":"N","url":null,"broadband_type_id":6}
{"id":null,"anchorname":"HARRISON ELEMENTARY SCHOOL","address":"13030 E O'GARA RD","bldgnbr":"13030","predir":"E","streetname":"O'GARA","streettype":"RD","suffdir":null,"city":"HARRISON","state_code":"ID","zip5":"83833","latitude":"47.4010560000000000","longitude":"-116.67153100000000","publicwifi":"N","url":null,"broadband_type_id":6}
{"id":null,"anchorname":"MOSCOW VOLUNTEER FIRE DEPARTMENT STATION 3","address":"229  PINTAIL LN","bldgnbr":"229","predir":null,"streetname":"PINTAIL","streettype":"LN","suffdir":null,"city":"MOSCOW","state_code":"ID","zip5":"83843","latitude":"46.7466010000000000","longitude":"-117.00050400000000","publicwifi":"N","url":null,"broadband_type_id":5}
{"id":null,"anchorname":"J. RUSSELL ELEMENTARY SCHOOL","address":"119 N ADAMS ST","bldgnbr":"119","predir":"N","streetname":"ADAMS","streettype":"ST","suffdir":null,"city":"MOSCOW","state_code":"ID","zip5":"83843","latitude":"46.7338880000000000","longitude":"-116.99712200000000","publicwifi":"N","url":null,"broadband_type_id":6}
{"id":null,"anchorname":"MOSCOW PUBLIC LIBRARY","address":"110 S JEFFERSON","bldgnbr":"110","predir":"S","streetname":"JEFFERSON","streettype":null,"suffdir":null,"city":"MOSCOW","state_code":"ID","zip5":"83843","latitude":"46.7335590000000000","longitude":"-116.99851800000000","publicwifi":"N","url":null,"broadband_type_id":6}
{"id":null,"anchorname":"MOSCOW SENIOR HIGH SCHOOL","address":"402 E FIFTH ST","bldgnbr":"402","predir":"E","streetname":"FIFTH","streettype":"ST","suffdir":null,"city":"MOSCOW","state_code":"ID","zip5":"83843","latitude":"46.7311160000000000","longitude":"-116.99694700000000","publicwifi":"N","url":null,"broadband_type_id":6}
{"id":null,"anchorname":"NEW SAINT ANDREWS COLLEGE","address":"405 S MAIN ST","bldgnbr":"405","predir":"S","streetname":"MAIN","streettype":"ST","suffdir":null,"city":"MOSCOW","state_code":"ID","zip5":"83843","latitude":"46.7316280000000000","longitude":"-117.00143900000000","publicwifi":"N","url":null,"broadband_type_id":6}
{"id":null,"anchorname":"LATAH  COUNTY COURTHOUSE","address":"5TH \u0026 VANBUREN","bldgnbr":"0","predir":null,"streetname":"5TH \u0026 VANBUREN","streettype":null,"suffdir":null,"city":"MOSCOW","state_code":"ID","zip5":"83843","latitude":"46.7308610000000000","longitude":"-116.99709700000000","publicwifi":"Y","url":null,"broadband_type_id":1}
{"id":null,"anchorname":"LATAH CSO COUNTY SHERIFF","address":"522 S ADAMS ST","bldgnbr":"522","predir":"S","streetname":"ADAMS","streettype":"ST","suffdir":null,"city":"MOSCOW","state_code":"ID","zip5":"83843","latitude":"46.7308500000000000","longitude":"-116.99702500000000","publicwifi":"Y","url":null,"broadband_type_id":4}
{"id":null,"anchorname":"MOSCOW JUNIOR HIGH SCHOOL","address":"1410 E D ST","bldgnbr":"1410","predir":"E","streetname":"D","streettype":"ST","suffdir":null,"city":"MOSCOW","state_code":"ID","zip5":"83843","latitude":"46.7374670000000000","longitude":"-116.98321299900000","publicwifi":"N","url":null,"broadband_type_id":6}
{"id":null,"anchorname":"ST. MARY'S CATHOLIC SCHOOL","address":"412 N MONROE St","bldgnbr":"412","predir":"N","streetname":"MONROE","streettype":"St","suffdir":null,"city":"MOSCOW","state_code":"ID","zip5":"83843","latitude":"46.7366120000000000","longitude":"-116.99111000000000","publicwifi":"N","url":null,"broadband_type_id":6}
{"id":null,"anchorname":"MOSCOW CHARTER SCHOOL","address":"1723 E F","bldgnbr":"1723","predir":"E","streetname":"F","streettype":null,"suffdir":null,"city":"MOSCOW","state_code":"ID","zip5":"83843","latitude":"46.7402740000000000","longitude":"-116.97890999900000","publicwifi":"N","url":null,"broadband_type_id":6}
{"id":null,"anchorname":"MOSCOW VOLUNTEER FIRE DEPARTMENT STATION 2","address":"1300  WHITE AVE","bldgnbr":"1300","predir":null,"streetname":"WHITE","streettype":"AVE","suffdir":null,"city":"MOSCOW","state_code":"ID","zip5":"83843","latitude":"46.7227701100000000","longitude":"-116.98133759200000","publicwifi":"N","url":null,"broadband_type_id":5}
{"id":null,"anchorname":"MR LEONS SCHOOL OF HAIR DESIGN","address":"618 S MAIN ST","bldgnbr":"618","predir":"S","streetname":"MAIN","streettype":"ST","suffdir":null,"city":"MOSCOW","state_code":"ID","zip5":"83843","latitude":"46.7298750000000000","longitude":"-117.00126999900000","publicwifi":"Y","url":null,"broadband_type_id":6}
{"id":null,"anchorname":"GRITMAN MEDICAL CENTER","address":"700 S MAIN ST","bldgnbr":"700","predir":"S","streetname":"MAIN","streettype":"ST","suffdir":null,"city":"MOSCOW","state_code":"ID","zip5":"83843","latitude":"46.7290440000000000","longitude":"-117.00126700100000","publicwifi":"N","url":null,"broadband_type_id":3}
{"id":null,"anchorname":"PALOUSE HILLS S.D.A. SCHOOL","address":"3748 TOMER ROAD","bldgnbr":"3748","predir":null,"streetname":"TOMER","streettype":"RD","suffdir":null,"city":"MOSCOW","state_code":"ID","zip5":"83843","latitude":"46.7192920000000000","longitude":"-116.96173900100000","publicwifi":"N","url":null,"broadband_type_id":6}
{"id":null,"anchorname":"PALOUSE PRAIRIE SCHOOL","address":"1500  LEVICK ST","bldgnbr":"1500","predir":null,"streetname":"LEVICK","streettype":"ST","suffdir":null,"city":"MOSCOW","state_code":"ID","zip5":"83843","latitude":"46.7212524410000000","longitude":"-117.00177764900000","publicwifi":"Y","url":null,"broadband_type_id":6}
{"id":null,"anchorname":"MOSCOW VOLUNTEER FIRE DEPARTMENT STATION 1","address":"603 S MAIN ST","bldgnbr":"603","predir":"S","streetname":"MAIN","streettype":"ST","suffdir":null,"city":"MOSCOW","state_code":"ID","zip5":"83843","latitude":"46.7297970000000000","longitude":"-117.00176999900000","publicwifi":"Y","url":null,"broadband_type_id":5}
{"id":null,"anchorname":"UNIVERSITY OF IDAHO","address":"875  PERIMETER ST","bldgnbr":"875","predir":null,"streetname":"PERIMETER","streettype":"ST","suffdir":null,"city":"MOSCOW","state_code":"ID","zip5":"83843","latitude":"46.7299500000000000","longitude":"-117.00599999900000","publicwifi":"N","url":null,"broadband_type_id":6}
{"id":null,"anchorname":"WEST PARK KINDERGARTEN","address":"510  HOME ST","bldgnbr":"510","predir":null,"streetname":"HOME","streettype":"ST","suffdir":null,"city":"MOSCOW","state_code":"ID","zip5":"83843","latitude":"46.7314200000000000","longitude":"-117.01051200000000","publicwifi":"N","url":null,"broadband_type_id":2}
{"id":null,"anchorname":"ELIZABETH JAN GILLESPIE CRNA","address":"1717 N E ST, PENSACOLA, FL, 32501","bldgnbr":"1717","predir":"0","streetname":"NE","streettype":"ST","suffdir":"0","city":"PENSACOLA","state_code":"FL","zip5":"32501","latitude":"30.4298070000000000","longitude":"-87.229584000000000","publicwifi":"U","url":"0","broadband_type_id":6}
{"id":null,"anchorname":"POTLATCH RURAL FPD","address":"435  PINE ST","bldgnbr":"435","predir":null,"streetname":"PINE","streettype":"ST","suffdir":null,"city":"POTLATCH","state_code":"ID","zip5":"83855","latitude":"46.9209180000000000","longitude":"-116.90026099900000","publicwifi":"Y","url":null,"broadband_type_id":null}
{"id":null,"anchorname":"SALMON CITY/LEMHI COUNTY FPD #1","address":"406  VAN DREFF","bldgnbr":"406","predir":null,"streetname":"VAN DREFF","streettype":null,"suffdir":null,"city":"SALMON","state_code":"ID","zip5":"83467","latitude":"45.1749610000000000","longitude":"-113.89501199900000","publicwifi":"N","url":null,"broadband_type_id":1}
{"id":null,"anchorname":"STATE LIBRARIAN HAWA OFFICE OF","address":"853 WAIOLI ST","bldgnbr":"853","predir":null,"streetname":"WAIOLI","streettype":"ST","suffdir":null,"city":"HONOLULU","state_code":"HI","zip5":"96825","latitude":"21.2977109990000000","longitude":"-157.68893200000000","publicwifi":"U","url":null,"broadband_type_id":1}
{"id":null,"anchorname":"TROY PD","address":"519  MAIN ST","bldgnbr":"519","predir":null,"streetname":"MAIN","streettype":"ST","suffdir":null,"city":"TROY","state_code":"ID","zip5":"83871","latitude":"46.7343830000000000","longitude":"-116.76723700000000","publicwifi":"N","url":null,"broadband_type_id":null}
{"id":null,"anchorname":"SALMON JUVENILE DETENTION CTR","address":"206  COURTHOUSE DR","bldgnbr":"206","predir":null,"streetname":"COURTHOUSE","streettype":"DR","suffdir":null,"city":"SALMON","state_code":"ID","zip5":"83467","latitude":"45.1801980000000000","longitude":"-113.90305800000000","publicwifi":"N","url":null,"broadband_type_id":null}
{"id":null,"anchorname":"UPPER CARMEN PUBLIC CHARTER","address":"508  CARMEN CREEK RD","bldgnbr":"508","predir":null,"streetname":"CARMEN CREEK","streettype":"RD","suffdir":null,"city":"CARMEN","state_code":"ID","zip5":"83462","latitude":"45.2797161790000000","longitude":"-113.81348043700000","publicwifi":"Y","url":null,"broadband_type_id":null}
{"id":null,"anchorname":"SALMON PD","address":"200  MAIN ST","bldgnbr":"200","predir":null,"streetname":"MAIN","streettype":"ST","suffdir":null,"city":"SALMON","state_code":"ID","zip5":"83467","latitude":"45.1764680000000000","longitude":"-113.89609500000000","publicwifi":"N","url":null,"broadband_type_id":null}
{"id":null,"anchorname":"POTLATCH JR-SR HIGH SCHOOL","address":"130  6TH ST","bldgnbr":"130","predir":null,"streetname":"6TH","streettype":"ST","suffdir":null,"city":"POTLATCH","state_code":"ID","zip5":"83855","latitude":"46.9216750000000000","longitude":"-116.90218600000000","publicwifi":"N","url":null,"broadband_type_id":6}
{"id":null,"anchorname":"POTLATCH SCHOOL DISTRICT","address":"130  6TH ST","bldgnbr":"130","predir":null,"streetname":"6TH","streettype":"ST","suffdir":null,"city":"POTLATCH","state_code":"ID","zip5":"83855","latitude":"46.9216340000000000","longitude":"-116.90219800000000","publicwifi":"N","url":null,"broadband_type_id":6}
{"id":null,"anchorname":"POTLATCH PUBLIC LIBRARY","address":"1010  ONAWAY RD","bldgnbr":"1010","predir":null,"streetname":"ONAWAY","streettype":"RD","suffdir":null,"city":"POTLATCH","state_code":"ID","zip5":"83855","latitude":"46.9280440000000000","longitude":"-116.89045399900000","publicwifi":"N","url":null,"broadband_type_id":6}
{"id":null,"anchorname":"POTLATCH ELEMENTARY SCHOOL","address":"510  ELM ST","bldgnbr":"510","predir":null,"streetname":"ELM","streettype":"ST","suffdir":null,"city":"POTLATCH","state_code":"ID","zip5":"83855","latitude":"46.9234390260000000","longitude":"-116.89414978000000","publicwifi":"Y","url":null,"broadband_type_id":6}
{"id":null,"anchorname":"BOVILL PUBLIC LIBRARY","address":"310  FIRST AVE","bldgnbr":"310","predir":null,"streetname":"FIRST","streettype":"AVE","suffdir":null,"city":"BOVILL","state_code":"ID","zip5":"83806","latitude":"46.9466290000000000","longitude":"-116.42145000000000","publicwifi":"N","url":null,"broadband_type_id":6}
{"id":null,"anchorname":"DEARY RURAL FIRE DISTRICT","address":"403  MAIN ST","bldgnbr":"403","predir":null,"streetname":"MAIN","streettype":"ST","suffdir":null,"city":"DEARY","state_code":"ID","zip5":"83823","latitude":"46.8496700000000000","longitude":"-116.65690600000000","publicwifi":"N","url":null,"broadband_type_id":5}
{"id":null,"anchorname":"DEARY SCHOOL","address":"502  1ST ST","bldgnbr":"502","predir":null,"streetname":"1ST","streettype":"ST","suffdir":null,"city":"DEARY","state_code":"ID","zip5":"83823","latitude":"46.7983400000000000","longitude":"-116.55744999900000","publicwifi":"N","url":null,"broadband_type_id":6}
{"id":null,"anchorname":"BOVILL ELEMENTARY SCHOOL","address":"410  3RD AVE","bldgnbr":"410","predir":null,"streetname":"3RD","streettype":"AVE","suffdir":null,"city":"BOVILL","state_code":"ID","zip5":"83806","latitude":"46.8603200000000000","longitude":"-116.39676000000000","publicwifi":"N","url":null,"broadband_type_id":6}
{"id":null,"anchorname":"DEARY PUBLIC LIBRARY","address":"304  SECOND AVE","bldgnbr":"304","predir":null,"streetname":"SECOND","streettype":"AVE","suffdir":null,"city":"DEARY","state_code":"ID","zip5":"83823","latitude":"46.8028320000000000","longitude":"-116.56073000000000","publicwifi":"N","url":null,"broadband_type_id":6}
{"id":null,"anchorname":"TROY VOLUNTEER FIRE DEPT","address":"515  EAGLE ALY","bldgnbr":"515","predir":null,"streetname":"EAGLE","streettype":"ALY","suffdir":null,"city":"TROY","state_code":"ID","zip5":"83871","latitude":"46.7341780000000000","longitude":"-116.76778699900000","publicwifi":"Y","url":null,"broadband_type_id":5}
{"id":null,"anchorname":"TROY JR-SR HIGH SCHOOL","address":"101  TROJAN DR","bldgnbr":"101","predir":null,"streetname":"TROJAN","streettype":"DR","suffdir":null,"city":"TROY","state_code":"ID","zip5":"83871","latitude":"46.7422500000000000","longitude":"-116.75257000000000","publicwifi":"N","url":null,"broadband_type_id":6}
{"id":null,"anchorname":"TROY ELEMENTARY SCHOOL","address":"103  TROJAN DR","bldgnbr":"103","predir":null,"streetname":"TROJAN","streettype":"DR","suffdir":null,"city":"TROY","state_code":"ID","zip5":"83871","latitude":"46.7422500000000000","longitude":"-116.75257000000000","publicwifi":"N","url":null,"broadband_type_id":6}
{"id":null,"anchorname":"TROY PUBLIC LIBRARY","address":"402 S MAIN ST","bldgnbr":"402","predir":"S","streetname":"MAIN","streettype":"ST","suffdir":null,"city":"TROY","state_code":"ID","zip5":"83871","latitude":"46.7356900000000000","longitude":"-116.76839300000000","publicwifi":"N","url":null,"broadband_type_id":6}
{"id":null,"anchorname":"KENDRICK JR-SR HIGH SCHOOL","address":"2001  STATE HWY 3","bldgnbr":"2001","predir":null,"streetname":"STATE HWY 3","streettype":null,"suffdir":null,"city":"KENDRICK","state_code":"ID","zip5":"83537","latitude":"46.6835770000000000","longitude":"-116.61524700000000","publicwifi":"N","url":null,"broadband_type_id":6}
{"id":null,"anchorname":"JULIAETTA PUBLIC LIBRARY","address":"205 S MAIN ST","bldgnbr":"205","predir":"S","streetname":"MAIN","streettype":"ST","suffdir":null,"city":"JULIAETTA","state_code":"ID","zip5":"83535","latitude":"46.5768520000000000","longitude":"-116.70768000000000","publicwifi":"N","url":null,"broadband_type_id":6}
{"id":null,"anchorname":"JULIAETTA ELEMENTARY SCHOOL","address":"305 4TH ST","bldgnbr":"305","predir":null,"streetname":"4TH","streettype":"ST","suffdir":null,"city":"JULIAETTA","state_code":"ID","zip5":"83535","latitude":"46.5790160000000000","longitude":"-116.70712300000000","publicwifi":"N","url":null,"broadband_type_id":6}
{"id":null,"anchorname":"GENESEE RURAL FIRE DEPT","address":"140 E WALNUT AVE","bldgnbr":"140","predir":"E","streetname":"WALNUT","streettype":"AVE","suffdir":null,"city":"GENESEE","state_code":"ID","zip5":"83832","latitude":"46.5770150000000000","longitude":"-116.87412300000000","publicwifi":"N","url":null,"broadband_type_id":5}
{"id":null,"anchorname":"GENESEE SCHOOL","address":"330 W ASH ST","bldgnbr":"330","predir":"W","streetname":"ASH","streettype":"ST","suffdir":null,"city":"GENESEE","state_code":"ID","zip5":"83832","latitude":"46.5519180000000000","longitude":"-116.92965400000000","publicwifi":"N","url":null,"broadband_type_id":6}
{"id":null,"anchorname":"GENESEE PUBLIC LIBRARY","address":"140 E WALNUT ST","bldgnbr":"140","predir":"E","streetname":"WALNUT","streettype":"ST","suffdir":null,"city":"GENESEE","state_code":"ID","zip5":"83832","latitude":"46.5505950000000000","longitude":"-116.92708500000000","publicwifi":"N","url":null,"broadband_type_id":6}
{"id":null,"anchorname":"LEMHI COUNTY COURTHOUSE","address":"206  COURTHOUSE DR","bldgnbr":"206","predir":null,"streetname":"COURTHOUSE","streettype":"DR","suffdir":null,"city":"SALMON","state_code":"ID","zip5":"83467","latitude":"45.1802570000000000","longitude":"-113.90307000000000","publicwifi":"N","url":null,"broadband_type_id":1}
{"id":null,"anchorname":"GIBBONSVILLE VOL FIRE DEPT/SEE NORTHFORK","address":"13 HART LN","bldgnbr":"13","predir":null,"streetname":"HART","streettype":"LN","suffdir":null,"city":"GIBBONSVILLE","state_code":"ID","zip5":"83463","latitude":"45.5454370000000000","longitude":"-113.92998500000000","publicwifi":"N","url":null,"broadband_type_id":5}
{"id":null,"anchorname":"ELK BEND FIRE DISTRICT","address":"415 W ELKHORN RD","bldgnbr":"415","predir":"W","streetname":"ELKHORN","streettype":"RD","suffdir":null,"city":"SALMON","state_code":"ID","zip5":"83467","latitude":"45.1785430000000000","longitude":"-113.91436000100000","publicwifi":"Y","url":null,"broadband_type_id":5}
{"id":null,"anchorname":"SALMON ALTERNATIVE SCHOOL","address":"124  BEAN LN","bldgnbr":"124","predir":null,"streetname":"BEAN","streettype":"LN","suffdir":null,"city":"SALMON","state_code":"ID","zip5":"83467","latitude":"45.1785400000000000","longitude":"-113.91434999900000","publicwifi":"N","url":null,"broadband_type_id":6}
{"id":null,"anchorname":"SALMON HIGH SCHOOL","address":"401  WARPATH DR","bldgnbr":"401","predir":null,"streetname":"WARPATH","streettype":"DR","suffdir":null,"city":"SALMON","state_code":"ID","zip5":"83467","latitude":"45.1703050000000000","longitude":"-113.88605800000000","publicwifi":"N","url":null,"broadband_type_id":6}
{"id":null,"anchorname":"SALMON PIONEER PRIMARY SCHOOL","address":"900  SHARKEY ST","bldgnbr":"900","predir":null,"streetname":"SHARKEY","streettype":"ST","suffdir":null,"city":"SALMON","state_code":"ID","zip5":"83467","latitude":"45.1712600000000000","longitude":"-113.89059000000000","publicwifi":"N","url":null,"broadband_type_id":6}
{"id":null,"anchorname":"SALMON MIDDLE SCHOOL","address":"805  LENA ST","bldgnbr":"805","predir":null,"streetname":"LENA","streettype":"ST","suffdir":null,"city":"SALMON","state_code":"ID","zip5":"83467","latitude":"45.1721090000000000","longitude":"-113.89081500000000","publicwifi":"N","url":null,"broadband_type_id":6}
{"id":null,"anchorname":"LEMHI CSO COUNTY SHERIFF","address":"206  COURTHOUSE","bldgnbr":"206","predir":null,"streetname":"COURTHOUSE","streettype":null,"suffdir":null,"city":"SALMON","state_code":"ID","zip5":"83467","latitude":"45.1802180010000000","longitude":"-113.90306900000000","publicwifi":"N","url":null,"broadband_type_id":4}
{"id":null,"anchorname":"STEELE MEMORIAL MEDICAL CENTER","address":"203 S DAISY ST","bldgnbr":"203","predir":"S","streetname":"DAISY","streettype":"ST","suffdir":null,"city":"SALMON","state_code":"ID","zip5":"83467","latitude":"45.1732000000000000","longitude":"-113.89108900000000","publicwifi":"Y","url":null,"broadband_type_id":3}
{"id":null,"anchorname":"NORTH FORK FIRE PROTECTION DISTRICT","address":"US HWY 93 RD","bldgnbr":"0","predir":null,"streetname":"US HWY 93","streettype":"RD","suffdir":null,"city":"NORTH FORK","state_code":"ID","zip5":"83466","latitude":"45.4072850000000000","longitude":"-113.99595500000000","publicwifi":"Y","url":null,"broadband_type_id":5}
{"id":null,"anchorname":"SALMON PUBLIC LIBRARY","address":"204  MAIN ST","bldgnbr":"204","predir":null,"streetname":"MAIN","streettype":"ST","suffdir":null,"city":"SALMON","state_code":"ID","zip5":"83467","latitude":"45.1764600000000000","longitude":"-113.89601100000000","publicwifi":"N","url":null,"broadband_type_id":6}
{"id":null,"anchorname":"TENDOY ELEMENTARY SCHOOL","address":"957 E ALAMEDA RD","bldgnbr":"957","predir":"E","streetname":"ALAMEDA","streettype":"RD","suffdir":null,"city":"POCATELLO","state_code":"ID","zip5":"83201","latitude":"44.9595900000000000","longitude":"-113.64434000000000","publicwifi":"Y","url":null,"broadband_type_id":6}
{"id":null,"anchorname":"LEADORE COMMUNITY VOL. FIRE DEPARTMENT","address":"117 GALENA ST","bldgnbr":"117","predir":null,"streetname":"GALENA","streettype":"ST","suffdir":null,"city":"LEADORE","state_code":"ID","zip5":"83464","latitude":"44.6795640000000000","longitude":"-113.35722400000000","publicwifi":"N","url":null,"broadband_type_id":5}
{"id":null,"anchorname":"LEADORE SCHOOL","address":"111 S 3RD ST","bldgnbr":"111","predir":"S","streetname":"3RD","streettype":"ST","suffdir":null,"city":"LEADORE","state_code":"ID","zip5":"83464","latitude":"44.6778660000000000","longitude":"-113.36109700000000","publicwifi":"N","url":null,"broadband_type_id":6}
{"id":null,"anchorname":"LEADORE COMMUNITY LIBRARY","address":"202  RAILROAD ST","bldgnbr":"202","predir":null,"streetname":"RAILROAD","streettype":"ST","suffdir":null,"city":"LEADORE","state_code":"ID","zip5":"83464","latitude":"44.6802300000000000","longitude":"-113.35740000000000","publicwifi":"N","url":null,"broadband_type_id":6}
{"id":null,"anchorname":"PATTERSON ELEMENTARY SCHOOL","address":"13  PATTERSON RD","bldgnbr":"13","predir":null,"streetname":"PATTERSON","streettype":"RD","suffdir":null,"city":"MAY","state_code":"ID","zip5":"83253","latitude":"44.6065180000000000","longitude":"-113.78842900000000","publicwifi":"N","url":null,"broadband_type_id":6}
{"id":null,"anchorname":"KAMIAH HIGH SCHOOL","address":"1102  HILL","bldgnbr":"1102","predir":null,"streetname":"HILL","streettype":null,"suffdir":null,"city":"KAMIAH","state_code":"ID","zip5":"83536","latitude":"46.2218040000000000","longitude":"-116.02937000000000","publicwifi":"N","url":null,"broadband_type_id":6}
{"id":null,"anchorname":"ESCAMBIA COUNTY TAX COLLECTOR","address":"507 NORTH NAVY BOULEVARD, PENSACOLA, FL 32507","bldgnbr":"507","predir":null,"streetname":"NAVY","streettype":"BLVD","suffdir":null,"city":"PENSACOLA","state_code":"FL","zip5":"32507","latitude":"30.3943955400000000","longitude":"-87.279939850000000","publicwifi":"Y","url":"0","broadband_type_id":6}
{"id":null,"anchorname":"CARROT RIDGE/WOODLAND FD","address":"488  GREER RD","bldgnbr":"488","predir":null,"streetname":"GREER","streettype":"RD","suffdir":null,"city":"KAMIAH","state_code":"ID","zip5":"83536","latitude":"46.3257130000000000","longitude":"-116.09795399900000","publicwifi":"N","url":null,"broadband_type_id":null}
{"id":null,"anchorname":"CHRISTIAN INSTITUTE OF ARTS \u0026 SCIENCES","address":"6100 W FAIRFIELD DRIVE H, PENSACOLA, FL 32506","bldgnbr":"6100","predir":null,"streetname":"FAIRFIELD","streettype":"DR","suffdir":null,"city":"PENSACOLA","state_code":"FL","zip5":"32506","latitude":"30.4320197700000000","longitude":"-87.296306570000000","publicwifi":"U","url":"0","broadband_type_id":6}
{"id":null,"anchorname":"KAMIAH (PD) MARSHAL","address":"507  MAIN ST","bldgnbr":"507","predir":null,"streetname":"MAIN","streettype":"ST","suffdir":null,"city":"KAMIAH","state_code":"ID","zip5":"83536","latitude":"46.2273500000000000","longitude":"-116.02791999900000","publicwifi":"N","url":null,"broadband_type_id":null}
{"id":null,"anchorname":"CATHEDRAL CATHOLIC ACADEMY","address":"1728 NUUANU AVE","bldgnbr":"1","predir":null,"streetname":"NUUANU","streettype":"AVE","suffdir":null,"city":"HONOLULU","state_code":"HI","zip5":"96817","latitude":"21.3187457940000000","longitude":"-157.85441433100000","publicwifi":"U","url":null,"broadband_type_id":6}
{"id":null,"anchorname":"LE JARDIN ACADEMY","address":"917 KALANIANAOLE HWY","bldgnbr":"1","predir":null,"streetname":"KALANIANAOLE","streettype":"HWY","suffdir":null,"city":"KAILUA","state_code":"HI","zip5":"96744","latitude":"21.3793893160000000","longitude":"-157.76723906800000","publicwifi":"Y","url":null,"broadband_type_id":6}
{"id":null,"anchorname":"STATE OF HAWAII DEPT EDUCATN","address":"1159 MAKAWAO AVE","bldgnbr":"1159","predir":null,"streetname":"MAKAWAO","streettype":"AVE","suffdir":null,"city":"MAKAWAO","state_code":"HI","zip5":"96768","latitude":"20.8533829990000000","longitude":"-156.31106400000000","publicwifi":"U","url":null,"broadband_type_id":1}
{"id":null,"anchorname":"SHOSHONE PD","address":"110 W A ST","bldgnbr":"110","predir":"W","streetname":"A","streettype":"ST","suffdir":null,"city":"SHOSHONE","state_code":"ID","zip5":"83352","latitude":"42.9346300000000000","longitude":"-114.40757000000000","publicwifi":"N","url":null,"broadband_type_id":null}
{"id":null,"anchorname":"GLENWOOD/CARIBEL VOLUNTEER FIRE DISTRICT","address":"1207  GLENWOOD RD","bldgnbr":"1207","predir":null,"streetname":"GLENWOOD","streettype":"RD","suffdir":null,"city":"KAMIAH","state_code":"ID","zip5":"83536","latitude":"46.2450560000000000","longitude":"-116.00226300000000","publicwifi":"N","url":null,"broadband_type_id":5}
{"id":null,"anchorname":"KAMIAH VOLUNTEER FIRE DEPARTMENT","address":"515  MAIN ST","bldgnbr":"515","predir":null,"streetname":"MAIN","streettype":"ST","suffdir":null,"city":"KAMIAH","state_code":"ID","zip5":"83536","latitude":"46.2269440000000000","longitude":"-116.02758300000000","publicwifi":"N","url":null,"broadband_type_id":5}
{"id":null,"anchorname":"NEZ PERCE VOL FIRE DEPT","address":"404  OAK ST","bldgnbr":"404","predir":null,"streetname":"OAK","streettype":"ST","suffdir":null,"city":"NEZ PERCE","state_code":"ID","zip5":"83543","latitude":"46.2343350000000000","longitude":"-116.24091900100000","publicwifi":"Y","url":null,"broadband_type_id":5}
{"id":null,"anchorname":"NEZ PERCE SCHOOL","address":"615  2ND AVE","bldgnbr":"615","predir":null,"streetname":"2ND","streettype":"AVE","suffdir":null,"city":"NEZ PERCE","state_code":"ID","zip5":"83543","latitude":"46.2890700000000000","longitude":"-116.24312000000000","publicwifi":"N","url":null,"broadband_type_id":6}
{"id":null,"anchorname":"LEWIS  COUNTY COURTHOUSE","address":"510  OAK ST","bldgnbr":"510","predir":null,"streetname":"OAK","streettype":"ST","suffdir":null,"city":"NEZPERCE","state_code":"ID","zip5":"83543","latitude":"46.2336990000000000","longitude":"-116.24053699900000","publicwifi":"N","url":null,"broadband_type_id":1}
{"id":null,"anchorname":"LEWIS COUNTY SHERIFF","address":"510  OAK ST","bldgnbr":"510","predir":null,"streetname":"OAK","streettype":"ST","suffdir":null,"city":"NEZPERCE","state_code":"ID","zip5":"83543","latitude":"46.2337270000000000","longitude":"-116.24050100000000","publicwifi":"Y","url":null,"broadband_type_id":4}
{"id":null,"anchorname":"CRAIGMONT COMMUNITY LIBRARY - PRAIRIE RIVER LIBRARY DISTRICT","address":"112 W MAIN ST","bldgnbr":"112","predir":"W","streetname":"MAIN","streettype":"ST","suffdir":null,"city":"CRAIGMONT","state_code":"ID","zip5":"83523","latitude":"46.2407850000000000","longitude":"-116.47491200000000","publicwifi":"Y","url":null,"broadband_type_id":6}
{"id":null,"anchorname":"CRAIGMONT FIRE DEPT","address":"109 N 3RD AVE","bldgnbr":"109","predir":"N","streetname":"3RD","streettype":"AVE","suffdir":null,"city":"CRAIGMONT","state_code":"ID","zip5":"83523","latitude":"46.2412650000000000","longitude":"-116.47721700000000","publicwifi":"N","url":null,"broadband_type_id":5}
{"id":null,"anchorname":"HIGHLAND SCHOOL","address":"112 112 BOULEVARD AVE","bldgnbr":"112","predir":"112","streetname":"BOULEVARD","streettype":"AVE","suffdir":null,"city":"CRAIGMONT","state_code":"ID","zip5":"83523","latitude":"46.2088500000000000","longitude":"-116.51445000000000","publicwifi":"N","url":null,"broadband_type_id":6}
{"id":null,"anchorname":"WINCHESTER COMMUNITY LIBRARY - PRAIRIE RIVER LIBRARY DISTRICT","address":"314  NEZPERCE ST","bldgnbr":"314","predir":null,"streetname":"NEZPERCE","streettype":"ST","suffdir":null,"city":"WINCHESTER","state_code":"ID","zip5":"83555","latitude":"46.3002840000000000","longitude":"-116.56731000000000","publicwifi":"N","url":null,"broadband_type_id":6}
{"id":null,"anchorname":"WINCHESTER VOLUNTEER FIRE DEPT","address":"501  NEZ PERCE AVE","bldgnbr":"501","predir":null,"streetname":"NEZ PERCE","streettype":"AVE","suffdir":null,"city":"WINCHESTER","state_code":"ID","zip5":"83555","latitude":"46.2415900000000000","longitude":"-116.62309300000000","publicwifi":"U","url":null,"broadband_type_id":5}
{"id":null,"anchorname":"RICHFIELD FIRE PROTECT DIST","address":"280 W LINCOLN ST","bldgnbr":"280","predir":"W","streetname":"LINCOLN","streettype":"ST","suffdir":null,"city":"RICHFIELD","state_code":"ID","zip5":"83349","latitude":"43.0508860000000000","longitude":"-114.15607500000000","publicwifi":"N","url":null,"broadband_type_id":5}
{"id":null,"anchorname":"RICHFIELD SCHOOL","address":"555 N TIGER DR DR","bldgnbr":"555","predir":"N","streetname":"TIGER DR","streettype":"DR","suffdir":null,"city":"RICHFIELD","state_code":"ID","zip5":"83349","latitude":"43.0534830000000000","longitude":"-114.15668000000000","publicwifi":"N","url":null,"broadband_type_id":6}
{"id":null,"anchorname":"DIETRICH RURAL FIRE DEPT","address":"45 N LINCOLN ST","bldgnbr":"45","predir":"N","streetname":"LINCOLN","streettype":"ST","suffdir":null,"city":"DIETRICH","state_code":"ID","zip5":"83324","latitude":"42.9119990000000000","longitude":"-114.25565300000000","publicwifi":"Y","url":null,"broadband_type_id":5}
{"id":null,"anchorname":"WEST MAGIC FIRE DISTRICT","address":"960 W MAGIC RD","bldgnbr":"960","predir":"W","streetname":"MAGIC","streettype":"RD","suffdir":null,"city":"SHOSHONE","state_code":"ID","zip5":"83352","latitude":"43.1990890000000000","longitude":"-114.33520500000000","publicwifi":"U","url":null,"broadband_type_id":5}
{"id":null,"anchorname":"SHOSHONE CITY/RURAL FIRE DEPARTMENT @ WALLACE","address":"703  CEDAR ST","bldgnbr":"703","predir":null,"streetname":"CEDAR","streettype":"ST","suffdir":null,"city":"WALLACE","state_code":"ID","zip5":"83873","latitude":"42.9349850000000000","longitude":"-114.40762399900000","publicwifi":"Y","url":null,"broadband_type_id":5}
{"id":null,"anchorname":"SHOSHONE PUBLIC LIBRARY","address":"211 S RAIL ST W","bldgnbr":"211","predir":"S","streetname":"RAIL","streettype":"ST","suffdir":"W","city":"SHOSHONE","state_code":"ID","zip5":"83352","latitude":"42.9358220000000000","longitude":"-114.40825700000000","publicwifi":"N","url":null,"broadband_type_id":6}
{"id":null,"anchorname":"LINCOLN COUNTY COURTHOUSE","address":"111 W B ST","bldgnbr":"111","predir":"W","streetname":"B","streettype":"ST","suffdir":null,"city":"SHOSHONE","state_code":"ID","zip5":"83352","latitude":"42.9337350000000000","longitude":"-114.40809500000000","publicwifi":"N","url":null,"broadband_type_id":1}
{"id":null,"anchorname":"LINCOLN COUNTY SHERIFF","address":"111 W B ST","bldgnbr":"111","predir":"W","streetname":"B","streettype":"ST","suffdir":null,"city":"SHOSHONE","state_code":"ID","zip5":"83352","latitude":"42.9337540000000000","longitude":"-114.40805099900000","publicwifi":"Y","url":null,"broadband_type_id":4}
{"id":null,"anchorname":"SHOSHONE ELEMENTARY SCHOOL","address":"61 E STATE HWY 24","bldgnbr":"61","predir":"E","streetname":"STATE HWY 24","streettype":null,"suffdir":null,"city":"SHOSHONE","state_code":"ID","zip5":"83352","latitude":"42.9292460000000000","longitude":"-114.40888900000000","publicwifi":"N","url":null,"broadband_type_id":6}
{"id":null,"anchorname":"HIBBARD ELEMENTARY SCHOOL","address":"2413 N 3000 WEST ST","bldgnbr":"2413","predir":"N","streetname":"3000 WEST","streettype":"ST","suffdir":null,"city":"REXBURG","state_code":"ID","zip5":"83440","latitude":"43.8543000000000000","longitude":"-111.83803000000000","publicwifi":"N","url":null,"broadband_type_id":6}
{"id":null,"anchorname":"SUGAR-SALEM HIGH SCHOOL","address":"1  DIGGER","bldgnbr":"1","predir":null,"streetname":"DIGGER","streettype":null,"suffdir":null,"city":"SUGAR CITY","state_code":"ID","zip5":"83448","latitude":"43.8404790000000000","longitude":"-111.73784600000000","publicwifi":"Y","url":null,"broadband_type_id":6}
{"id":null,"anchorname":"KERSHAW INTERMEDIATE SCHOOL","address":"610 E 3RD NORTH ST","bldgnbr":"610","predir":"E","streetname":"3RD NORTH","streettype":"ST","suffdir":null,"city":"SUGAR CITY","state_code":"ID","zip5":"83448","latitude":"43.8764560000000000","longitude":"-111.73976000000000","publicwifi":"Y","url":null,"broadband_type_id":6}
{"id":null,"anchorname":"SUGAR-SALEM JUNIOR HIGH SCHOOL","address":"10 N CUTLER ST","bldgnbr":"10","predir":"N","streetname":"CUTLER","streettype":"ST","suffdir":null,"city":"SUGAR CITY","state_code":"ID","zip5":"83448","latitude":"43.8725900000000000","longitude":"-111.74981000000000","publicwifi":"Y","url":null,"broadband_type_id":6}
{"id":null,"anchorname":"CENTRAL ELEMENTARY SCHOOL","address":"102 N PARK ST","bldgnbr":"102","predir":"N","streetname":"PARK","streettype":"ST","suffdir":null,"city":"SUGAR CITY","state_code":"ID","zip5":"83448","latitude":"43.8742600000000000","longitude":"-111.74360999900000","publicwifi":"Y","url":null,"broadband_type_id":6}
{"id":null,"anchorname":"SUGAR SALEM SCHOOL/COMMUNITY","address":"3227 N 2000  E","bldgnbr":"3227","predir":"N","streetname":"2000","streettype":null,"suffdir":"E","city":"SUGAR CITY","state_code":"ID","zip5":"83448","latitude":"43.8726480000000000","longitude":"-111.73804599900000","publicwifi":"N","url":null,"broadband_type_id":6}
{"id":null,"anchorname":"MADISON LIBRARY DISTRICT","address":"73 N CENTER","bldgnbr":"73","predir":"N","streetname":"CENTER","streettype":null,"suffdir":null,"city":"REXBURG","state_code":"ID","zip5":"83440","latitude":"43.8276220000000000","longitude":"-111.78384000000000","publicwifi":"N","url":null,"broadband_type_id":6}
{"id":null,"anchorname":"MADISON JUNIOR HIGH SCHOOL","address":"60 W MAIN ST","bldgnbr":"60","predir":"W","streetname":"MAIN","streettype":"ST","suffdir":null,"city":"REXBURG","state_code":"ID","zip5":"83440","latitude":"43.8260760000000000","longitude":"-111.78554200100000","publicwifi":"N","url":null,"broadband_type_id":6}
{"id":null,"anchorname":"MADISON COUNTY COURTHOUSE","address":"134 E MAIN","bldgnbr":"134","predir":"E","streetname":"MAIN","streettype":null,"suffdir":null,"city":"REXBURG","state_code":"ID","zip5":"83440","latitude":"43.8260280000000000","longitude":"-111.77993900000000","publicwifi":"N","url":null,"broadband_type_id":1}
{"id":null,"anchorname":"MADISON COUNTY SHERIFF","address":"145 E MAIN ST","bldgnbr":"145","predir":"E","streetname":"MAIN","streettype":"ST","suffdir":null,"city":"REXBURG","state_code":"ID","zip5":"83440","latitude":"43.8261110000000000","longitude":"-111.77966299900000","publicwifi":"Y","url":null,"broadband_type_id":4}
{"id":null,"anchorname":"BRIGHAM YOUNG UNIVERSITY-IDAHO","address":"525 S CENTER","bldgnbr":"525","predir":"S","streetname":"CENTER","streettype":null,"suffdir":null,"city":"REXBURG","state_code":"ID","zip5":"83460","latitude":"43.8155700000000000","longitude":"-111.78524000000000","publicwifi":"N","url":null,"broadband_type_id":6}
{"id":null,"anchorname":"KENNEDY ELEMENTARY SCHOOL","address":"60 S 5TH ST","bldgnbr":"60","predir":"S","streetname":"5TH","streettype":"ST","suffdir":null,"city":"REXBURG","state_code":"ID","zip5":"83440","latitude":"43.8248000000000000","longitude":"-111.79803099900000","publicwifi":"N","url":null,"broadband_type_id":6}
{"id":null,"anchorname":"HAIR ACADEMY PAUL MITCHELL PARTNER SCHOOL","address":"557 MARIAH AVE","bldgnbr":"557","predir":null,"streetname":"MARIAH","streettype":"AVE","suffdir":null,"city":"REXBURG","state_code":"ID","zip5":"83440","latitude":"43.8144240000000000","longitude":"-111.80515500000000","publicwifi":"N","url":null,"broadband_type_id":6}
{"id":null,"anchorname":"MADISON MIDDLE SCHOOL","address":"575 W 7TH  S","bldgnbr":"575","predir":"W","streetname":"7TH","streettype":null,"suffdir":"S","city":"REXBURG","state_code":"ID","zip5":"83440","latitude":"43.8116230000000000","longitude":"-111.80146199900000","publicwifi":"N","url":null,"broadband_type_id":6}
{"id":null,"anchorname":"EVANS HAIRSTYLING COLLEGE","address":"67  WINN DR","bldgnbr":"67","predir":null,"streetname":"WINN","streettype":"DR","suffdir":null,"city":"REXBURG","state_code":"ID","zip5":"83440","latitude":"43.8135300000000000","longitude":"-111.79649000000000","publicwifi":"Y","url":null,"broadband_type_id":6}
{"id":null,"anchorname":"HOLY FAMILY CATHOLIC ACADEMY","address":"830 MAIN ST","bldgnbr":"1","predir":null,"streetname":"MAIN","streettype":"ST","suffdir":null,"city":"HONOLULU","state_code":"HI","zip5":"96818","latitude":"21.3388899360000000","longitude":"-157.93057081800000","publicwifi":"Y","url":null,"broadband_type_id":6}
{"id":null,"anchorname":"HORIZONS ACADEMY OF MAUL INC","address":"740 HAIKU RD","bldgnbr":"1","predir":null,"streetname":"HAIKU","streettype":"RD","suffdir":null,"city":"HAIKU","state_code":"HI","zip5":"96708","latitude":"20.9148184430000000","longitude":"-156.32263640700000","publicwifi":"Y","url":null,"broadband_type_id":6}
{"id":null,"anchorname":"FLORIDA DEPARTMENT OF HIGHWAY SAFETY AND MOTOR VEHICLES","address":"507 NORTH NAVY BLVD., PENSACOLA, FL, 32507","bldgnbr":"507","predir":"NORTH","streetname":"NAVY","streettype":"BLVD.","suffdir":"0","city":"PENSACOLA","state_code":"FL","zip5":"32507","latitude":"30.3951670000000000","longitude":"-87.278110000000000","publicwifi":"Y","url":"0","broadband_type_id":6}
{"id":null,"anchorname":"CENTRAL ALTERNATIVE HIGH","address":"379 S 2ND  E","bldgnbr":"379","predir":"S","streetname":"2ND","streettype":null,"suffdir":"E","city":"REXBURG","state_code":"ID","zip5":"83440","latitude":"43.8181530000000000","longitude":"-111.77799000000000","publicwifi":"N","url":null,"broadband_type_id":6}
{"id":null,"anchorname":"SOUTH FORK ELEMENTARY","address":"7163 S 2000","bldgnbr":"7163","predir":"S","streetname":"2000","streettype":null,"suffdir":null,"city":"REXBURG","state_code":"ID","zip5":"83440","latitude":"43.7256880000000000","longitude":"-111.81762700000000","publicwifi":"N","url":null,"broadband_type_id":6}
{"id":null,"anchorname":"MINIDOKA COUNTY FPD","address":"901  18TH ST","bldgnbr":"901","predir":null,"streetname":"18TH","streettype":"ST","suffdir":null,"city":"HEYBURN","state_code":"ID","zip5":"83336","latitude":"42.5581180000000000","longitude":"-113.75563299900000","publicwifi":"Y","url":null,"broadband_type_id":1}
{"id":null,"anchorname":"HEYBURN PD","address":"1800  J ST","bldgnbr":"1800","predir":null,"streetname":"J","streettype":"ST","suffdir":null,"city":"HEYBURN","state_code":"ID","zip5":"83336","latitude":"42.5573500000000000","longitude":"-113.75543200100000","publicwifi":"N","url":null,"broadband_type_id":null}
{"id":null,"anchorname":"IDAHO YOUTH RANCH","address":"1275 N 400  E","bldgnbr":"1275","predir":"N","streetname":"400","streettype":null,"suffdir":"E","city":"RUPERT","state_code":"ID","zip5":"83350","latitude":"42.8045180000000000","longitude":"-113.58951799900000","publicwifi":"N","url":null,"broadband_type_id":null}
{"id":null,"anchorname":"MINI-CASSIA JUVENILE DET CTR","address":"633  FREMONT","bldgnbr":"633","predir":null,"streetname":"FREMONT","streettype":null,"suffdir":null,"city":"RUPERT","state_code":"ID","zip5":"83350","latitude":"42.6177520000000000","longitude":"-113.67571400000000","publicwifi":"N","url":null,"broadband_type_id":null}
{"id":null,"anchorname":"DEMARY MEMORIAL","address":"417  7TH ST","bldgnbr":"417","predir":null,"streetname":"7TH","streettype":"ST","suffdir":null,"city":"RUPERT","state_code":"ID","zip5":"83350","latitude":"42.6184250000000000","longitude":"-113.67271600000000","publicwifi":"N","url":null,"broadband_type_id":null}
{"id":null,"anchorname":"RUPERT PD","address":"620  FREMONT ST","bldgnbr":"620","predir":null,"streetname":"FREMONT","streettype":"ST","suffdir":null,"city":"RUPERT","state_code":"ID","zip5":"83350","latitude":"42.6179250000000000","longitude":"-113.67591100000000","publicwifi":"N","url":null,"broadband_type_id":null}
{"id":null,"anchorname":"NEZ PERCE TRIBAL PD","address":"210  BEVER RD","bldgnbr":"210","predir":null,"streetname":"BEVER","streettype":"RD","suffdir":null,"city":"LAPWAI","state_code":"ID","zip5":"83540","latitude":"46.4031240000000000","longitude":"-116.80466300000000","publicwifi":"N","url":null,"broadband_type_id":null}
{"id":null,"anchorname":"MADISON MEMORIAL HOSPITAL","address":"450 E MAIN ST","bldgnbr":"450","predir":"E","streetname":"MAIN","streettype":"ST","suffdir":null,"city":"REXBURG","state_code":"ID","zip5":"83440","latitude":"43.8259850000000000","longitude":"-111.77354900000000","publicwifi":"N","url":null,"broadband_type_id":3}
{"id":null,"anchorname":"LINCOLN ELEMENTARY SCHOOL","address":"358 E 2ND ST","bldgnbr":"358","predir":"E","streetname":"2ND","streettype":"ST","suffdir":null,"city":"REXBURG","state_code":"ID","zip5":"83440","latitude":"43.8218280000000000","longitude":"-111.77350300000000","publicwifi":"N","url":null,"broadband_type_id":6}
{"id":null,"anchorname":"BURTON ELEMENTARY SCHOOL","address":"1764 S 4000 WEST ST","bldgnbr":"1764","predir":"S","streetname":"4000 WEST","streettype":"ST","suffdir":null,"city":"REXBURG","state_code":"ID","zip5":"83440","latitude":"43.8003340000000000","longitude":"-111.85781900100000","publicwifi":"N","url":null,"broadband_type_id":6}
{"id":null,"anchorname":"WEST END FIRE PD","address":"152 S 600  W","bldgnbr":"152","predir":"S","streetname":"600","streettype":null,"suffdir":"W","city":"PAUL","state_code":"ID","zip5":"83347","latitude":"42.5975340000000000","longitude":"-113.78320800000000","publicwifi":"Y","url":null,"broadband_type_id":5}
{"id":null,"anchorname":"PAUL ELEMENTARY SCHOOL","address":"201 N 1ST ST W","bldgnbr":"201","predir":"N","streetname":"1ST","streettype":"ST","suffdir":"W","city":"PAUL","state_code":"ID","zip5":"83347","latitude":"42.6077050000000000","longitude":"-113.78535100000000","publicwifi":"U","url":null,"broadband_type_id":6}
{"id":null,"anchorname":"HEYBURN ELEMENTARY SCHOOL","address":"1151  7TH ST","bldgnbr":"1151","predir":null,"streetname":"7TH","streettype":"ST","suffdir":null,"city":"HEYBURN","state_code":"ID","zip5":"83336","latitude":"42.5469897690000000","longitude":"-113.75881701700000","publicwifi":"Y","url":null,"broadband_type_id":6}
{"id":null,"anchorname":"MINIDOKA COUNTY FIRE PROTECTION DISTRICT NORTH SIDE STATION","address":"1082 N 400  E","bldgnbr":"1082","predir":"N","streetname":"400","streettype":null,"suffdir":"E","city":"RUPERT","state_code":"ID","zip5":"83350","latitude":"42.7763246740000000","longitude":"-113.58925044500000","publicwifi":"Y","url":null,"broadband_type_id":5}
{"id":null,"anchorname":"ST. NICHOLAS SCHOOL","address":"806  F ST","bldgnbr":"806","predir":null,"streetname":"F","streettype":"ST","suffdir":null,"city":"RUPERT","state_code":"ID","zip5":"83350","latitude":"42.7049710000000000","longitude":"-113.60846699900000","publicwifi":"N","url":null,"broadband_type_id":6}
{"id":null,"anchorname":"ACEQUIA ELEMENTARY SCHOOL","address":"20504  4TH","bldgnbr":"20504","predir":null,"streetname":"4TH","streettype":null,"suffdir":null,"city":"RUPERT","state_code":"ID","zip5":"83350","latitude":"42.6667850000000000","longitude":"-113.59589100100000","publicwifi":"Y","url":null,"broadband_type_id":6}
{"id":null,"anchorname":"MINIDOKA COUNTY COURTHOUSE","address":"8TH \u0026 G STREETS STS","bldgnbr":"0","predir":null,"streetname":"8TH \u0026 G STREETS","streettype":"STS","suffdir":null,"city":"RUPERT","state_code":"ID","zip5":"83350","latitude":"42.6187400000000000","longitude":"-113.67642600000000","publicwifi":"N","url":null,"broadband_type_id":1}
{"id":null,"anchorname":"ARTEC CHARTER SCHOOL","address":"292 W HIGHWAY  S","bldgnbr":"292","predir":"W","streetname":"HIGHWAY","streettype":null,"suffdir":"S","city":"TWIN FALLS","state_code":"ID","zip5":"83301","latitude":"42.6051290000000000","longitude":"-113.72323000000000","publicwifi":"U","url":null,"broadband_type_id":6}
{"id":null,"anchorname":"MINICO SENIOR HIGH SCHOOL","address":"292 W 100  S","bldgnbr":"292","predir":"W","streetname":"100","streettype":null,"suffdir":"S","city":"RUPERT","state_code":"ID","zip5":"83350","latitude":"42.6051350000000000","longitude":"-113.72369600000000","publicwifi":"Y","url":null,"broadband_type_id":6}
{"id":null,"anchorname":"RUPERT ELEMENTARY SCHOOL","address":"202  18TH ST","bldgnbr":"202","predir":null,"streetname":"18TH","streettype":"ST","suffdir":null,"city":"RUPERT","state_code":"ID","zip5":"83350","latitude":"42.6304430000000000","longitude":"-113.66970800000000","publicwifi":"U","url":null,"broadband_type_id":6}
{"id":null,"anchorname":"MINIDOKA CSO COUNTY SHERIFF","address":"740  H ST","bldgnbr":"740","predir":null,"streetname":"H","streettype":"ST","suffdir":null,"city":"RUPERT","state_code":"ID","zip5":"83350","latitude":"42.6188270000000000","longitude":"-113.67755100100000","publicwifi":"Y","url":null,"broadband_type_id":4}
{"id":null,"anchorname":"RUPERT FIRE DEPT","address":"701 F STREET","bldgnbr":"701","predir":null,"streetname":"F","streettype":"ST","suffdir":null,"city":"RUPERT","state_code":"ID","zip5":"83350","latitude":"42.6187670000000000","longitude":"-113.67524600000000","publicwifi":"N","url":null,"broadband_type_id":5}
{"id":null,"anchorname":"NORTH SIDE FIRE DEPARTMENT","address":"1500 N 450  E","bldgnbr":"1500","predir":"N","streetname":"450","streettype":null,"suffdir":"E","city":"NORLAND","state_code":"ID","zip5":"83350","latitude":"42.6255460000000000","longitude":"-113.66819800000000","publicwifi":"Y","url":null,"broadband_type_id":5}
{"id":null,"anchorname":"MT HARRISON JR/SR HIGH SCHOOL","address":"1431  17TH ST","bldgnbr":"1431","predir":null,"streetname":"17TH","streettype":"ST","suffdir":null,"city":"HEYBURN","state_code":"ID","zip5":"83336","latitude":"42.6216430000000000","longitude":"-113.67123500100000","publicwifi":"U","url":null,"broadband_type_id":6}
{"id":null,"anchorname":"EAST MINICO MIDDLE SCHOOL","address":"1805  H ST","bldgnbr":"1805","predir":null,"streetname":"H","streettype":"ST","suffdir":null,"city":"RUPERT","state_code":"ID","zip5":"83350","latitude":"42.6298450000000000","longitude":"-113.67785400100000","publicwifi":"Y","url":null,"broadband_type_id":6}
{"id":null,"anchorname":"MINIDOKA MEMORIAL HOSPITAL","address":"1224  8TH ST","bldgnbr":"1224","predir":null,"streetname":"8TH","streettype":"ST","suffdir":null,"city":"RUPERT","state_code":"ID","zip5":"83350","latitude":"42.6197150000000000","longitude":"-113.68632900100000","publicwifi":"N","url":null,"broadband_type_id":3}
{"id":null,"anchorname":"EAST END FIRE PD","address":"322 S 5TH","bldgnbr":"322","predir":"S","streetname":"5TH","streettype":null,"suffdir":null,"city":"RUPERT","state_code":"ID","zip5":"83350","latitude":"42.6087840000000000","longitude":"-113.67124200000000","publicwifi":"Y","url":null,"broadband_type_id":5}
{"id":null,"anchorname":"PECK COMMUNITY LIBRARY - PRAIRIE RIVER LIBRARY DISTRICT","address":"217 N MAIN ST","bldgnbr":"217","predir":"N","streetname":"MAIN","streettype":"ST","suffdir":null,"city":"PECK","state_code":"ID","zip5":"83545","latitude":"46.4725990000000000","longitude":"-116.42090400000000","publicwifi":"Y","url":null,"broadband_type_id":6}
{"id":null,"anchorname":"BIG CANYON FIRE DISTRICT","address":"307 N MAIN ST","bldgnbr":"307","predir":"N","streetname":"MAIN","streettype":"ST","suffdir":null,"city":"PECK","state_code":"ID","zip5":"83545","latitude":"46.4756720000000000","longitude":"-116.42267499900000","publicwifi":"U","url":null,"broadband_type_id":5}
{"id":null,"anchorname":"PECK ELEMENTARY SCHOOL","address":"212  MAIN ST","bldgnbr":"212","predir":null,"streetname":"MAIN","streettype":"ST","suffdir":null,"city":"PECK","state_code":"ID","zip5":"83545","latitude":"46.4722700000000000","longitude":"-116.42106000100000","publicwifi":"N","url":null,"broadband_type_id":6}
{"id":null,"anchorname":"DIXIE FIRE DEPARTMENT","address":"2710  DIXIE RD","bldgnbr":"2710","predir":null,"streetname":"DIXIE","streettype":"RD","suffdir":null,"city":"PECK","state_code":"ID","zip5":"83545","latitude":"46.4238586430000000","longitude":"-116.43720245300000","publicwifi":"Y","url":null,"broadband_type_id":5}
{"id":null,"anchorname":"REUBENS FIRE DEPT","address":"1795  WOODSIDE RD","bldgnbr":"1795","predir":null,"streetname":"WOODSIDE","streettype":"RD","suffdir":null,"city":"REUBENS","state_code":"ID","zip5":"83548","latitude":"46.3202480000000000","longitude":"-116.53796200000000","publicwifi":"U","url":null,"broadband_type_id":5}
{"id":null,"anchorname":"LAPWAI FIRE DEPT","address":"315 S MAIN ST","bldgnbr":"315","predir":"S","streetname":"MAIN","streettype":"ST","suffdir":null,"city":"LAPWAI","state_code":"ID","zip5":"83540","latitude":"46.4031240000000000","longitude":"-116.80466300000000","publicwifi":"Y","url":null,"broadband_type_id":5}
{"id":null,"anchorname":"LAPWAI MIDDLE/HIGH SCHOOL","address":"404 S MAIN","bldgnbr":"404","predir":"S","streetname":"MAIN","streettype":null,"suffdir":null,"city":"LAPWAI","state_code":"ID","zip5":"83540","latitude":"46.4017970000000000","longitude":"-116.80556900000000","publicwifi":"N","url":null,"broadband_type_id":6}
{"id":null,"anchorname":"LAPWAI ELEMENTARY SCHOOL","address":"170  AGENCY RD","bldgnbr":"170","predir":null,"streetname":"AGENCY","streettype":"RD","suffdir":null,"city":"LAPWAI","state_code":"ID","zip5":"83540","latitude":"46.3957920000000000","longitude":"-116.80177200000000","publicwifi":"N","url":null,"broadband_type_id":6}
{"id":null,"anchorname":"CULDESAC SCHOOL","address":"600  CULDESAC AVE","bldgnbr":"600","predir":null,"streetname":"CULDESAC","streettype":"AVE","suffdir":null,"city":"CULDESAC","state_code":"ID","zip5":"83524","latitude":"46.3755250000000000","longitude":"-116.67187999900000","publicwifi":"N","url":null,"broadband_type_id":6}
{"id":null,"anchorname":"CULDESAC FIRE DEPT","address":"100  SIXTH ST","bldgnbr":"100","predir":null,"streetname":"SIXTH","streettype":"ST","suffdir":null,"city":"CULDESAC","state_code":"ID","zip5":"83524","latitude":"46.3754500000000000","longitude":"-116.67238600100000","publicwifi":"U","url":null,"broadband_type_id":5}
{"id":null,"anchorname":"CULDESAC COMMUNITY LIBRARY - PRAIRIE RIVER LIBRARY DISTRICT","address":"714  MAIN ST","bldgnbr":"714","predir":null,"streetname":"MAIN","streettype":"ST","suffdir":null,"city":"CULDESAC","state_code":"ID","zip5":"83524","latitude":"46.3738870000000000","longitude":"-116.67095200000000","publicwifi":"N","url":null,"broadband_type_id":6}
{"id":null,"anchorname":"JULIAETTA VOL FIRE DEPT","address":"203 MAIN ST","bldgnbr":"203","predir":null,"streetname":"MAIN","streettype":"ST","suffdir":null,"city":"JULIAETTA","state_code":"ID","zip5":"83535","latitude":"46.5771170000000000","longitude":"-116.70695300000000","publicwifi":"N","url":null,"broadband_type_id":5}
{"id":null,"anchorname":"KENDRICK VOL FIRE DEPT","address":"600 W MAIN ST","bldgnbr":"600","predir":"W","streetname":"MAIN","streettype":"ST","suffdir":null,"city":"KENDRICK","state_code":"ID","zip5":"83537","latitude":"46.6140840000000000","longitude":"-116.65041300100000","publicwifi":"N","url":null,"broadband_type_id":5}
{"id":null,"anchorname":"LEWISTON PD","address":"1224  F ST","bldgnbr":"1224","predir":null,"streetname":"F","streettype":"ST","suffdir":null,"city":"LEWISTON","state_code":"ID","zip5":"83501","latitude":"46.4176790000000000","longitude":"-117.01540400000000","publicwifi":"N","url":null,"broadband_type_id":6}
{"id":null,"anchorname":"REDEMPTION ACADEMY","address":"629A KAILUA RD #1","bldgnbr":"1","predir":null,"streetname":"KAILUA","streettype":"RD","suffdir":null,"city":"KAILUA","state_code":"HI","zip5":"96734","latitude":"21.3934472440000000","longitude":"-157.74316387900000","publicwifi":"U","url":null,"broadband_type_id":6}
{"id":null,"anchorname":"ONEIDA COUNTY DISTRICT","address":"31 N 100 ST W","bldgnbr":"31","predir":"N","streetname":"100","streettype":"ST","suffdir":"W","city":"MALAD CITY","state_code":"ID","zip5":"83252","latitude":"42.1844480000000000","longitude":"-112.24796000000000","publicwifi":"N","url":null,"broadband_type_id":6}
{"id":null,"anchorname":"MAUI PREPARATORY ACADEMY","address":"4920 HONOAPIILANI HWY","bldgnbr":"1","predir":null,"streetname":"HONOAPIILANI","streettype":"HWY","suffdir":null,"city":"LAHAINA","state_code":"HI","zip5":"96761","latitude":"20.9825193380000000","longitude":"-156.66855819400000","publicwifi":"N","url":null,"broadband_type_id":6}
{"id":null,"anchorname":"IDAHO DEPT. OF JUVENILE CORRECTIONS","address":"140  SOUTHPORT AVE","bldgnbr":"140","predir":null,"streetname":"SOUTHPORT","streettype":"AVE","suffdir":null,"city":"LEWISTON","state_code":"ID","zip5":"83501","latitude":"46.3691150000000000","longitude":"-117.03042800100000","publicwifi":"N","url":null,"broadband_type_id":null}
{"id":null,"anchorname":"REGION 2 JUVENILE DET CENTER","address":"3317  12TH ST","bldgnbr":"3317","predir":null,"streetname":"12TH","streettype":"ST","suffdir":null,"city":"LEWISTON","state_code":"ID","zip5":"83501","latitude":"46.3833360000000000","longitude":"-116.97036200000000","publicwifi":"N","url":null,"broadband_type_id":null}
{"id":null,"anchorname":"HOMEDALE PD","address":"31 W WYOMING AVE","bldgnbr":"31","predir":"W","streetname":"WYOMING","streettype":"AVE","suffdir":null,"city":"HOMEDALE","state_code":"ID","zip5":"83628","latitude":"43.6165300000000000","longitude":"-116.93454000000000","publicwifi":"N","url":null,"broadband_type_id":null}
{"id":null,"anchorname":"HOMEDALE PUBLIC","address":"125 W OWYHEE AVE","bldgnbr":"125","predir":"W","streetname":"OWYHEE","streettype":"AVE","suffdir":null,"city":"HOMEDALE","state_code":"ID","zip5":"83628","latitude":"43.6186450000000000","longitude":"-116.93652200000000","publicwifi":"N","url":null,"broadband_type_id":null}
{"id":null,"anchorname":"NEZ PERCE  COUNTY COURTHOUSE","address":"1230  MAIN ST","bldgnbr":"1230","predir":null,"streetname":"MAIN","streettype":"ST","suffdir":null,"city":"LEWISTON","state_code":"ID","zip5":"83501","latitude":"46.4186810000000000","longitude":"-117.01694900000000","publicwifi":"Y","url":null,"broadband_type_id":1}
{"id":null,"anchorname":"MR LEONS SCHOOL OF HAIR DESIGN","address":"205  10TH ST","bldgnbr":"205","predir":null,"streetname":"10TH","streettype":"ST","suffdir":null,"city":"LEWISTON","state_code":"ID","zip5":"83501","latitude":"46.4184030000000000","longitude":"-117.02116400000000","publicwifi":"Y","url":null,"broadband_type_id":6}
{"id":null,"anchorname":"LEWISTON FIRE DEPARTMENT HEADQUARTERS","address":"1245  IDAHO ST","bldgnbr":"1245","predir":null,"streetname":"IDAHO","streettype":"ST","suffdir":null,"city":"LEWISTON","state_code":"ID","zip5":"83501","latitude":"46.4162450000000000","longitude":"-117.01483900000000","publicwifi":"N","url":null,"broadband_type_id":5}
{"id":null,"anchorname":"LEWISTON FIRE DEPARTMENT STATION 1","address":"300  13TH ST","bldgnbr":"300","predir":null,"streetname":"13TH","streettype":"ST","suffdir":null,"city":"LEWISTON","state_code":"ID","zip5":"83501","latitude":"46.4168829470000000","longitude":"-117.01568126700000","publicwifi":"N","url":null,"broadband_type_id":5}
{"id":null,"anchorname":"ST JOSEPH REGIONAL MEDICAL CENTER","address":"415 6TH ST","bldgnbr":"415","predir":null,"streetname":"6TH","streettype":"ST","suffdir":null,"city":"LEWISTON","state_code":"ID","zip5":"83501","latitude":"46.4164390000000000","longitude":"-117.02486899900000","publicwifi":"N","url":null,"broadband_type_id":3}
{"id":null,"anchorname":"HEADMASTERS SCHOOL OF HAIR DESIGN","address":"602  MAIN ST","bldgnbr":"602","predir":null,"streetname":"MAIN","streettype":"ST","suffdir":null,"city":"LEWISTON","state_code":"ID","zip5":"83501","latitude":"46.4212040000000000","longitude":"-117.02580000000000","publicwifi":"Y","url":null,"broadband_type_id":6}
{"id":null,"anchorname":"WEBSTER ELEMENTARY SCHOOL","address":"1409  8TH ST","bldgnbr":"1409","predir":null,"streetname":"8TH","streettype":"ST","suffdir":null,"city":"LEWISTON","state_code":"ID","zip5":"83501","latitude":"46.4062260000000000","longitude":"-117.02147900000000","publicwifi":"N","url":null,"broadband_type_id":6}
{"id":null,"anchorname":"LEWIS-CLARK STATE COLLEGE","address":"500  8TH AVE","bldgnbr":"500","predir":null,"streetname":"8TH","streettype":"AVE","suffdir":null,"city":"LEWISTON","state_code":"ID","zip5":"83501","latitude":"46.4125850000000000","longitude":"-117.02658100000000","publicwifi":"Y","url":null,"broadband_type_id":6}
{"id":null,"anchorname":"McSORLEY ELEMENTARY SCHOOL","address":"2020  15TH ST","bldgnbr":"2020","predir":null,"streetname":"15TH","streettype":"ST","suffdir":null,"city":"LEWISTON","state_code":"ID","zip5":"83501","latitude":"46.4007560000000000","longitude":"-117.01091200100000","publicwifi":"N","url":null,"broadband_type_id":6}
{"id":null,"anchorname":"NEZ PERCE COUNTY SHERIFF","address":"1150  WALL ST","bldgnbr":"1150","predir":null,"streetname":"WALL","streettype":"ST","suffdir":null,"city":"LEWISTON","state_code":"ID","zip5":"83501","latitude":"46.3870810000000000","longitude":"-116.98614500000000","publicwifi":"Y","url":null,"broadband_type_id":4}
{"id":null,"anchorname":"JENIFER JUNIOR HIGH SCHOOL","address":"1213  16TH ST","bldgnbr":"1213","predir":null,"streetname":"16TH","streettype":"ST","suffdir":null,"city":"LEWISTON","state_code":"ID","zip5":"83501","latitude":"46.4076230000000000","longitude":"-117.00937400100000","publicwifi":"N","url":null,"broadband_type_id":6}
{"id":null,"anchorname":"WHITMAN ELEMENTARY SCHOOL","address":"1840  9TH AVE","bldgnbr":"1840","predir":null,"streetname":"9TH","streettype":"AVE","suffdir":null,"city":"LEWISTON","state_code":"ID","zip5":"83501","latitude":"46.4113960000000000","longitude":"-117.00592100000000","publicwifi":"N","url":null,"broadband_type_id":6}
{"id":null,"anchorname":"WHEATLANDS FIRE DISTRICT","address":"1065  HARVEST MOON LN","bldgnbr":"1065","predir":null,"streetname":"HARVEST MOON","streettype":"LN","suffdir":null,"city":"LEWISTON","state_code":"ID","zip5":"83501","latitude":"46.1988067630000000","longitude":"-116.88215637200000","publicwifi":"Y","url":null,"broadband_type_id":5}
{"id":null,"anchorname":"BEACON SEVENTH DAY ADVENTIST SCHOOL","address":"615  STEWART ST","bldgnbr":"615","predir":null,"streetname":"STEWART","streettype":"ST","suffdir":null,"city":"LEWISTON","state_code":"ID","zip5":"83501","latitude":"46.2412069990000000","longitude":"-116.89849100000000","publicwifi":"N","url":null,"broadband_type_id":6}
{"id":null,"anchorname":"LEWISTON FIRE DEPARTMENT STATION 4","address":"424  BURRELL AVE","bldgnbr":"424","predir":null,"streetname":"BURRELL","streettype":"AVE","suffdir":null,"city":"LEWISTON","state_code":"ID","zip5":"83501","latitude":"46.3770199570000000","longitude":"-117.00926408200000","publicwifi":"N","url":null,"broadband_type_id":5}
{"id":null,"anchorname":"McGHEE ELEMENTARY SCHOOL","address":"636  WARNER AVE","bldgnbr":"636","predir":null,"streetname":"WARNER","streettype":"AVE","suffdir":null,"city":"LEWISTON","state_code":"ID","zip5":"83501","latitude":"46.3841640000000000","longitude":"-117.00297600000000","publicwifi":"N","url":null,"broadband_type_id":6}
{"id":null,"anchorname":"CENTENNIAL ELEMENTARY SCHOOL","address":"815  BURRELL AVE","bldgnbr":"815","predir":null,"streetname":"BURRELL","streettype":"AVE","suffdir":null,"city":"LEWISTON","state_code":"ID","zip5":"83501","latitude":"46.3768360000000000","longitude":"-116.99069700000000","publicwifi":"N","url":null,"broadband_type_id":6}
{"id":null,"anchorname":"LEWISTON CITY LIBRARY","address":"428  THAIN RD","bldgnbr":"428","predir":null,"streetname":"THAIN","streettype":"RD","suffdir":null,"city":"LEWISTON","state_code":"ID","zip5":"83501","latitude":"46.3694160000000000","longitude":"-116.96021500000000","publicwifi":"N","url":null,"broadband_type_id":6}
{"id":null,"anchorname":"ORCHARDS ELEMENTARY SCHOOL","address":"3429  12TH ST","bldgnbr":"3429","predir":null,"streetname":"12TH","streettype":"ST","suffdir":null,"city":"LEWISTON","state_code":"ID","zip5":"83501","latitude":"46.3792730000000000","longitude":"-116.97038500000000","publicwifi":"N","url":null,"broadband_type_id":6}
{"id":null,"anchorname":"SACAJAWEA JUNIOR HIGH SCHOOL","address":"3610  12TH ST","bldgnbr":"3610","predir":null,"streetname":"12TH","streettype":"ST","suffdir":null,"city":"LEWISTON","state_code":"ID","zip5":"83501","latitude":"46.3726250000000000","longitude":"-116.97044399900000","publicwifi":"N","url":null,"broadband_type_id":6}
{"id":null,"anchorname":"CAMELOT ELEMENTARY SCHOOL","address":"1903  GRELLE AVE","bldgnbr":"1903","predir":null,"streetname":"GRELLE","streettype":"AVE","suffdir":null,"city":"LEWISTON","state_code":"ID","zip5":"83501","latitude":"46.3732400000000000","longitude":"-116.93080500000000","publicwifi":"N","url":null,"broadband_type_id":6}
{"id":null,"anchorname":"STONE ELEMENTARY SCHOOL","address":"10808 S 23000  W","bldgnbr":"10808","predir":"S","streetname":"23000","streettype":null,"suffdir":"W","city":"STONE","state_code":"ID","zip5":"83252","latitude":"42.0232610000000000","longitude":"-112.69490300000000","publicwifi":"N","url":null,"broadband_type_id":6}
{"id":null,"anchorname":"ONEIDA PIONEER MUSEUM","address":"27  BANNOCK ST","bldgnbr":"27","predir":null,"streetname":"BANNOCK","streettype":"ST","suffdir":null,"city":"MALAD CITY","state_code":"ID","zip5":"83252","latitude":"42.1876410000000000","longitude":"-112.24874100000000","publicwifi":"N","url":null,"broadband_type_id":1}
{"id":null,"anchorname":"ONEIDA COUNTY VOLUNTEER FIRE DEPT","address":"36 W COURT ST","bldgnbr":"36","predir":"W","streetname":"COURT","streettype":"ST","suffdir":null,"city":"MALAD CITY","state_code":"ID","zip5":"83252","latitude":"42.1880800000000000","longitude":"-112.24950400000000","publicwifi":"N","url":null,"broadband_type_id":5}
{"id":null,"anchorname":"ONEIDA (ALT) HIGH SCHOOL","address":"175  JENKINS AVE","bldgnbr":"175","predir":null,"streetname":"JENKINS","streettype":"AVE","suffdir":null,"city":"MALAD CITY","state_code":"ID","zip5":"83252","latitude":"42.1786910000000000","longitude":"-112.23923800000000","publicwifi":"N","url":null,"broadband_type_id":6}
{"id":null,"anchorname":"MALAD MIDDLE SCHOOL","address":"175  JENKINS AVE","bldgnbr":"175","predir":null,"streetname":"JENKINS","streettype":"AVE","suffdir":null,"city":"MALAD CITY","state_code":"ID","zip5":"83252","latitude":"42.1787330000000000","longitude":"-112.23925500100000","publicwifi":"N","url":null,"broadband_type_id":6}
{"id":null,"anchorname":"MALAD SENIOR HIGH SCHOOL","address":"181  JENKINS AVE","bldgnbr":"181","predir":null,"streetname":"JENKINS","streettype":"AVE","suffdir":null,"city":"MALAD CITY","state_code":"ID","zip5":"83252","latitude":"42.1786890000000000","longitude":"-112.23909200000000","publicwifi":"N","url":null,"broadband_type_id":6}
{"id":null,"anchorname":"MALAD ELEMENTARY SCHOOL","address":"250 W 400  N","bldgnbr":"250","predir":"W","streetname":"400","streettype":null,"suffdir":"N","city":"MALAD CITY","state_code":"ID","zip5":"83252","latitude":"42.1940330000000000","longitude":"-112.25202099900000","publicwifi":"N","url":null,"broadband_type_id":6}
{"id":null,"anchorname":"ONEIDA COUNTY SHERIFF","address":"10  COURT ST","bldgnbr":"10","predir":null,"streetname":"COURT","streettype":"ST","suffdir":null,"city":"MALAD CITY","state_code":"ID","zip5":"83252","latitude":"42.1866610000000000","longitude":"-112.24321699900000","publicwifi":"N","url":null,"broadband_type_id":4}
{"id":null,"anchorname":"ONEIDA COUNTY HOSPITAL","address":"150 N 200 W  W","bldgnbr":"150","predir":"N","streetname":"200 W","streettype":null,"suffdir":"W","city":"MALAD CITY","state_code":"ID","zip5":"83252","latitude":"42.1896320000000000","longitude":"-112.25044000000000","publicwifi":"N","url":null,"broadband_type_id":3}
{"id":null,"anchorname":"ONEIDA  COUNTY COURTHOUSE","address":"10 W COURT ST","bldgnbr":"10","predir":"W","streetname":"COURT","streettype":"ST","suffdir":null,"city":"MALAD CITY","state_code":"ID","zip5":"83252","latitude":"42.1865600000000000","longitude":"-112.24565000000000","publicwifi":"N","url":null,"broadband_type_id":1}
{"id":null,"anchorname":"HOMEDALE FIRE DEPT","address":"27 E WYOMING AVE","bldgnbr":"27","predir":"E","streetname":"WYOMING","streettype":"AVE","suffdir":null,"city":"HOMEDALE","state_code":"ID","zip5":"83628","latitude":"43.6170900000000000","longitude":"-116.93382200000000","publicwifi":"N","url":null,"broadband_type_id":5}
{"id":null,"anchorname":"OWYHEE COUNTY COURTHOUSE","address":"31 W WYOMING AVE","bldgnbr":"31","predir":"W","streetname":"WYOMING","streettype":"AVE","suffdir":null,"city":"HOMEDALE","state_code":"ID","zip5":"83628","latitude":"43.6167390000000000","longitude":"-116.93460800000000","publicwifi":"N","url":null,"broadband_type_id":1}
{"id":null,"anchorname":"HOMEDALE MIDDLE SCHOOL","address":"3437  JOHNSTONE RD","bldgnbr":"3437","predir":null,"streetname":"JOHNSTONE","streettype":"RD","suffdir":null,"city":"HOMEDALE","state_code":"ID","zip5":"83628","latitude":"43.6154700000000000","longitude":"-116.95020000000000","publicwifi":"N","url":null,"broadband_type_id":6}
{"id":null,"anchorname":"HOMEDALE HIGH SCHOOL","address":"203 E IDAHO AVE","bldgnbr":"203","predir":"E","streetname":"IDAHO","streettype":"AVE","suffdir":null,"city":"HOMEDALE","state_code":"ID","zip5":"83628","latitude":"43.6177950000000000","longitude":"-116.93056000000000","publicwifi":"N","url":null,"broadband_type_id":6}
{"id":null,"anchorname":"GULF COAST CHRISTIAN ACADEMY/ AMKIDS","address":"3685 MULDOON RD, PENSACOLA, FL 32526","bldgnbr":"3685","predir":null,"streetname":"MULDOON","streettype":"RD","suffdir":null,"city":"PENSACOLA","state_code":"FL","zip5":"32526","latitude":"30.4485819200000000","longitude":"-87.316669410000000","publicwifi":"U","url":"0","broadband_type_id":6}
{"id":null,"anchorname":"MAUI ACADEMY OF COSMETOLOGY LLC","address":"55 KAAHUMANU AVENUE, UNIT K","bldgnbr":"55","predir":null,"streetname":"KAAHUMANU","streettype":"AVE","suffdir":null,"city":"KAHULUI","state_code":"HI","zip5":"96732","latitude":"20.8907356270000000","longitude":"-156.46866254600000","publicwifi":"U","url":"www.beautyschoolnetwork.com/maui-academy-of-cosmetology","broadband_type_id":6}
{"id":null,"anchorname":"FISH FACTORY","address":"2323 COPTER RD, PENSACOLA, FL 32514","bldgnbr":"2323","predir":null,"streetname":"COPTER","streettype":"RD","suffdir":null,"city":"PENSACOLA","state_code":"FL","zip5":"32514","latitude":"30.5301910600000000","longitude":"-87.211513880000000","publicwifi":"U","url":"0","broadband_type_id":6}
{"id":null,"anchorname":"BAPTIST MANOR","address":"10095 HILLVIEW ROAD, PENSACOLA, FL, 32514","bldgnbr":"10095","predir":"0","streetname":"HILLVIEW","streettype":"ROAD","suffdir":"0","city":"PENSACOLA","state_code":"FL","zip5":"32514","latitude":"30.5394620000000000","longitude":"-87.213649000000000","publicwifi":"U","url":"0","broadband_type_id":6}
{"id":null,"anchorname":"LIZARD BUTTE DISTRICT","address":"429  MAIN ST STE 105","bldgnbr":"429","predir":null,"streetname":"MAIN ST STE 105","streettype":null,"suffdir":null,"city":"MARSING","state_code":"ID","zip5":"83639","latitude":"43.5456190000000000","longitude":"-116.80652000000000","publicwifi":"Y","url":null,"broadband_type_id":6}
{"id":null,"anchorname":"PAYETTE ALTERNATIVE HIGH","address":"20 N 12TH ST","bldgnbr":"20","predir":"N","streetname":"12TH","streettype":"ST","suffdir":null,"city":"PAYETTE","state_code":"ID","zip5":"83661","latitude":"44.0751020010000000","longitude":"-116.92888600000000","publicwifi":"N","url":null,"broadband_type_id":6}
{"id":null,"anchorname":"MURPHY-REYNOLDS-WILSON FPD","address":"20449  STATE HWY 78","bldgnbr":"20449","predir":null,"streetname":"STATE HWY 78","streettype":null,"suffdir":null,"city":"MURPHY","state_code":"ID","zip5":"83650","latitude":"43.2175960000000000","longitude":"-116.55167300000000","publicwifi":"N","url":null,"broadband_type_id":null}
{"id":null,"anchorname":"PAYETTE PD","address":"700  CENTER AVE","bldgnbr":"700","predir":null,"streetname":"CENTER","streettype":"AVE","suffdir":null,"city":"PAYETTE","state_code":"ID","zip5":"83661","latitude":"44.0748480000000000","longitude":"-116.93616500000000","publicwifi":"N","url":null,"broadband_type_id":null}
{"id":null,"anchorname":"FRUITLAND PD","address":"200 S WHITLEY DR","bldgnbr":"200","predir":"S","streetname":"WHITLEY","streettype":"DR","suffdir":null,"city":"FRUITLAND","state_code":"ID","zip5":"83619","latitude":"44.0100630000000000","longitude":"-116.92384300000000","publicwifi":"Y","url":null,"broadband_type_id":null}
{"id":null,"anchorname":"AMERICAN FALLS PD","address":"540 N OREGON TRL","bldgnbr":"540","predir":"N","streetname":"OREGON","streettype":"TRL","suffdir":null,"city":"AMERICAN FALLS","state_code":"ID","zip5":"83211","latitude":"42.7845570000000000","longitude":"-112.85735300000000","publicwifi":"N","url":null,"broadband_type_id":null}
{"id":null,"anchorname":"MARSING MIDDLE SCHOOL","address":"205  8TH AVE W","bldgnbr":"205","predir":null,"streetname":"8TH","streettype":"AVE","suffdir":"W","city":"MARSING","state_code":"ID","zip5":"83639","latitude":"43.5456000000000000","longitude":"-116.81230000000000","publicwifi":"N","url":null,"broadband_type_id":6}
{"id":null,"anchorname":"MARSING HIGH SCHOOL","address":"301  8TH AVE W","bldgnbr":"301","predir":null,"streetname":"8TH","streettype":"AVE","suffdir":"W","city":"MARSING","state_code":"ID","zip5":"83639","latitude":"43.5456000000000000","longitude":"-116.81230000000000","publicwifi":"N","url":null,"broadband_type_id":6}
{"id":null,"anchorname":"MARSING ELEMENTARY SCHOOL","address":"207  8TH AVE W","bldgnbr":"207","predir":null,"streetname":"8TH","streettype":"AVE","suffdir":"W","city":"MARSING","state_code":"ID","zip5":"83639","latitude":"43.5456000000000000","longitude":"-116.81230000000000","publicwifi":"N","url":null,"broadband_type_id":6}
{"id":null,"anchorname":"MARSING CITY/RURAL FIRE PD","address":"8139  US HWY 95","bldgnbr":"8139","predir":null,"streetname":"US HWY 95","streettype":null,"suffdir":null,"city":"MARSING","state_code":"ID","zip5":"83639","latitude":"43.4926150000000000","longitude":"-116.86184700000000","publicwifi":"N","url":null,"broadband_type_id":5}
{"id":null,"anchorname":"OWYHEE CSO COUNTY SHERIFF","address":"STAT HWY 78 MILE 30","bldgnbr":"0","predir":null,"streetname":"STAT HWY 78 MILE 30","streettype":null,"suffdir":null,"city":"MURPHY","state_code":"ID","zip5":"83650","latitude":"42.9918100000000000","longitude":"-116.70633999900000","publicwifi":"Y","url":null,"broadband_type_id":4}
{"id":null,"anchorname":"EASTERN OWYHEE COUNTY LIBRARY","address":"520  BOISE AVE","bldgnbr":"520","predir":null,"streetname":"BOISE","streettype":"AVE","suffdir":null,"city":"GRAND VIEW","state_code":"ID","zip5":"83624","latitude":"42.9236400000000000","longitude":"-116.07711000000000","publicwifi":"Y","url":null,"broadband_type_id":6}
{"id":null,"anchorname":"GRAND VIEW FIRE DEPT","address":"720  ROOSEVELT AVE","bldgnbr":"720","predir":null,"streetname":"ROOSEVELT","streettype":"AVE","suffdir":null,"city":"GRAND VIEW","state_code":"ID","zip5":"83624","latitude":"42.9849029990000000","longitude":"-116.09756800000000","publicwifi":"N","url":null,"broadband_type_id":5}
{"id":null,"anchorname":"RIMROCK JR-SR HIGH SCHOOL","address":"39678  STATE HWY 78","bldgnbr":"39678","predir":null,"streetname":"STATE HWY 78","streettype":null,"suffdir":null,"city":"BRUNEAU","state_code":"ID","zip5":"83604","latitude":"42.8806050000000000","longitude":"-115.80245400000000","publicwifi":"N","url":null,"broadband_type_id":6}
{"id":null,"anchorname":"BRUNEAU VALLEY DISTRICT LIBRARY","address":"32073  RUTH ST","bldgnbr":"32073","predir":null,"streetname":"RUTH","streettype":"ST","suffdir":null,"city":"BRUNEAU","state_code":"ID","zip5":"83604","latitude":"42.9241300000000000","longitude":"-115.76851999900000","publicwifi":"N","url":null,"broadband_type_id":6}
{"id":null,"anchorname":"BRUNEAU ELEMENTARY SCHOOL","address":"28541  BENHAM ST","bldgnbr":"28541","predir":null,"streetname":"BENHAM","streettype":"ST","suffdir":null,"city":"BRUNEAU","state_code":"ID","zip5":"83604","latitude":"42.5061000000000000","longitude":"-115.43430000000000","publicwifi":"N","url":null,"broadband_type_id":6}
{"id":null,"anchorname":"TREASURE VALLEY SEVENTH DAY ADVENTIST SCHOOL","address":"305 S 9TH ST","bldgnbr":"305","predir":"S","streetname":"9TH","streettype":"ST","suffdir":null,"city":"PAYETTE","state_code":"ID","zip5":"83661","latitude":"44.0896260000000000","longitude":"-116.71170799900000","publicwifi":"N","url":null,"broadband_type_id":6}
{"id":null,"anchorname":"RIVER OF LIFE CHRISTIAN SCHOOL","address":"800  17TH AVE N","bldgnbr":"800","predir":null,"streetname":"17TH","streettype":"AVE","suffdir":"N","city":"PAYETTE","state_code":"ID","zip5":"83661","latitude":"44.0929100000000000","longitude":"-116.93347500000000","publicwifi":"N","url":null,"broadband_type_id":6}
{"id":null,"anchorname":"PAYETTE CITY \u0026 RURAL FIRE DEPT","address":"17 S 7TH ST","bldgnbr":"17","predir":"S","streetname":"7TH","streettype":"ST","suffdir":null,"city":"PAYETTE","state_code":"ID","zip5":"83661","latitude":"44.0856930000000000","longitude":"-116.91326900000000","publicwifi":"Y","url":null,"broadband_type_id":5}
{"id":null,"anchorname":"PAYETTE  COUNTY COURTHOUSE","address":"1130  3RD AVE N","bldgnbr":"1130","predir":null,"streetname":"3RD","streettype":"AVE","suffdir":"N","city":"PAYETTE","state_code":"ID","zip5":"83661","latitude":"44.0781980000000000","longitude":"-116.93005800100000","publicwifi":"N","url":null,"broadband_type_id":1}
{"id":null,"anchorname":"PAYETTE CSO COUNTY SHERIFF","address":"1130  3RD AVE N","bldgnbr":"1130","predir":null,"streetname":"3RD","streettype":"AVE","suffdir":"N","city":"PAYETTE","state_code":"ID","zip5":"83661","latitude":"44.0781780000000000","longitude":"-116.93008400000000","publicwifi":"N","url":null,"broadband_type_id":4}
{"id":null,"anchorname":"PAYETTE PRIMARY SCHOOL","address":"1320  3RD AVE N","bldgnbr":"1320","predir":null,"streetname":"3RD","streettype":"AVE","suffdir":"N","city":"PAYETTE","state_code":"ID","zip5":"83661","latitude":"44.0781640000000000","longitude":"-116.92779700000000","publicwifi":"N","url":null,"broadband_type_id":6}
{"id":null,"anchorname":"PAYETTE PUBLIC LIBRARY","address":"24 S 10TH ST","bldgnbr":"24","predir":"S","streetname":"10TH","streettype":"ST","suffdir":null,"city":"PAYETTE","state_code":"ID","zip5":"83661","latitude":"44.0745510000000000","longitude":"-116.93188400000000","publicwifi":"N","url":null,"broadband_type_id":6}
{"id":null,"anchorname":"McCAIN MIDDLE SCHOOL","address":"400 N IOWA AVE","bldgnbr":"400","predir":"N","streetname":"IOWA","streettype":"AVE","suffdir":null,"city":"PAYETTE","state_code":"ID","zip5":"83661","latitude":"44.0795300000000000","longitude":"-116.91314599900000","publicwifi":"N","url":null,"broadband_type_id":6}
{"id":null,"anchorname":"WESTSIDE ELEMENTARY SCHOOL","address":"609 N 5TH ST","bldgnbr":"609","predir":"N","streetname":"5TH","streettype":"ST","suffdir":null,"city":"PAYETTE","state_code":"ID","zip5":"83661","latitude":"44.0805790000000000","longitude":"-116.93971900000000","publicwifi":"N","url":null,"broadband_type_id":6}
{"id":null,"anchorname":"PAYETTE HIGH SCHOOL","address":"1500  6TH AVE S","bldgnbr":"1500","predir":null,"streetname":"6TH","streettype":"AVE","suffdir":"S","city":"PAYETTE","state_code":"ID","zip5":"83661","latitude":"44.0677710000000000","longitude":"-116.92433400000000","publicwifi":"N","url":null,"broadband_type_id":6}
{"id":null,"anchorname":"FRUITLAND FIRE DEPT","address":"200 S WHITLEY DR","bldgnbr":"200","predir":"S","streetname":"WHITLEY","streettype":"DR","suffdir":null,"city":"FRUITLAND","state_code":"ID","zip5":"83619","latitude":"44.0096330000000000","longitude":"-116.92346100000000","publicwifi":"Y","url":null,"broadband_type_id":5}
{"id":null,"anchorname":"FRUITLAND ALTERNATIVE SCHOOL","address":"501 S PENNSYLVANIA AVE","bldgnbr":"501","predir":"S","streetname":"PENNSYLVANIA","streettype":"AVE","suffdir":null,"city":"FRUITLAND","state_code":"ID","zip5":"83619","latitude":"44.0069560000000000","longitude":"-116.91761100000000","publicwifi":"N","url":null,"broadband_type_id":6}
{"id":null,"anchorname":"FRUITLAND MIDDLE SCHOOL","address":"800 S PENNSYLVANIA AVE","bldgnbr":"800","predir":"S","streetname":"PENNSYLVANIA","streettype":"AVE","suffdir":null,"city":"FRUITLAND","state_code":"ID","zip5":"83619","latitude":"44.0060430000000000","longitude":"-116.91800300000000","publicwifi":"N","url":null,"broadband_type_id":6}
{"id":null,"anchorname":"FRUITLAND HIGH SCHOOL","address":"501 S IOWA AVE","bldgnbr":"501","predir":"S","streetname":"IOWA","streettype":"AVE","suffdir":null,"city":"FRUITLAND","state_code":"ID","zip5":"83619","latitude":"44.0088600000000000","longitude":"-116.91997000000000","publicwifi":"N","url":null,"broadband_type_id":6}
{"id":null,"anchorname":"FRUITLAND ELEMENTARY SCHOOL","address":"1100 S PENNSYLVANIA AVE","bldgnbr":"1100","predir":"S","streetname":"PENNSYLVANIA","streettype":"AVE","suffdir":null,"city":"FRUITLAND","state_code":"ID","zip5":"83619","latitude":"44.0069560000000000","longitude":"-116.91761100000000","publicwifi":"N","url":null,"broadband_type_id":6}
{"id":null,"anchorname":"NEW PLYMOUTH MIDDLE SCHOOL","address":"4400 SW 2ND AVE","bldgnbr":"4400","predir":"SW","streetname":"2ND","streettype":"AVE","suffdir":null,"city":"NEW PLYMOUTH","state_code":"ID","zip5":"83655","latitude":"43.9600250000000000","longitude":"-116.82870399900000","publicwifi":"N","url":null,"broadband_type_id":6}
{"id":null,"anchorname":"NEW PLYMOUTH FIRE DEPT","address":"301 N PLYMOUTH AVE","bldgnbr":"301","predir":"N","streetname":"PLYMOUTH","streettype":"AVE","suffdir":null,"city":"NEW PLYMOUTH","state_code":"ID","zip5":"83655","latitude":"43.9735610000000000","longitude":"-116.82010100000000","publicwifi":"Y","url":null,"broadband_type_id":5}
{"id":null,"anchorname":"NEW PLYMOUTH HIGH SCHOOL","address":"207  PLYMOUTH AVE","bldgnbr":"207","predir":null,"streetname":"PLYMOUTH","streettype":"AVE","suffdir":null,"city":"NEW PLYMOUTH","state_code":"ID","zip5":"83655","latitude":"43.9716580000000000","longitude":"-116.81982600000000","publicwifi":"N","url":null,"broadband_type_id":6}
{"id":null,"anchorname":"ROCKLAND RURAL FIRE DIST","address":"135 MAIN ST","bldgnbr":"135","predir":null,"streetname":"MAIN","streettype":"ST","suffdir":null,"city":"ROCKLAND","state_code":"ID","zip5":"83271","latitude":"42.5735100010000000","longitude":"-112.87547800000000","publicwifi":"N","url":null,"broadband_type_id":5}
{"id":null,"anchorname":"ROCKLAND PUBLIC SCHOOL","address":"321 E CENTER","bldgnbr":"321","predir":"E","streetname":"CENTER","streettype":null,"suffdir":null,"city":"ROCKLAND","state_code":"ID","zip5":"83271","latitude":"42.5747200000000000","longitude":"-112.87292500000000","publicwifi":"N","url":null,"broadband_type_id":6}
{"id":null,"anchorname":"AMERICAN FALLS HIGH SCHOOL","address":"2966 S FRONTAGE RD","bldgnbr":"2966","predir":"S","streetname":"FRONTAGE","streettype":"RD","suffdir":null,"city":"AMERICAN FALLS","state_code":"ID","zip5":"83211","latitude":"42.7661320000000000","longitude":"-112.86312900000000","publicwifi":"N","url":null,"broadband_type_id":6}
{"id":null,"anchorname":"WILLIAM THOMAS MIDDLE SCHOOL","address":"355  BANNOCK AVE","bldgnbr":"355","predir":null,"streetname":"BANNOCK","streettype":"AVE","suffdir":null,"city":"AMERICAN FALLS","state_code":"ID","zip5":"83211","latitude":"42.7865120000000000","longitude":"-112.84808600000000","publicwifi":"N","url":null,"broadband_type_id":6}
{"id":null,"anchorname":"FORTIS INSTITUTE-PENSACOLA","address":"4081 E OLIVE RD STE B, PENSACOLA, FL 32514","bldgnbr":"4081","predir":null,"streetname":"OLIVE","streettype":"RD","suffdir":null,"city":"PENSACOLA","state_code":"FL","zip5":"32514","latitude":"30.5100118800000000","longitude":"-87.183643790000000","publicwifi":"U","url":"0","broadband_type_id":6}
{"id":null,"anchorname":"TONI AND GUY HAIR ACADEMY","address":"5244 W OVERLAND RD","bldgnbr":"5244","predir":"W","streetname":"OVERLAND","streettype":"RD","suffdir":null,"city":"BOISE","state_code":"ID","zip5":"83705","latitude":"43.5898030000000000","longitude":"-116.24654700000000","publicwifi":"N","url":null,"broadband_type_id":6}
{"id":null,"anchorname":"CATALDO FOREST PD - IDAHO DEPT OF LANDS","address":"80  HILLTOP OVERPASS RD","bldgnbr":"80","predir":null,"streetname":"HILLTOP OVERPASS","streettype":"RD","suffdir":null,"city":"KINGSTON","state_code":"ID","zip5":"83839","latitude":"47.6158940000000000","longitude":"-116.19191000000000","publicwifi":"N","url":null,"broadband_type_id":2}
{"id":null,"anchorname":"SILVER VALLEY CHRISTIAN ACADEMY","address":"514 W BROWN","bldgnbr":"514","predir":"W","streetname":"BROWN","streettype":null,"suffdir":null,"city":"KELLOGG","state_code":"ID","zip5":"83837","latitude":"47.5428430000000000","longitude":"-116.12765500000000","publicwifi":"N","url":null,"broadband_type_id":6}
{"id":null,"anchorname":"SANDPOINT JUNIOR ACADEMY","address":"2255  2255 PINE STREET ST","bldgnbr":"2255","predir":null,"streetname":"2255 PINE STREET","streettype":"ST","suffdir":null,"city":"SANDPOINT","state_code":"ID","zip5":"83864","latitude":"48.2730650000000000","longitude":"-116.57903800100000","publicwifi":"Y","url":null,"broadband_type_id":6}
{"id":null,"anchorname":"PINEHURST BRANCH LIB","address":"107  MAIN ST","bldgnbr":"107","predir":null,"streetname":"MAIN","streettype":"ST","suffdir":null,"city":"PINEHURST","state_code":"ID","zip5":"83850","latitude":"47.5312060000000000","longitude":"-116.26836000000000","publicwifi":"Y","url":null,"broadband_type_id":null}
{"id":null,"anchorname":"SHOSHONE CO FPD PINEHURST STATION","address":"10 N DIVISION ST","bldgnbr":"10","predir":"N","streetname":"DIVISION","streettype":"ST","suffdir":null,"city":"PINEHURST","state_code":"ID","zip5":"83850","latitude":"47.5380230000000000","longitude":"-116.23412400000000","publicwifi":"N","url":null,"broadband_type_id":null}
{"id":null,"anchorname":"KELLOGG PD","address":"1007  MCKINLEY AVE","bldgnbr":"1007","predir":null,"streetname":"MCKINLEY","streettype":"AVE","suffdir":null,"city":"KELLOGG","state_code":"ID","zip5":"83837","latitude":"47.5401610000000000","longitude":"-116.14536300000000","publicwifi":"Y","url":null,"broadband_type_id":null}
{"id":null,"anchorname":"OSBURN PD","address":"921 E MULLAN AVE","bldgnbr":"921","predir":"E","streetname":"MULLAN","streettype":"AVE","suffdir":null,"city":"OSBURN","state_code":"ID","zip5":"83849","latitude":"47.5055430000000000","longitude":"-115.99836000100000","publicwifi":"N","url":null,"broadband_type_id":null}
{"id":null,"anchorname":"PRICHARD/MURRAY VOL FD","address":"21109 COEUR D'ALENE RIVER RD","bldgnbr":"21109","predir":null,"streetname":"COEUR D'ALENE RIVER","streettype":"RD","suffdir":null,"city":"WALLACE","state_code":"ID","zip5":"83873","latitude":"47.4766690000000000","longitude":"-115.93326600000000","publicwifi":"N","url":null,"broadband_type_id":null}
{"id":null,"anchorname":"A F INTERMEDIATE SCHOOL","address":"254  TAYLOR ST","bldgnbr":"254","predir":null,"streetname":"TAYLOR","streettype":"ST","suffdir":null,"city":"AMERICAN FALLS","state_code":"ID","zip5":"83211","latitude":"42.7797690000000000","longitude":"-112.85568700100000","publicwifi":"N","url":null,"broadband_type_id":6}
{"id":null,"anchorname":"POWER  COUNTY COURTHOUSE","address":"543 BANNOCK","bldgnbr":"543","predir":null,"streetname":"BANNOCK","streettype":null,"suffdir":null,"city":"AMERICAN FALLS","state_code":"ID","zip5":"83211","latitude":"42.7838300000000000","longitude":"-112.84947000000000","publicwifi":"N","url":null,"broadband_type_id":1}
{"id":null,"anchorname":"HILLCREST ELEMENTARY SCHOOL","address":"1045  BENNETT ST","bldgnbr":"1045","predir":null,"streetname":"BENNETT","streettype":"ST","suffdir":null,"city":"AMERICAN FALLS","state_code":"ID","zip5":"83211","latitude":"42.7759080000000000","longitude":"-112.85537800000000","publicwifi":"N","url":null,"broadband_type_id":6}
{"id":null,"anchorname":"POWER CSO COUNTY SHERIFF","address":"550  GIFFORD ST","bldgnbr":"550","predir":null,"streetname":"GIFFORD","streettype":"ST","suffdir":null,"city":"AMERICAN FALLS","state_code":"ID","zip5":"83211","latitude":"42.7764820000000000","longitude":"-112.93444799900000","publicwifi":"N","url":null,"broadband_type_id":4}
