{"id":null,"anchorname":"DEWEY ELEM ACADEMY OF FINE ARTS","address":"5415 SOUTH UNION AVE","bldgnbr":"5415","predir":"S","streetname":"UNION","streettype":"AVE","suffdir":null,"city":"CHICAGO","state_code":"IL","zip5":"60609","latitude":"41.7957510000000000","longitude":"-87.642668000000000","publicwifi":"U","url":null,"broadband_type_id":6}
{"id":null,"anchorname":"ILLINOIS DEPT OF HUMAN SERVICES","address":"1110 NORTH ALLEN ST","bldgnbr":"1110","predir":"N","streetname":"ALLEN","streettype":"ST","suffdir":null,"city":"ROBINSON","state_code":"IL","zip5":"62454","latitude":"39.0131890000000000","longitude":"-87.750077000000000","publicwifi":"U","url":null,"broadband_type_id":6}
{"id":null,"anchorname":"ILLINOIS SECRETARY OF STATE","address":"1321 EAST MAIN ST","bldgnbr":"1321","predir":"E","streetname":"MAIN","streettype":"ST","suffdir":null,"city":"ROBINSON","state_code":"IL","zip5":"62454","latitude":"39.0058950000000000","longitude":"-87.725452000000000","publicwifi":"U","url":null,"broadband_type_id":6}
{"id":null,"anchorname":"PLAMONDON ELEM SCHOOL","address":"2642 WEST 15TH PLACE","bldgnbr":"2642","predir":"W","streetname":"15TH","streettype":"PL","suffdir":null,"city":"CHICAGO","state_code":"IL","zip5":"60608","latitude":"41.8611360000000000","longitude":"-87.692543000000000","publicwifi":"U","url":null,"broadband_type_id":6}
{"id":null,"anchorname":"MOUNT SINAI HOSPITAL MEDICAL CENTER","address":"CALIFORNIA AT 15TH AVENUE","bldgnbr":"N/A","predir":null,"streetname":"CALIFORNIA AT 15TH","streettype":"AVE","suffdir":null,"city":"CHICAGO","state_code":"IL","zip5":"60608","latitude":"41.8601320000000000","longitude":"-87.695699000000000","publicwifi":"U","url":null,"broadband_type_id":3}
{"id":null,"anchorname":"YORK ALTERNATIVE HIGH SCHOOL","address":"2700 SOUTH CALIFORNIA AVE","bldgnbr":"2700","predir":"S","streetname":"CALIFORNIA","streettype":"AVE","suffdir":null,"city":"CHICAGO","state_code":"IL","zip5":"60608","latitude":"41.8426020000000000","longitude":"-87.695278000000000","publicwifi":"U","url":null,"broadband_type_id":6}
{"id":null,"anchorname":"ILLINOIS STATE POLICE  NETWORK (LOC)","address":"2650 SOUTH CALIFORNIA AVENUE","bldgnbr":"2650","predir":"S","streetname":"CALIFORNIA","streettype":"AVE","suffdir":null,"city":"CHICAGO","state_code":"IL","zip5":"60606","latitude":"41.8435910000000000","longitude":"-87.695241000000000","publicwifi":"U","url":null,"broadband_type_id":4}
{"id":null,"anchorname":"HALES FRANCISCAN HIGH SCHOOL","address":"4930 S COTTAGE GROVE AVE","bldgnbr":"4930","predir":"\u003cNull\u003e","streetname":"COTTAGE GRV","streettype":null,"suffdir":null,"city":"CHICAGO","state_code":"IL","zip5":"60615","latitude":"41.8052693330000000","longitude":"-87.606508026000000","publicwifi":"U","url":null,"broadband_type_id":6}
{"id":null,"anchorname":"DEVRY UNIVERSITY - CHICAGO LIBRARY","address":"3300 NORTH CAMPBELLA AVENUE","bldgnbr":"3300","predir":"N","streetname":"CAMPBELLA","streettype":"AVE","suffdir":null,"city":"CHICAGO","state_code":"IL","zip5":"60618","latitude":"41.9425390000000000","longitude":"-87.690717000000000","publicwifi":"Y","url":"http://www.chi.devry.edu/library.html","broadband_type_id":6}
{"id":null,"anchorname":"LANE TECHNICAL HIGH SCHOOL","address":"2501 WEST ADDISON ST","bldgnbr":"2501","predir":"W","streetname":"ADDISON","streettype":"ST","suffdir":null,"city":"CHICAGO","state_code":"IL","zip5":"60618","latitude":"41.9466720000000000","longitude":"-87.694142000000000","publicwifi":"U","url":null,"broadband_type_id":6}
{"id":null,"anchorname":"TILDEN CAREER COMMUNTY ACADEMY HS","address":"4747 SOUTH UNION AVE","bldgnbr":"4747","predir":"S","streetname":"UNION","streettype":"AVE","suffdir":null,"city":"CHICAGO","state_code":"IL","zip5":"60609","latitude":"41.8078120000000000","longitude":"-87.642982000000000","publicwifi":"U","url":null,"broadband_type_id":3}
{"id":null,"anchorname":"HUTSONVILLE TOWNSHIP FIRE PROTECTION DISTRICT","address":"406 E CHERRY ST","bldgnbr":"406","predir":"E","streetname":"CHERRY","streettype":"ST","suffdir":null,"city":"HUTSONVILLE","state_code":"IL","zip5":"62433","latitude":"39.1085800000000000","longitude":"-87.656513000000000","publicwifi":"U","url":null,"broadband_type_id":5}
{"id":null,"anchorname":"PRAIRIE-LICKING FIRE PROTECTION DISTRICT","address":"700TH 2000TH N","bldgnbr":"N/A","predir":null,"streetname":"2000TH","streettype":null,"suffdir":"N","city":"ANNAPOLIS","state_code":"IL","zip5":"62413","latitude":"39.1448970000000000","longitude":"-87.816284000000000","publicwifi":"U","url":null,"broadband_type_id":5}
{"id":null,"anchorname":"ROBINSON PUBLIC LIBRARY DISTRICT","address":"110 EAST MAIN ST","bldgnbr":"110","predir":"E","streetname":"MAIN","streettype":"ST","suffdir":null,"city":"OBLONG","state_code":"IL","zip5":"62449","latitude":"39.0018930000000000","longitude":"-87.909030000000000","publicwifi":"Y","url":"http://www.robinson.lib.il.us/","broadband_type_id":6}
{"id":null,"anchorname":"OBLONG FIRE DEPARTMENT","address":"111 WEST MAIN ST","bldgnbr":"111","predir":"W","streetname":"MAIN","streettype":"ST","suffdir":null,"city":"OBLONG","state_code":"IL","zip5":"62449","latitude":"39.0017830000000000","longitude":"-87.909025000000000","publicwifi":"U","url":null,"broadband_type_id":5}
{"id":null,"anchorname":"OBLONG POLICE DEPARTMENT","address":"202 SOUTH RANGE ST","bldgnbr":"202","predir":"S","streetname":"RANGE","streettype":"ST","suffdir":null,"city":"OBLONG","state_code":"IL","zip5":"62449","latitude":"39.0008060000000000","longitude":"-87.908928000000000","publicwifi":"U","url":null,"broadband_type_id":4}
{"id":null,"anchorname":"OBLONG ELEM SCHOOL","address":"600 WEST MAIN ST","bldgnbr":"600","predir":"W","streetname":"MAIN","streettype":"ST","suffdir":null,"city":"OBLONG","state_code":"IL","zip5":"62449","latitude":"39.0017340000000000","longitude":"-87.914160000000000","publicwifi":"U","url":null,"broadband_type_id":6}
{"id":null,"anchorname":"OBLONG HIGH SCHOOL","address":"700 SOUTH RANGE ST","bldgnbr":"700","predir":"S","streetname":"RANGE","streettype":"ST","suffdir":null,"city":"OBLONG","state_code":"IL","zip5":"62449","latitude":"38.9956870000000000","longitude":"-87.908847000000000","publicwifi":"U","url":null,"broadband_type_id":6}
{"id":null,"anchorname":"RIDGEVIEW CARE CENTER","address":"413 RIDGE LANE","bldgnbr":"413","predir":null,"streetname":"RIDGE","streettype":"LN","suffdir":null,"city":"OBLONG","state_code":"IL","zip5":"62449","latitude":"38.9950620000000000","longitude":"-87.907747000000000","publicwifi":"U","url":null,"broadband_type_id":3}
{"id":null,"anchorname":"COTILLION RIDGE NURSING CENTER","address":"600 EAST ROBINWOOD DRIVE","bldgnbr":"600","predir":"E","streetname":"ROBINWOOD","streettype":"DR","suffdir":null,"city":"ROBINSON","state_code":"IL","zip5":"62454","latitude":"39.0154970000000000","longitude":"-87.732491000000000","publicwifi":"U","url":null,"broadband_type_id":3}
{"id":null,"anchorname":"ROBINSON PUBLIC LIBRARY DISTRICT","address":"606 NORTH JEFFERSON","bldgnbr":"606","predir":"N","streetname":"JEFFERSON","streettype":null,"suffdir":null,"city":"ROBINSON","state_code":"IL","zip5":"62454","latitude":"39.0099090000000000","longitude":"-87.738148000000000","publicwifi":"Y","url":"http://www.robinson.lib.il.us/","broadband_type_id":6}
{"id":null,"anchorname":"ROBINSON HIGH SCHOOL","address":"2000 NORTH CROSS ST","bldgnbr":"2000","predir":"N","streetname":"CROSS","streettype":"ST","suffdir":null,"city":"ROBINSON","state_code":"IL","zip5":"62454","latitude":"39.0177630000000000","longitude":"-87.738749000000000","publicwifi":"U","url":null,"broadband_type_id":6}
{"id":null,"anchorname":"NUTTALL MIDDLE SCHOOL","address":"400 WEST RUSTIC ST","bldgnbr":"400","predir":"W","streetname":"RUSTIC","streettype":"ST","suffdir":null,"city":"ROBINSON","state_code":"IL","zip5":"62454","latitude":"39.0195470000000000","longitude":"-87.742199000000000","publicwifi":"U","url":null,"broadband_type_id":6}
{"id":null,"anchorname":"CRAWFORD MEMORIAL HOSPITAL","address":"1000 NORTH ALLEN AVE","bldgnbr":"1000","predir":"N","streetname":"ALLEN","streettype":"AVE","suffdir":null,"city":"ROBINSON","state_code":"IL","zip5":"62454","latitude":"39.0126480000000000","longitude":"-87.750068000000000","publicwifi":"Y","url":null,"broadband_type_id":3}
{"id":null,"anchorname":"CRAWFORD MEMORIAL HOSPITAL","address":"1000 NORTH ALLEN ST","bldgnbr":"1000","predir":"\u003cNull\u003e","streetname":"NORTH ALLEN ST","streettype":null,"suffdir":null,"city":"ROBINSON","state_code":"IL","zip5":"62454","latitude":"39.0131100000000000","longitude":"-87.749222000000000","publicwifi":"U","url":null,"broadband_type_id":3}
{"id":null,"anchorname":"WASHINGTON ELEM SCHOOL","address":"507 WEST CONDIT ST","bldgnbr":"507","predir":null,"streetname":"CONDIT","streettype":"ST","suffdir":null,"city":"ROBINSON","state_code":"IL","zip5":"62454","latitude":"39.0112680000000000","longitude":"-87.743845000000000","publicwifi":"U","url":null,"broadband_type_id":6}
{"id":null,"anchorname":"ROBINSON FIRE DEPARTMENT","address":"400 SOUTH JACKSON ST","bldgnbr":"400","predir":"S","streetname":"JACKSON","streettype":"ST","suffdir":null,"city":"ROBINSON","state_code":"IL","zip5":"62454","latitude":"39.0031140000000000","longitude":"-87.732136000000000","publicwifi":"U","url":null,"broadband_type_id":5}
{"id":null,"anchorname":"SAFE SCHOOL ROE12 CRAWFORD CNTY","address":"206 SOUTH JACKSON ST","bldgnbr":"206","predir":"\u003cNull\u003e","streetname":"SOUTH JACKSON ST","streettype":null,"suffdir":null,"city":"ROBINSON","state_code":"IL","zip5":"62454","latitude":"39.0049120000000000","longitude":"-87.732162000000000","publicwifi":"U","url":null,"broadband_type_id":6}
{"id":null,"anchorname":"FLORIDA FISH AND WILDLIFE CONSERVATION COMMISSION EUSTIS FISHERIES RESEARCH LAB","address":"601 W WOODWARD AVE, EUSTIS, FL 32726","bldgnbr":"601","predir":null,"streetname":"WOODWARD","streettype":"AVE","suffdir":null,"city":"EUSTIS","state_code":"FL","zip5":"32726","latitude":"28.8474151900000000","longitude":"-81.691809980000000","publicwifi":"Y","url":"0","broadband_type_id":6}
{"id":null,"anchorname":"LAKE COUNTY CIRCUIT AND COUNTY COURTS - NORTH LAKE BRANCH OFFICE","address":"902 AVENIDA CENTRAL, THE VILLAGES, FL 32159","bldgnbr":"902","predir":null,"streetname":"CENTRAL","streettype":"0","suffdir":null,"city":"THE VILLAGES","state_code":"FL","zip5":"32159","latitude":"28.9351645000000000","longitude":"-81.942757590000000","publicwifi":"U","url":"0","broadband_type_id":1}
{"id":null,"anchorname":"LTC/TWIN RIVERS EFE 500","address":"301 S CROSS STE 235","bldgnbr":"301","predir":"S","streetname":"CROSS","streettype":null,"suffdir":null,"city":"ROBINSON","state_code":"IL","zip5":"62454","latitude":"39.0040420000000000","longitude":"-87.739419000000000","publicwifi":"U","url":null,"broadband_type_id":null}
{"id":null,"anchorname":"LTC/TWIN RIVERS EFE 500","address":"301 SOUTH CROSS ST","bldgnbr":"301","predir":"\u003cNull\u003e","streetname":"SOUTH CROSS ST","streettype":null,"suffdir":null,"city":"ROBINSON","state_code":"IL","zip5":"62454","latitude":"39.0040490000000000","longitude":"-87.739444000000000","publicwifi":"U","url":null,"broadband_type_id":null}
{"id":null,"anchorname":"CRAWFORD COUNTY DEVMNT ASSN","address":"301 S CROSS ST # 203","bldgnbr":"301","predir":"S","streetname":"CROSS","streettype":"ST","suffdir":null,"city":"ROBINSON","state_code":"IL","zip5":"62454","latitude":"39.0040420000000000","longitude":"-87.739419000000000","publicwifi":"U","url":null,"broadband_type_id":1}
{"id":null,"anchorname":"SOUTH HAVEN HOME","address":"500 S. REED ST.","bldgnbr":"500","predir":"S","streetname":"REED","streettype":"ST","suffdir":null,"city":"ROBINSON","state_code":"IL","zip5":"62454","latitude":"39.0019550000000000","longitude":"-87.748296000000000","publicwifi":"U","url":null,"broadband_type_id":null}
{"id":null,"anchorname":"ILLINOIS DEPT OF TRANSPORTATION","address":"403 WEST RTE 40","bldgnbr":"403","predir":"W","streetname":"ROUTE 40","streettype":null,"suffdir":null,"city":"GREENUP","state_code":"IL","zip5":"62428","latitude":"39.2418490000000000","longitude":"-88.165591000000000","publicwifi":"U","url":null,"broadband_type_id":6}
{"id":null,"anchorname":"HEARTLAND CHRISTIAN VILLAGE","address":"101 TROWBRIDGE ROAD","bldgnbr":"101","predir":null,"streetname":"TROWBRIDGE","streettype":"RD","suffdir":null,"city":"NEOGA","state_code":"IL","zip5":"62447","latitude":"39.3203310000000000","longitude":"-88.456057000000000","publicwifi":"U","url":null,"broadband_type_id":6}
{"id":null,"anchorname":"CRAWFORD COUNTY SHERIFF'S OFFICE","address":"203 SOUTH JEFFERSON","bldgnbr":"203","predir":"S","streetname":"JEFFERSON","streettype":null,"suffdir":null,"city":"ROBINSON","state_code":"IL","zip5":"62454","latitude":"39.0049010000000000","longitude":"-87.738260000000000","publicwifi":"U","url":null,"broadband_type_id":4}
{"id":null,"anchorname":"ROBINSON POLICE DEPARTMENT","address":"300 SOUTH LINCOLN ST","bldgnbr":"300","predir":"S","streetname":"LINCOLN","streettype":"ST","suffdir":null,"city":"ROBINSON","state_code":"IL","zip5":"62454","latitude":"39.0030890000000000","longitude":"-87.737034000000000","publicwifi":"U","url":null,"broadband_type_id":4}
{"id":null,"anchorname":"LINCOLN ELEMENTARY SCHOOL","address":"301 EAST POPLAR ST","bldgnbr":"301","predir":"E","streetname":"POPLAR","streettype":"ST","suffdir":null,"city":"ROBINSON","state_code":"IL","zip5":"62454","latitude":"39.0012850000000000","longitude":"-87.737072000000000","publicwifi":"U","url":null,"broadband_type_id":6}
{"id":null,"anchorname":"PALESTINE HIGH SCHOOL","address":"102 NORTH MAIN ST","bldgnbr":"102","predir":"N","streetname":"MAIN","streettype":"ST","suffdir":null,"city":"PALESTINE","state_code":"IL","zip5":"62451","latitude":"39.0029070000000000","longitude":"-87.612707000000000","publicwifi":"U","url":null,"broadband_type_id":6}
{"id":null,"anchorname":"PALESTINE PUBLIC LIBRARY DISTRICT","address":"116 SOUTH MAIN ST","bldgnbr":"116","predir":"S","streetname":"MAIN","streettype":"ST","suffdir":null,"city":"PALESTINE","state_code":"IL","zip5":"62451","latitude":"39.0026520000000000","longitude":"-87.612715000000000","publicwifi":"Y","url":"http://www.palestinelibrary.org/","broadband_type_id":6}
{"id":null,"anchorname":"LAMOTTE FIRE PROTECTION DISTRICT","address":"104 E HARRISON ST","bldgnbr":"104","predir":"E","streetname":"HARRISON","streettype":"ST","suffdir":null,"city":"PALESTINE","state_code":"IL","zip5":"62451","latitude":"39.0008650000000000","longitude":"-87.612802000000000","publicwifi":"U","url":null,"broadband_type_id":5}
{"id":null,"anchorname":"PALESTINE FIRE DEPARTMENT","address":"107 EAST HARRISON ST","bldgnbr":"107","predir":"E","streetname":"HARRISON","streettype":"ST","suffdir":null,"city":"PALESTINE","state_code":"IL","zip5":"62451","latitude":"39.0007540000000000","longitude":"-87.612781000000000","publicwifi":"U","url":null,"broadband_type_id":5}
{"id":null,"anchorname":"PALESTINE POLICE DEPARTMENT","address":"301 SOUTH MAIN ST","bldgnbr":"301","predir":"S","streetname":"MAIN","streettype":"ST","suffdir":null,"city":"PALESTINE","state_code":"IL","zip5":"62451","latitude":"39.0007850000000000","longitude":"-87.612968000000000","publicwifi":"U","url":null,"broadband_type_id":4}
{"id":null,"anchorname":"LINCOLN TRAIL COLLEGE","address":"11220 STATE HIGHWAY 1","bldgnbr":"11220","predir":null,"streetname":"STATE HIGHWAY 1","streettype":null,"suffdir":null,"city":"ROBINSON","state_code":"IL","zip5":"62454","latitude":"39.0181960000000000","longitude":"-87.684755000000000","publicwifi":"U","url":null,"broadband_type_id":6}
{"id":null,"anchorname":"PALESTINE GRADE SCHOOL","address":"205 SOUTH WASHINGTON ST","bldgnbr":"205","predir":"S","streetname":"WASHINGTON","streettype":"ST","suffdir":null,"city":"PALESTINE","state_code":"IL","zip5":"62451","latitude":"39.0018350000000000","longitude":"-87.621613000000000","publicwifi":"U","url":null,"broadband_type_id":6}
{"id":null,"anchorname":"NEW HEBRON CHRISTIAN SCHOOL","address":"10755 E 700TH AVE","bldgnbr":"10755","predir":"\u003cNull\u003e","streetname":"700TH","streettype":null,"suffdir":null,"city":"ROBINSON","state_code":"IL","zip5":"62454","latitude":"38.9535724500000000","longitude":"-87.742554105000000","publicwifi":"U","url":null,"broadband_type_id":6}
{"id":null,"anchorname":"FLAT ROCK FIRE PROTECTION DISTRICT","address":"205 S MAIN ST","bldgnbr":"205","predir":"S","streetname":"MAIN","streettype":"ST","suffdir":null,"city":"FLAT ROCK","state_code":"IL","zip5":"62427","latitude":"38.9000560000000000","longitude":"-87.670840000000000","publicwifi":"U","url":null,"broadband_type_id":5}
{"id":null,"anchorname":"GREENUP POLICE DEPARTMENT","address":"115 EAST CUMBERLAND AVENUE","bldgnbr":"115","predir":"E","streetname":"CUMBERLAND","streettype":"AVE","suffdir":null,"city":"GREENUP","state_code":"IL","zip5":"62428","latitude":"39.2472380000000000","longitude":"-88.164283000000000","publicwifi":"U","url":null,"broadband_type_id":4}
{"id":null,"anchorname":"GREENUP FIRE DEPARTMENT","address":"115 WEST CUMBERLAND ST","bldgnbr":"115","predir":"W","streetname":"CUMBERLAND","streettype":"ST","suffdir":null,"city":"GREENUP","state_code":"IL","zip5":"62428","latitude":"39.2471200000000000","longitude":"-88.164694000000000","publicwifi":"U","url":null,"broadband_type_id":5}
{"id":null,"anchorname":"GREENUP TOWNSHIP PUBLIC LIBRARY","address":"101 NORTH FRANKLIN ST","bldgnbr":"101","predir":"N","streetname":"FRANKLIN","streettype":"ST","suffdir":null,"city":"GREENUP","state_code":"IL","zip5":"62428","latitude":"39.2466100000000000","longitude":"-88.166816000000000","publicwifi":"Y","url":"http://www.greenup.lib.il.us/","broadband_type_id":6}
{"id":null,"anchorname":"CUMBERLAND REHAB \u0026 HEALTH CARE CENTER","address":"300 NORTH MARIETTA ST","bldgnbr":"300","predir":"N","streetname":"MARIETTA","streettype":"ST","suffdir":null,"city":"GREENUP","state_code":"IL","zip5":"62428","latitude":"39.2517910000000000","longitude":"-88.156815000000000","publicwifi":"U","url":null,"broadband_type_id":3}
{"id":null,"anchorname":"SUMPTER TOWNSHIP PUBLIC LIBRARY","address":"148 COURTHOUSE SQUARE","bldgnbr":"148","predir":null,"streetname":"COURTHOUSE","streettype":"SQUARE","suffdir":null,"city":"TOLEDO","state_code":"IL","zip5":"62468","latitude":"39.2728720000000000","longitude":"-88.245537000000000","publicwifi":"N","url":null,"broadband_type_id":6}
{"id":null,"anchorname":"CUMBERLAND ELEM SCHOOL","address":"1496 ILLINOIS ROUTE 121","bldgnbr":"1496","predir":"\u003cNull\u003e","streetname":"IL ROUTE 121","streettype":null,"suffdir":null,"city":"TOLEDO","state_code":"IL","zip5":"62468","latitude":"39.2587200000000000","longitude":"-88.194507000000000","publicwifi":"U","url":null,"broadband_type_id":6}
{"id":null,"anchorname":"CUMBERLAND HIGH SCHOOL","address":"1496 ILLINOIS ROUTE 121","bldgnbr":"1496","predir":"\u003cNull\u003e","streetname":"ILLINOIS ROUTE 121","streettype":null,"suffdir":null,"city":"TOLEDO","state_code":"IL","zip5":"62468","latitude":"39.2587200000000000","longitude":"-88.194507000000000","publicwifi":"U","url":null,"broadband_type_id":6}
{"id":null,"anchorname":"CUMBERLAND MIDDLE SCHOOL","address":"1496 ILLINOIS ROUTE 121","bldgnbr":"1496","predir":"\u003cNull\u003e","streetname":"ILLINOIS ROUTE 121","streettype":null,"suffdir":null,"city":"TOLEDO","state_code":"IL","zip5":"62468","latitude":"39.2587200000000000","longitude":"-88.194507000000000","publicwifi":"U","url":null,"broadband_type_id":6}
{"id":null,"anchorname":"TOLEDO POLICE DEPARTMENT","address":"COURTHOUSE SQUARE","bldgnbr":"N/A","predir":null,"streetname":"COURTHOUSE","streettype":"SQUARE","suffdir":null,"city":"TOLEDO","state_code":"IL","zip5":"62468","latitude":"39.2723400000000000","longitude":"-88.244826000000000","publicwifi":"U","url":null,"broadband_type_id":4}
{"id":null,"anchorname":"ILLINOIS STATE POLICE  NETWORK (LOC)","address":"166 COURTHOUSE  SQUARE","bldgnbr":"166","predir":null,"streetname":"COURTHOUSE","streettype":"SQUARE","suffdir":null,"city":"TOLEDO","state_code":"IL","zip5":"62468","latitude":"39.2725330000000000","longitude":"-88.245517000000000","publicwifi":"U","url":null,"broadband_type_id":4}
{"id":null,"anchorname":"CUMBERLAND COUNTY SHERIFF'S OFFICE","address":"166 COURT HOUSE SQUARE","bldgnbr":"166","predir":null,"streetname":"COURT HOUSE","streettype":"SQUARE","suffdir":null,"city":"TOLEDO","state_code":"IL","zip5":"62468","latitude":"39.2725330000000000","longitude":"-88.245517000000000","publicwifi":"U","url":null,"broadband_type_id":4}
{"id":null,"anchorname":"NEOGA MIDDLE SCHOOL","address":"850 EAST 7TH ST","bldgnbr":"850","predir":"\u003cNull\u003e","streetname":"7th","streettype":null,"suffdir":null,"city":"NEOGA","state_code":"IL","zip5":"62447","latitude":"39.3736520000000000","longitude":"-88.457389000000000","publicwifi":"U","url":null,"broadband_type_id":6}
{"id":null,"anchorname":"NEOGA ELEM SCHOOL","address":"641 WEST 6TH ST","bldgnbr":"641","predir":"W","streetname":"6TH","streettype":"ST","suffdir":null,"city":"NEOGA","state_code":"IL","zip5":"62447","latitude":"39.3175420000000000","longitude":"-88.444411000000000","publicwifi":"U","url":null,"broadband_type_id":6}
{"id":null,"anchorname":"NEOGA FIRE DEPARTMENT","address":"578 OAK AVENUE","bldgnbr":"578","predir":null,"streetname":"OAK","streettype":"AVE","suffdir":null,"city":"NEOGA","state_code":"IL","zip5":"62447","latitude":"39.3191600000000000","longitude":"-88.452543000000000","publicwifi":"U","url":null,"broadband_type_id":5}
{"id":null,"anchorname":"NEOGA DISTRICT LIBRARY","address":"550 CHESTNUT AVENUE","bldgnbr":"550","predir":null,"streetname":"CHESTNUT","streettype":"AVE","suffdir":null,"city":"NEOGA","state_code":"IL","zip5":"62447","latitude":"39.3190320000000000","longitude":"-88.453610000000000","publicwifi":"Y","url":"http://www.neoga.lib.il.us/","broadband_type_id":6}
{"id":null,"anchorname":"NEOGA POLICE DEPARTMENT","address":"533 SOUTH CHESTNUT","bldgnbr":"533","predir":"S","streetname":"CHESTNUT","streettype":null,"suffdir":null,"city":"NEOGA","state_code":"IL","zip5":"62447","latitude":"39.3188040000000000","longitude":"-88.453717000000000","publicwifi":"U","url":null,"broadband_type_id":4}
{"id":null,"anchorname":"NEOGA SR HIGH SCHOOL","address":"790 EAST 7TH ST","bldgnbr":"790","predir":"E","streetname":"7TH","streettype":"ST","suffdir":null,"city":"NEOGA","state_code":"IL","zip5":"62447","latitude":"39.3188510000000000","longitude":"-88.442145000000000","publicwifi":"U","url":null,"broadband_type_id":6}
{"id":null,"anchorname":"NEOGA JR HIGH SCHOOL","address":"790 EAST 7TH ST","bldgnbr":"790","predir":"\u003cNull\u003e","streetname":"EAST 7TH ST","streettype":null,"suffdir":null,"city":"NEOGA","state_code":"IL","zip5":"62447","latitude":"39.3188510000000000","longitude":"-88.442145000000000","publicwifi":"U","url":null,"broadband_type_id":6}
{"id":null,"anchorname":"VILLAGES ELEMENTARY OF LADY LAKE","address":"695 ROLLING ACRES ROAD, LADY LAKE, FL 32159","bldgnbr":"695","predir":null,"streetname":"ROLLING ACRES","streettype":"RD","suffdir":null,"city":"LADY LAKE","state_code":"FL","zip5":"32159","latitude":"28.9295918800000000","longitude":"-81.935446000000000","publicwifi":"Y","url":"0","broadband_type_id":6}
{"id":null,"anchorname":"LIFESTREAM ACADEMY","address":"2020 TALLY ROAD, LEESBURG, FL 34748","bldgnbr":"2020","predir":null,"streetname":"TALLY","streettype":"RD","suffdir":null,"city":"LEESBURG","state_code":"FL","zip5":"34748","latitude":"28.8369071900000000","longitude":"-81.895401000000000","publicwifi":"U","url":"0","broadband_type_id":6}
{"id":null,"anchorname":"CENTURYLINK  326 OFFICE - LEESBURG XA CO","address":"425 N 3RD ST, LEESBURG, FL 34748","bldgnbr":"425","predir":null,"streetname":"3RD","streettype":"ST","suffdir":null,"city":"LEESBURG,","state_code":"FL","zip5":"34748","latitude":"28.8149529100000000","longitude":"-81.876515200000000","publicwifi":"Y","url":"0","broadband_type_id":6}
{"id":null,"anchorname":"CORNERSTONE CHRISTIAN ACADEMY","address":"355 N CROSS ST","bldgnbr":"355","predir":"\u003cNull\u003e","streetname":"CROSS ST","streettype":null,"suffdir":null,"city":"SYCAMORE","state_code":"IL","zip5":"60178","latitude":"41.9935624860000000","longitude":"-88.693750154000000","publicwifi":"U","url":null,"broadband_type_id":6}
{"id":null,"anchorname":"ILLINOIS DEPT OF TRANSPORTATION","address":"351 PAGE ST","bldgnbr":"351","predir":null,"streetname":"PAGE","streettype":"ST","suffdir":null,"city":"SYCAMORE","state_code":"IL","zip5":"60178","latitude":"41.9921200000000000","longitude":"-88.680506000000000","publicwifi":"U","url":null,"broadband_type_id":6}
{"id":null,"anchorname":"KEC CENTRAL EFE 170","address":"21255 MALTA RD","bldgnbr":"21255","predir":"\u003cNull\u003e","streetname":"MALTA RD","streettype":null,"suffdir":null,"city":"MALTA","state_code":"IL","zip5":"60150","latitude":"41.9383260000000000","longitude":"-88.877189000000000","publicwifi":"U","url":null,"broadband_type_id":null}
{"id":null,"anchorname":"PAUL T WRIGHT ELEM SCH","address":"5068 IL ROUTE 38","bldgnbr":"5068","predir":null,"streetname":"IL ROUTE 38","streettype":null,"suffdir":null,"city":"MALTA","state_code":"IL","zip5":"60150","latitude":"41.9345120000000000","longitude":"-88.846636000000000","publicwifi":"U","url":null,"broadband_type_id":null}
{"id":null,"anchorname":"FRONTIER","address":"112 W ELM ST","bldgnbr":"112","predir":"W","streetname":"ELM","streettype":"ST","suffdir":null,"city":"SYCAMORE","state_code":"IL","zip5":"60178","latitude":"41.9874270000000000","longitude":"-88.684997000000000","publicwifi":"U","url":null,"broadband_type_id":null}
{"id":null,"anchorname":"DAVENPORT ELEMENTARY SCHOOL","address":"123 WEST 1ST ST","bldgnbr":"123","predir":"W","streetname":"1ST","streettype":"ST","suffdir":null,"city":"GENOA","state_code":"IL","zip5":"60135","latitude":"42.0995670000000000","longitude":"-88.692684000000000","publicwifi":"U","url":null,"broadband_type_id":6}
{"id":null,"anchorname":"GENOA-KINGSTON HIGH SCHOOL","address":"980 PARK AVE","bldgnbr":"980","predir":null,"streetname":"PARK","streettype":"AVE","suffdir":null,"city":"GENOA","state_code":"IL","zip5":"60135","latitude":"42.1013600000000000","longitude":"-88.687314000000000","publicwifi":"U","url":null,"broadband_type_id":6}
{"id":null,"anchorname":"GENOA POLICE DEPARTMENT","address":"333 EAST FIRST ST","bldgnbr":"333","predir":"E","streetname":"FIRST","streettype":"ST","suffdir":null,"city":"GENOA","state_code":"IL","zip5":"60135","latitude":"42.0995770000000000","longitude":"-88.688421000000000","publicwifi":"U","url":null,"broadband_type_id":4}
{"id":null,"anchorname":"GENOA FIRE DEPARTMENT","address":"317 EAST RAILROAD AVENUE","bldgnbr":"317","predir":"E","streetname":"RAILROAD","streettype":"AVE","suffdir":null,"city":"GENOA","state_code":"IL","zip5":"60135","latitude":"42.0985950000000000","longitude":"-88.688756000000000","publicwifi":"U","url":null,"broadband_type_id":5}
{"id":null,"anchorname":"GENOA PUBLIC LIBRARY DISTRICT","address":"232 WEST MAIN ST","bldgnbr":"232","predir":"W","streetname":"MAIN","streettype":"ST","suffdir":null,"city":"GENOA","state_code":"IL","zip5":"60135","latitude":"42.0967120000000000","longitude":"-88.689495000000000","publicwifi":"Y","url":"http://www.genoalibrary.org/","broadband_type_id":6}
{"id":null,"anchorname":"KIRKLAND FIRE DEPARTMENT","address":"409 WEST MAIN ST","bldgnbr":"409","predir":"W","streetname":"MAIN","streettype":"ST","suffdir":null,"city":"KIRKLAND","state_code":"IL","zip5":"60146","latitude":"42.0927560000000000","longitude":"-88.847948000000000","publicwifi":"U","url":null,"broadband_type_id":5}
{"id":null,"anchorname":"HIAWATHA ELEMENTARY SCHOOL","address":"410 SOUTH FIRST ST","bldgnbr":"410","predir":"\u003cNull\u003e","streetname":"SOUTH FIRST ST","streettype":null,"suffdir":null,"city":"BERWYN","state_code":"IL","zip5":"60402","latitude":"42.0895680000000000","longitude":"-88.844507000000000","publicwifi":"U","url":null,"broadband_type_id":6}
{"id":null,"anchorname":"HIAWATHA JR AND SR HIGH SCHOOL","address":"410 1ST ST","bldgnbr":"410","predir":null,"streetname":"1ST","streettype":"ST","suffdir":null,"city":"KIRKLAND","state_code":"IL","zip5":"60146","latitude":"42.0909510000000000","longitude":"-88.841561000000000","publicwifi":"U","url":null,"broadband_type_id":6}
{"id":null,"anchorname":"KIRKLAND PUBLIC LIBRARY","address":"513 WEST MAIN ST","bldgnbr":"513","predir":"W","streetname":"MAIN","streettype":"ST","suffdir":null,"city":"KIRKLAND","state_code":"IL","zip5":"60146","latitude":"42.0927060000000000","longitude":"-88.850180000000000","publicwifi":"N","url":"http://kirklandpubliclibrary.org/","broadband_type_id":6}
{"id":null,"anchorname":"KIRKLAND POLICE DEPARTMENT","address":"511 WEST MAIN ST","bldgnbr":"511","predir":"W","streetname":"MAIN","streettype":"ST","suffdir":null,"city":"KIRKLAND","state_code":"IL","zip5":"60146","latitude":"42.0927160000000000","longitude":"-88.850091000000000","publicwifi":"U","url":null,"broadband_type_id":4}
{"id":null,"anchorname":"KINGSTON POLICE DEPARTMENT","address":"101 EAST RAILROAD ST","bldgnbr":"101","predir":"E","streetname":"RAILROAD","streettype":"ST","suffdir":null,"city":"KINGSTON","state_code":"IL","zip5":"60145","latitude":"42.0999460000000000","longitude":"-88.758940000000000","publicwifi":"U","url":null,"broadband_type_id":4}
{"id":null,"anchorname":"KINGSTON ELEMENTARY SCHOOL","address":"100 SCHOOL ST","bldgnbr":"100","predir":"\u003cNull\u003e","streetname":"SCHOOL ST","streettype":null,"suffdir":null,"city":"KINGSTON","state_code":"IL","zip5":"60145","latitude":"42.0989630000000000","longitude":"-88.754733000000000","publicwifi":"U","url":null,"broadband_type_id":6}
{"id":null,"anchorname":"KISHWAUKEE COLLEGE LIBRARY","address":"21193 MALTA ROAD","bldgnbr":"21193","predir":null,"streetname":"MALTA","streettype":"RD","suffdir":null,"city":"MALTA","state_code":"IL","zip5":"60150","latitude":"41.9391630000000000","longitude":"-88.877213000000000","publicwifi":"Y","url":"http://www.kishwaukeecollege.edu/student_services/library/index.php?page=89","broadband_type_id":6}
{"id":null,"anchorname":"KISHWAUKEE COLLEGE","address":"21193 MALTA ROAD","bldgnbr":"21193","predir":null,"streetname":"MALTA","streettype":"RD","suffdir":null,"city":"MALTA","state_code":"IL","zip5":"60150","latitude":"41.9391630000000000","longitude":"-88.877213000000000","publicwifi":"U","url":null,"broadband_type_id":6}
{"id":null,"anchorname":"MALTA ELEMENTARY SCHOOL","address":"507 NORTH 3RD ST","bldgnbr":"507","predir":"N","streetname":"3RD","streettype":"ST","suffdir":null,"city":"MALTA","state_code":"IL","zip5":"60150","latitude":"41.9343310000000000","longitude":"-88.862117000000000","publicwifi":"U","url":null,"broadband_type_id":6}
{"id":null,"anchorname":"MALTA FIRE DEPARTMENT","address":"308 EAST JEFFERSON ST","bldgnbr":"308","predir":"E","streetname":"JEFFERSON","streettype":"ST","suffdir":null,"city":"MALTA","state_code":"IL","zip5":"60150","latitude":"41.9309770000000000","longitude":"-88.861070000000000","publicwifi":"U","url":null,"broadband_type_id":5}
{"id":null,"anchorname":"MALTA TOWNSHIP PUBLIC LIBRARY","address":"101 SOUTH SECOND ST","bldgnbr":"101","predir":"S","streetname":"SECOND","streettype":"ST","suffdir":null,"city":"MALTA","state_code":"IL","zip5":"60150","latitude":"41.9296600000000000","longitude":"-88.863534000000000","publicwifi":"Y","url":"http://maltalibrary.org/","broadband_type_id":6}
{"id":null,"anchorname":"MALTA POLICE DEPARTMENT","address":"120 SOUTH 3RD ST","bldgnbr":"120","predir":"S","streetname":"3RD","streettype":"ST","suffdir":null,"city":"MALTA","state_code":"IL","zip5":"60150","latitude":"41.9291410000000000","longitude":"-88.862137000000000","publicwifi":"U","url":null,"broadband_type_id":4}
{"id":null,"anchorname":"NORTH GROVE ELEMENTARY SCHOOL","address":"850 REPUBLIC AVE","bldgnbr":"850","predir":"\u003cNull\u003e","streetname":"REPUBLIC AVE","streettype":null,"suffdir":null,"city":"SYCAMORE","state_code":"IL","zip5":"60178","latitude":"42.0166090000000000","longitude":"-88.661358000000000","publicwifi":"U","url":null,"broadband_type_id":6}
{"id":null,"anchorname":"SYCAMORE MIDDLE SCHOOL","address":"150 MAPLEWOOD DR","bldgnbr":"150","predir":null,"streetname":"MAPLEWOOD","streettype":"DR","suffdir":null,"city":"SYCAMORE","state_code":"IL","zip5":"60178","latitude":"42.0024220000000000","longitude":"-88.677257000000000","publicwifi":"U","url":null,"broadband_type_id":6}
{"id":null,"anchorname":"NORTH ELEMENTARY SCHOOL","address":"1680 BRICKVILLE RD","bldgnbr":"1789","predir":null,"streetname":"RAND","streettype":"RD","suffdir":null,"city":"SYCAMORE","state_code":"IL","zip5":"60178","latitude":"42.0099190000000000","longitude":"-88.693827000000000","publicwifi":"U","url":null,"broadband_type_id":6}
{"id":null,"anchorname":"BETHANY HLTH CARE \u0026 REHAB CNTR","address":"3298 RESOURCE PARKWAY","bldgnbr":"3298","predir":null,"streetname":"RESOURCE","streettype":"PKWY","suffdir":null,"city":"DEKALB","state_code":"IL","zip5":"60115","latitude":"41.9682730000000000","longitude":"-88.725370000000000","publicwifi":"U","url":null,"broadband_type_id":3}
{"id":null,"anchorname":"SYCAMORE HIGH SCHOOL","address":"555 SPARTAN TRL","bldgnbr":"555","predir":"\u003cNull\u003e","streetname":"SPARTAN","streettype":null,"suffdir":null,"city":"SYCAMORE","state_code":"IL","zip5":"60178","latitude":"41.9841740000000000","longitude":"-88.701211000000000","publicwifi":"U","url":null,"broadband_type_id":6}
{"id":null,"anchorname":"SOUTHEAST ELEM SCHOOL","address":"718 SOUTH LOCUST ST","bldgnbr":"718","predir":"S","streetname":"LOCUST","streettype":"ST","suffdir":null,"city":"SYCAMORE","state_code":"IL","zip5":"60178","latitude":"41.9816910000000000","longitude":"-88.684524000000000","publicwifi":"U","url":null,"broadband_type_id":6}
{"id":null,"anchorname":"KINDRED HOSPITAL - SYCAMORE","address":"225 EDWARDS ST","bldgnbr":"225","predir":null,"streetname":"EDWARDS","streettype":"ST","suffdir":null,"city":"SYCAMORE","state_code":"IL","zip5":"60178","latitude":"41.9821160000000000","longitude":"-88.686401000000000","publicwifi":"U","url":null,"broadband_type_id":3}
{"id":null,"anchorname":"WEST ELEM SCHOOL","address":"240 FAIR ST","bldgnbr":"240","predir":null,"streetname":"FAIR","streettype":"ST","suffdir":null,"city":"SYCAMORE","state_code":"IL","zip5":"60178","latitude":"41.9880930000000000","longitude":"-88.698087000000000","publicwifi":"U","url":null,"broadband_type_id":6}
{"id":null,"anchorname":"SYCAMORE POLICE DEPARTMENT","address":"535 DEKALB AVENUE","bldgnbr":"535","predir":null,"streetname":"DEKALB","streettype":"AVE","suffdir":null,"city":"SYCAMORE","state_code":"IL","zip5":"60178","latitude":"41.9867660000000000","longitude":"-88.692361000000000","publicwifi":"U","url":null,"broadband_type_id":4}
{"id":null,"anchorname":"ST MARY'S CATHOLIC SCHOOL","address":"222 WATERMAN ST","bldgnbr":"222","predir":"\u003cNull\u003e","streetname":"WATERMAN ST","streettype":null,"suffdir":null,"city":"SYCAMORE","state_code":"IL","zip5":"60178","latitude":"41.9837457960000000","longitude":"-88.688129039000000","publicwifi":"U","url":null,"broadband_type_id":6}
{"id":null,"anchorname":"SYCAMORE PUBLIC LIBRARY","address":"103 EAST STATE ST","bldgnbr":"103","predir":"E","streetname":"STATE","streettype":"ST","suffdir":null,"city":"SYCAMORE","state_code":"IL","zip5":"60178","latitude":"41.9884970000000000","longitude":"-88.684206000000000","publicwifi":"Y","url":"http://www.sycamorelibrary.org/","broadband_type_id":6}
{"id":null,"anchorname":"ILLINOIS STATE POLICE  NETWORK (LOC)","address":"150 NORTH MAIN ST","bldgnbr":"150","predir":"N","streetname":"MAIN","streettype":"ST","suffdir":null,"city":"SYCAMORE","state_code":"IL","zip5":"60178","latitude":"41.9894320000000000","longitude":"-88.684265000000000","publicwifi":"U","url":null,"broadband_type_id":4}
{"id":null,"anchorname":"DE KALB COUNTY SHERIFFS OFFICE","address":"150 NORTH MAIN ST","bldgnbr":"150","predir":"N","streetname":"MAIN","streettype":"ST","suffdir":null,"city":"SYCAMORE","state_code":"IL","zip5":"60178","latitude":"41.9894320000000000","longitude":"-88.684265000000000","publicwifi":"U","url":null,"broadband_type_id":4}
{"id":null,"anchorname":"ADVANCED IMAGING CENTER OF LEESBURG,LLC","address":"211 N 1ST ST, LEESBURG, FL, 34748","bldgnbr":"211","predir":"N","streetname":"1ST","streettype":"ST","suffdir":"0","city":"LEESBURG","state_code":"FL","zip5":"34748","latitude":"28.8116440000000000","longitude":"-81.875697000000000","publicwifi":"U","url":"0","broadband_type_id":6}
{"id":null,"anchorname":"LIFESTREAM BEHAVIORAL CENTER","address":"515 W. MAIN ST., LEESBURG, FL 34748","bldgnbr":"515","predir":null,"streetname":"MAIN","streettype":"ST","suffdir":null,"city":"LEESBURG","state_code":"FL","zip5":"34748","latitude":"28.8108336800000000","longitude":"-81.877820810000000","publicwifi":"U","url":null,"broadband_type_id":6}
{"id":null,"anchorname":"BETHESDA LUTHERAN HOME","address":"1761 WOODGATE DRIVE","bldgnbr":"1761","predir":null,"streetname":"WOODGATE","streettype":"DR","suffdir":null,"city":"SYCAMORE","state_code":"IL","zip5":"60178","latitude":"41.9781400000000000","longitude":"-88.712095000000000","publicwifi":"U","url":null,"broadband_type_id":6}
{"id":null,"anchorname":"OFFICE OF REHABILITATION SERVICES","address":"1330 OAKWOOD DRIVE","bldgnbr":"1330","predir":null,"streetname":"OAKWOOD","streettype":"DR","suffdir":null,"city":"DEKALB","state_code":"IL","zip5":"60115","latitude":"41.9427150000000000","longitude":"-88.735603000000000","publicwifi":"U","url":null,"broadband_type_id":6}
{"id":null,"anchorname":"ILLINOIS DEPT OF CHILDREN AND FAMILY SERVICES - NETWORK(CFS)","address":"760 PEACE ROAD","bldgnbr":"760","predir":null,"streetname":"PEACE","streettype":"RD","suffdir":null,"city":"DEKALB","state_code":"IL","zip5":"60115","latitude":"41.9351350000000000","longitude":"-88.725575000000000","publicwifi":"U","url":null,"broadband_type_id":6}
{"id":null,"anchorname":"ILLINOIS WORKNET CENTER - DEKALB","address":"1701 EAST LINCOLN HIGHWAY","bldgnbr":"1701","predir":"E","streetname":"LINCOLN","streettype":"HWY","suffdir":null,"city":"DEKALB","state_code":"IL","zip5":"60115","latitude":"41.9243560000000000","longitude":"-88.732952000000000","publicwifi":"U","url":null,"broadband_type_id":6}
{"id":null,"anchorname":"ILLINOIS THIRD PARTY NETWORKS","address":"155 NORTH THIRD  ST","bldgnbr":"155","predir":"N","streetname":"THIRD","streettype":"ST","suffdir":null,"city":"DEKALB","state_code":"IL","zip5":"60115","latitude":"41.9306070000000000","longitude":"-88.751039000000000","publicwifi":"U","url":null,"broadband_type_id":6}
{"id":null,"anchorname":"GWENDOLYN BROOKS ELEM SCH","address":"3225 SANGAMON DR","bldgnbr":"3225","predir":null,"streetname":"SANGAMON","streettype":"RD","suffdir":null,"city":"DEKALB","state_code":"IL","zip5":"60115","latitude":"41.9658560000000000","longitude":"-88.751987000000000","publicwifi":"U","url":null,"broadband_type_id":null}
{"id":null,"anchorname":"ILLINOIS DEPT OF EMPLOYMENT SECURITY","address":"1701 EAST LINCOLN  HIGHWAY","bldgnbr":"1701","predir":"E","streetname":"LINCOLN","streettype":"HWY","suffdir":null,"city":"DEKALB","state_code":"IL","zip5":"60115","latitude":"41.9243560000000000","longitude":"-88.732952000000000","publicwifi":"U","url":null,"broadband_type_id":6}
{"id":null,"anchorname":"KEC  AREA VOC CENTER","address":"315 N 6TH ST","bldgnbr":"315","predir":"N","streetname":"6TH","streettype":"ST","suffdir":null,"city":"DEKALB","state_code":"IL","zip5":"60115","latitude":"41.9308960000000000","longitude":"-88.746130000000000","publicwifi":"U","url":null,"broadband_type_id":null}
{"id":null,"anchorname":"KEC  AREA VOC CENTER","address":"315 NORTH 6TH ST","bldgnbr":"315","predir":"\u003cNull\u003e","streetname":"NORTH 6TH ST","streettype":null,"suffdir":null,"city":"DEKALB","state_code":"IL","zip5":"60115","latitude":"41.9309190000000000","longitude":"-88.746179000000000","publicwifi":"U","url":null,"broadband_type_id":null}
{"id":null,"anchorname":"KECOL","address":"901 SOUTH 4TH ST","bldgnbr":"901","predir":"\u003cNull\u003e","streetname":"SOUTH 4TH ST","streettype":null,"suffdir":null,"city":"DEKALB","state_code":"IL","zip5":"60115","latitude":"41.9199860000000000","longitude":"-88.753542000000000","publicwifi":"U","url":null,"broadband_type_id":null}
{"id":null,"anchorname":"KEN SPEARS CONSTRUCTION","address":"2759 WAGNER CT # D","bldgnbr":"2759","predir":null,"streetname":"WAGNER","streettype":"CT","suffdir":null,"city":"DEKALB","state_code":"IL","zip5":"60115","latitude":"41.8995090000000000","longitude":"-88.760496000000000","publicwifi":"U","url":null,"broadband_type_id":null}
{"id":null,"anchorname":"HINCKLEY-BIG ROCK ELEM SCH","address":"600 WEST LINCOLN HWY","bldgnbr":"600","predir":"E","streetname":"LINCOLN","streettype":"HWY","suffdir":null,"city":"HINCKLEY","state_code":"IL","zip5":"60520","latitude":"41.7688020000000000","longitude":"-88.648770000000000","publicwifi":"U","url":null,"broadband_type_id":null}
{"id":null,"anchorname":"ADVANCED FAMILY EYECARE","address":"920 W PRAIRIE DR # B","bldgnbr":"920","predir":"W","streetname":"PRAIRIE","streettype":"DR","suffdir":null,"city":"SYCAMORE","state_code":"IL","zip5":"60178","latitude":"41.9696440000000000","longitude":"-88.698793000000000","publicwifi":"U","url":null,"broadband_type_id":3}
{"id":null,"anchorname":"LITTLEJOHN ELEM SCHOOL","address":"1121 SCHOOL ST","bldgnbr":"1121","predir":null,"streetname":"SCHOOL","streettype":"ST","suffdir":null,"city":"DEKALB","state_code":"IL","zip5":"60115","latitude":"41.9384890000000000","longitude":"-88.739396000000000","publicwifi":"U","url":null,"broadband_type_id":6}
{"id":null,"anchorname":"DEKALB FIRE DEPARTMENT","address":"700 PINE ST","bldgnbr":"700","predir":null,"streetname":"PINE","streettype":"ST","suffdir":null,"city":"DEKALB","state_code":"IL","zip5":"60115","latitude":"41.9312980000000000","longitude":"-88.744314000000000","publicwifi":"U","url":null,"broadband_type_id":5}
{"id":null,"anchorname":"CLINTON ROSETTE MIDDLE SCHOOL","address":"650 NORTH 1ST ST","bldgnbr":"650","predir":"N","streetname":"1ST","streettype":"ST","suffdir":null,"city":"DEKALB","state_code":"IL","zip5":"60115","latitude":"41.9364660000000000","longitude":"-88.750968000000000","publicwifi":"U","url":null,"broadband_type_id":6}
{"id":null,"anchorname":"JEFFERSON ELEM SCHOOL","address":"211 MCCORMICK DR","bldgnbr":"211","predir":null,"streetname":"MCCORMICK","streettype":"DR","suffdir":null,"city":"DEKALB","state_code":"IL","zip5":"60115","latitude":"41.9484330000000000","longitude":"-88.750383000000000","publicwifi":"U","url":null,"broadband_type_id":6}
{"id":null,"anchorname":"DEKALB COUNTY REHAB \u0026 NURSING","address":"2600 N. ANNIE GLIDDEN ROAD","bldgnbr":"2600","predir":"N","streetname":"ANNIE GLIDDEN","streettype":"RD","suffdir":null,"city":"DEKALB","state_code":"IL","zip5":"60115","latitude":"41.9567750000000000","longitude":"-88.773004000000000","publicwifi":"U","url":null,"broadband_type_id":3}
{"id":null,"anchorname":"NORTHERN ILLINOIS UNIVERSITY - FOUNDERS MEMORIAL LIBRARY","address":"1425 WEST LINCOLN  HIGHWAY","bldgnbr":"1425","predir":"W","streetname":"LINCOLN","streettype":"HWY","suffdir":null,"city":"DEKALB","state_code":"IL","zip5":"60115","latitude":"41.9307870000000000","longitude":"-88.779888000000000","publicwifi":"Y","url":"http://www.ulib.niu.edu/","broadband_type_id":6}
{"id":null,"anchorname":"NORTHERN ILLINOIS UNIVERSITY","address":"1425 W. LINCOLN HWY","bldgnbr":"1425","predir":"W","streetname":"LINCOLN","streettype":"HWY","suffdir":null,"city":"DEKALB","state_code":"IL","zip5":"60115","latitude":"41.9307870000000000","longitude":"-88.779888000000000","publicwifi":"U","url":null,"broadband_type_id":6}
{"id":null,"anchorname":"DEKALB PUBLIC LIBRARY","address":"309 OAK ST","bldgnbr":"309","predir":null,"streetname":"OAK","streettype":"ST","suffdir":null,"city":"DEKALB","state_code":"IL","zip5":"60115","latitude":"41.9318470000000000","longitude":"-88.749844000000000","publicwifi":"Y","url":"http://www.dkpl.org/","broadband_type_id":6}
{"id":null,"anchorname":"ILLINOIS STATE POLICE  NETWORK (LOC)","address":"200 SOUTH 4TH ST","bldgnbr":"200","predir":"S","streetname":"4TH","streettype":"ST","suffdir":null,"city":"DEKALB","state_code":"IL","zip5":"60115","latitude":"41.9276740000000000","longitude":"-88.750960000000000","publicwifi":"U","url":null,"broadband_type_id":4}
{"id":null,"anchorname":"DE KALB POLICE DEPARTMENT","address":"200 SOUTH 4TH  ST","bldgnbr":"200","predir":"S","streetname":"4TH","streettype":"ST","suffdir":null,"city":"DE KALB","state_code":"IL","zip5":"60115","latitude":"41.9276740000000000","longitude":"-88.750960000000000","publicwifi":"U","url":null,"broadband_type_id":4}
{"id":null,"anchorname":"DEKALB POLICE DEPARTMENT","address":"200 SOUTH 4TH ST","bldgnbr":"200","predir":"S","streetname":"4TH","streettype":"ST","suffdir":null,"city":"DEKALB","state_code":"IL","zip5":"60115","latitude":"41.9276740000000000","longitude":"-88.750960000000000","publicwifi":"U","url":null,"broadband_type_id":4}
{"id":null,"anchorname":"PINE ACRES CARE REHAB \u0026 LIVING CTR.","address":"1212 SOUTH SECOND ST","bldgnbr":"1212","predir":"S","streetname":"SECOND","streettype":null,"suffdir":null,"city":"DEKALB","state_code":"IL","zip5":"60115","latitude":"41.9155600000000000","longitude":"-88.756763000000000","publicwifi":"U","url":null,"broadband_type_id":3}
{"id":null,"anchorname":"LINCOLN ELEMENTARY SCHOOL","address":"220 EAST SUNSET PLACE","bldgnbr":"220","predir":"E","streetname":"SUNSET","streettype":"PL","suffdir":null,"city":"DEKALB","state_code":"IL","zip5":"60115","latitude":"41.9182130000000000","longitude":"-88.755587000000000","publicwifi":"U","url":null,"broadband_type_id":6}
{"id":null,"anchorname":"DE KALB HIGH SCHOOL","address":"1515 SOUTH 4TH ST","bldgnbr":"1515","predir":"S","streetname":"4TH","streettype":"ST","suffdir":null,"city":"DEKALB","state_code":"IL","zip5":"60115","latitude":"41.9121870000000000","longitude":"-88.753555000000000","publicwifi":"U","url":null,"broadband_type_id":6}
{"id":null,"anchorname":"TYLER ELEMENTARY SCHOOL","address":"1021 ALDEN CIRCLE DR","bldgnbr":"1021","predir":"\u003cNull\u003e","streetname":"ALDEN CIRCLE","streettype":null,"suffdir":null,"city":"DE KALB","state_code":"IL","zip5":"60115","latitude":"41.9197630000000000","longitude":"-88.765856000000000","publicwifi":"U","url":null,"broadband_type_id":6}
{"id":null,"anchorname":"ST MARY SCHOOL","address":"210 GURLER RD","bldgnbr":"210","predir":"\u003cNull\u003e","streetname":"GURLER RD","streettype":null,"suffdir":null,"city":"DEKALB","state_code":"IL","zip5":"60115","latitude":"41.8927542340000000","longitude":"-88.762839375000000","publicwifi":"U","url":null,"broadband_type_id":6}
{"id":null,"anchorname":"CHESEBRO ELEM SCHOOL","address":"900 EAST GARDEN ST","bldgnbr":"900","predir":null,"streetname":"GARDEN","streettype":"ST","suffdir":null,"city":"DEKALB","state_code":"IL","zip5":"60115","latitude":"41.9234560000000000","longitude":"-88.745627000000000","publicwifi":"U","url":null,"broadband_type_id":6}
{"id":null,"anchorname":"HUNTLEY MIDDLE SCHOOL","address":"821 SOUTH 7TH ST","bldgnbr":"821","predir":"S","streetname":"7TH","streettype":"ST","suffdir":null,"city":"DEKALB","state_code":"IL","zip5":"60115","latitude":"41.9210230000000000","longitude":"-88.748687000000000","publicwifi":"U","url":null,"broadband_type_id":6}
{"id":null,"anchorname":"CORTLAND FIRE DEPARTMENT","address":"4500 NORTH ST","bldgnbr":"4500","predir":"N","streetname":"STREET","streettype":null,"suffdir":null,"city":"CORTLAND","state_code":"IL","zip5":"60112","latitude":"41.9221210000000000","longitude":"-88.690193000000000","publicwifi":"U","url":null,"broadband_type_id":5}
{"id":null,"anchorname":"CORTLAND COMMUNITY LIBRARY","address":"63 SOUTH SOMONAUK ROAD","bldgnbr":"63","predir":"S","streetname":"SOMONAUK","streettype":"RD","suffdir":null,"city":"CORTLAND","state_code":"IL","zip5":"60112","latitude":"41.9205300000000000","longitude":"-88.688777000000000","publicwifi":"Y","url":"http://www.cortlandlibrary.com/","broadband_type_id":6}
{"id":null,"anchorname":"CORTLAND ELEMENTARY SCHOOL","address":"370 EAST LEXINGTON AVE","bldgnbr":"4418","predir":null,"streetname":"MAPLE","streettype":null,"suffdir":null,"city":"CORTLAND","state_code":"IL","zip5":"60112","latitude":"41.9183500000000000","longitude":"-88.690720000000000","publicwifi":"U","url":null,"broadband_type_id":6}
{"id":null,"anchorname":"MAPLE PARK FIRE DEPARTMENT","address":"305 NORTH COUNTY LINE ROAD","bldgnbr":"305","predir":"N","streetname":"COUNTY LINE","streettype":"RD","suffdir":null,"city":"MAPLE PARK","state_code":"IL","zip5":"60151","latitude":"41.9060000000000000","longitude":"-88.601417000000000","publicwifi":"U","url":null,"broadband_type_id":5}
{"id":null,"anchorname":"HINCKLEY POLICE DEPARTMENT","address":"700 JAMES ST","bldgnbr":"700","predir":null,"streetname":"JAMES","streettype":"ST","suffdir":null,"city":"HINCKLEY","state_code":"IL","zip5":"60520","latitude":"41.7672130000000000","longitude":"-88.651436000000000","publicwifi":"U","url":null,"broadband_type_id":4}
{"id":null,"anchorname":"ADVANCED PHYSICAL THERAPY OF LAKE COUNTY INC","address":"115 BURLEIGH BLVD., TAVARES, FL, 32778","bldgnbr":"115","predir":"0","streetname":"BURLEIGH","streettype":"BLVD.","suffdir":"0","city":"TAVARES","state_code":"FL","zip5":"32778","latitude":"28.8146720000000000","longitude":"-81.727349000000000","publicwifi":"U","url":"0","broadband_type_id":1}
{"id":null,"anchorname":"LAKE COUNTY PROBATION","address":"518 W. ALFRED STREET, Tavares, FL, 32778","bldgnbr":"518","predir":"W.","streetname":"ALFRED","streettype":"STREET","suffdir":"0","city":"Tavares","state_code":"FL","zip5":"32778","latitude":"28.8042690000000000","longitude":"-81.732519000000000","publicwifi":"Y","url":"0","broadband_type_id":1}
{"id":null,"anchorname":"LAKE COUNTY DEPARTMENT OF PUBLIC SAFETY","address":"20415 INDEPENDENCE BLVD, GROVELAND, FL, 34736","bldgnbr":"20415","predir":"0","streetname":"INDEPENDENCE","streettype":"BLVD","suffdir":"0","city":"GROVELAND","state_code":"FL","zip5":"34736","latitude":"28.6449020000000000","longitude":"-81.829078000000000","publicwifi":"Y","url":"0","broadband_type_id":4}
{"id":null,"anchorname":"INDIAN VALLEY AREA VOC CTR","address":"600 LIONS RD","bldgnbr":"600","predir":"\u003cNull\u003e","streetname":"LIONS RD","streettype":null,"suffdir":null,"city":"SANDWICH","state_code":"IL","zip5":"60548","latitude":"41.6385700000000000","longitude":"-88.611129000000000","publicwifi":"U","url":null,"broadband_type_id":null}
{"id":null,"anchorname":"INDIAN VALLEY AREA VOC CTR","address":"600 LIONS RD","bldgnbr":"600","predir":null,"streetname":"LIONS","streettype":"RD","suffdir":null,"city":"SANDWICH","state_code":"IL","zip5":"60548","latitude":"41.6385630000000000","longitude":"-88.613809000000000","publicwifi":"U","url":null,"broadband_type_id":null}
{"id":null,"anchorname":"HERMAN E DUMMER","address":"422 SOUTH WELLS ST","bldgnbr":"422","predir":"S","streetname":"WELLS","streettype":"ST","suffdir":null,"city":"SANDWICH","state_code":"IL","zip5":"60548","latitude":"41.6421570000000000","longitude":"-88.620185000000000","publicwifi":"U","url":null,"broadband_type_id":null}
{"id":null,"anchorname":"HINCKLEY-BIG ROCK HIGH SCHOOL","address":"700 EAST LINCOLN AVE","bldgnbr":"700","predir":"E","streetname":"LINCOLN","streettype":"AVE","suffdir":null,"city":"HINCKLEY","state_code":"IL","zip5":"60520","latitude":"41.7693140000000000","longitude":"-88.631423000000000","publicwifi":"U","url":null,"broadband_type_id":6}
{"id":null,"anchorname":"FLEWELLIN MEMORIAL LIBRARY","address":"108 WEST COMANCHE","bldgnbr":"108","predir":"W","streetname":"COMANCHE","streettype":null,"suffdir":null,"city":"SHABBONA","state_code":"IL","zip5":"60550","latitude":"41.7680170000000000","longitude":"-88.873390000000000","publicwifi":"Y","url":null,"broadband_type_id":6}
{"id":null,"anchorname":"SHABBONA NURSING HOME","address":"409 WEST COMANCHE ST","bldgnbr":"409","predir":"W","streetname":"COMANCHE","streettype":"ST","suffdir":null,"city":"SHABBONA","state_code":"IL","zip5":"60550","latitude":"41.7679430000000000","longitude":"-88.879409000000000","publicwifi":"U","url":null,"broadband_type_id":3}
{"id":null,"anchorname":"SHABBONA ELEM SCHOOL","address":"301 WEST CHEROKEE AVE","bldgnbr":"301","predir":"W","streetname":"CHEROKEE","streettype":"ST","suffdir":null,"city":"SHABBONA","state_code":"IL","zip5":"60550","latitude":"41.7669720000000000","longitude":"-88.873613000000000","publicwifi":"U","url":null,"broadband_type_id":6}
{"id":null,"anchorname":"INDIAN CREEK HIGH SCHOOL","address":"506 SOUTH SHABBONA RD","bldgnbr":"506","predir":null,"streetname":"SHABBONA","streettype":"RD","suffdir":null,"city":"SHABBONA","state_code":"IL","zip5":"60550","latitude":"41.7626160000000000","longitude":"-88.876992000000000","publicwifi":"U","url":null,"broadband_type_id":6}
{"id":null,"anchorname":"WATERMAN ELEM SCHOOL","address":"220 NORTH MAPLE ST","bldgnbr":"220","predir":"N","streetname":"MAPLE","streettype":"ST","suffdir":null,"city":"WATERMAN","state_code":"IL","zip5":"60556","latitude":"41.7707720000000000","longitude":"-88.771042000000000","publicwifi":"U","url":null,"broadband_type_id":6}
{"id":null,"anchorname":"CLINTON TOWNSHIP PUBLIC LIBRARY","address":"110 SOUTH ELM ST","bldgnbr":"110","predir":"S","streetname":"ELM","streettype":"ST","suffdir":null,"city":"WATERMAN","state_code":"IL","zip5":"60556","latitude":"41.7689890000000000","longitude":"-88.773794000000000","publicwifi":"Y","url":"http://watermanlibrary.com/","broadband_type_id":6}
{"id":null,"anchorname":"WATERMAN FIRE DEPARTMENT","address":"160 NORTH CEDAR ST","bldgnbr":"160","predir":"N","streetname":"CEDAR","streettype":"ST","suffdir":null,"city":"WATERMAN","state_code":"IL","zip5":"60556","latitude":"41.7696900000000000","longitude":"-88.775223000000000","publicwifi":"U","url":null,"broadband_type_id":5}
{"id":null,"anchorname":"WATERMAN POLICE DEPARTMENT","address":"215 WEST ADAMS","bldgnbr":"215","predir":"W","streetname":"ADAMS","streettype":null,"suffdir":null,"city":"WATERMAN","state_code":"IL","zip5":"60556","latitude":"41.7682140000000000","longitude":"-88.776823000000000","publicwifi":"U","url":null,"broadband_type_id":4}
{"id":null,"anchorname":"INDIAN CREEK MIDDLE SCHOOL","address":"425 SOUTH ELM ST","bldgnbr":"425","predir":"S","streetname":"ELM","streettype":null,"suffdir":null,"city":"WATERMAN","state_code":"IL","zip5":"60556","latitude":"41.7629650000000000","longitude":"-88.773835000000000","publicwifi":"N","url":null,"broadband_type_id":6}
{"id":null,"anchorname":"JAMES R WOOD ELEM SCHOOL","address":"501 WEST MARKET ST","bldgnbr":"501","predir":"\u003cNull\u003e","streetname":"WEST MARKET ST","streettype":null,"suffdir":null,"city":"SOMONAUK","state_code":"IL","zip5":"60552","latitude":"41.6337170000000000","longitude":"-88.676649000000000","publicwifi":"U","url":null,"broadband_type_id":6}
{"id":null,"anchorname":"SOMONAUK HIGH SCHOOL","address":"501 WEST MARKET ST","bldgnbr":"320","predir":null,"streetname":"MAPLE","streettype":"ST","suffdir":null,"city":"SOMONAUK","state_code":"IL","zip5":"60552","latitude":"41.6337170000000000","longitude":"-88.676649000000000","publicwifi":"U","url":null,"broadband_type_id":6}
{"id":null,"anchorname":"SOMONAUK MIDDLE SCHOOL","address":"501 WEST MARKET ST","bldgnbr":"501","predir":"\u003cNull\u003e","streetname":"WEST MARKET ST","streettype":null,"suffdir":null,"city":"SOMONAUK","state_code":"IL","zip5":"60552","latitude":"41.6337170000000000","longitude":"-88.676649000000000","publicwifi":"U","url":null,"broadband_type_id":6}
{"id":null,"anchorname":"SOMONAUK POLICE DEPARTMENT","address":"140 WEST DEKALB ST","bldgnbr":"140","predir":"W","streetname":"DEKALB","streettype":"ST","suffdir":null,"city":"SOMONAUK","state_code":"IL","zip5":"60552","latitude":"41.6328270000000000","longitude":"-88.683600000000000","publicwifi":"U","url":null,"broadband_type_id":4}
{"id":null,"anchorname":"SOMONAUK FIRE DEPARTMENT","address":"145 WEST DEKALB ST","bldgnbr":"145","predir":"W","streetname":"DEKALB","streettype":"ST","suffdir":null,"city":"SOMONAUK","state_code":"IL","zip5":"60552","latitude":"41.6327720000000000","longitude":"-88.683750000000000","publicwifi":"U","url":null,"broadband_type_id":5}
{"id":null,"anchorname":"SOMONAUK PUBLIC LIBRARY DISTRICT","address":"700 EAST LASALLE ST","bldgnbr":"700","predir":"E","streetname":"LASALLE","streettype":"ST","suffdir":null,"city":"SOMONAUK","state_code":"IL","zip5":"60552","latitude":"41.6307460000000000","longitude":"-88.694791000000000","publicwifi":"Y","url":"http://www.somonauklibrary.org/","broadband_type_id":6}
{"id":null,"anchorname":"PRAIRIE VIEW ELEM SCHOOL","address":"1201 CASTLE ST","bldgnbr":"1201","predir":null,"streetname":"CASTLE","streettype":"ST","suffdir":null,"city":"SANDWICH","state_code":"IL","zip5":"60548","latitude":"41.6579270000000000","longitude":"-88.628353000000000","publicwifi":"U","url":null,"broadband_type_id":6}
{"id":null,"anchorname":"WILLOW CREST NURSING PAVILION","address":"515 NORTH MAIN","bldgnbr":"515","predir":"N","streetname":"MAIN","streettype":null,"suffdir":null,"city":"SANDWICH","state_code":"IL","zip5":"60548","latitude":"41.6503900000000000","longitude":"-88.621857000000000","publicwifi":"U","url":null,"broadband_type_id":3}
{"id":null,"anchorname":"VALLEY WEST COMMUNITY HOSPITAL","address":"11 EAST PLEASANT AVENUE","bldgnbr":"11","predir":"E","streetname":"PLEASANT","streettype":"AVE","suffdir":null,"city":"SANDWICH","state_code":"IL","zip5":"60548","latitude":"41.6564580000000000","longitude":"-88.621610000000000","publicwifi":"U","url":null,"broadband_type_id":3}
{"id":null,"anchorname":"SANDWICH REHAB \u0026 HEALTHCARE CENTER","address":"902 EAST ARNOLD ST","bldgnbr":"902","predir":"E","streetname":"ARNOLD","streettype":"ST","suffdir":null,"city":"SANDWICH","state_code":"IL","zip5":"60548","latitude":"41.6548730000000000","longitude":"-88.611255000000000","publicwifi":"U","url":null,"broadband_type_id":3}
{"id":null,"anchorname":"W W WOODBURY ELEM SCHOOL","address":"322 EAST 3RD ST","bldgnbr":"322","predir":"E","streetname":"3RD","streettype":"ST","suffdir":null,"city":"SANDWICH","state_code":"IL","zip5":"60548","latitude":"41.6483170000000000","longitude":"-88.618275000000000","publicwifi":"U","url":null,"broadband_type_id":6}
{"id":null,"anchorname":"SANDWICH DISTRICT LIBRARY","address":"107 EAST CENTER ST","bldgnbr":"107","predir":"E","streetname":"CENTER","streettype":"ST","suffdir":null,"city":"SANDWICH","state_code":"IL","zip5":"60548","latitude":"41.6458370000000000","longitude":"-88.620314000000000","publicwifi":"Y","url":"http://www.sandwich.lib.il.us/","broadband_type_id":6}
{"id":null,"anchorname":"SANDWICH COMMUNITY HIGH SCHOOL","address":"515 LIONS RD","bldgnbr":"515","predir":"E","streetname":"LIONS","streettype":"RD","suffdir":null,"city":"SANDWICH","state_code":"IL","zip5":"60548","latitude":"41.6386630000000000","longitude":"-88.612754000000000","publicwifi":"U","url":null,"broadband_type_id":6}
{"id":null,"anchorname":"LYNN G HASKIN ELEMENTARY SCHOOL","address":"720 SOUTH WELLS ST","bldgnbr":"720","predir":"S","streetname":"WELLS","streettype":"ST","suffdir":null,"city":"SANDWICH","state_code":"IL","zip5":"60548","latitude":"41.6393920000000000","longitude":"-88.620134000000000","publicwifi":"U","url":null,"broadband_type_id":6}
{"id":null,"anchorname":"SANDWICH MIDDLE SCHOOL","address":"600 SOUTH WELLS ST","bldgnbr":"600","predir":"S","streetname":"WELLS","streettype":"ST","suffdir":null,"city":"SANDWICH","state_code":"IL","zip5":"60548","latitude":"41.6405390000000000","longitude":"-88.620156000000000","publicwifi":"U","url":null,"broadband_type_id":6}
{"id":null,"anchorname":"ILLINOIS STATE POLICE  NETWORK (LOC)","address":"308 EAST COLLEGE ST","bldgnbr":"308","predir":"E","streetname":"COLLEGE","streettype":"ST","suffdir":null,"city":"SANDWICH","state_code":"IL","zip5":"60548","latitude":"41.6436440000000000","longitude":"-88.617084000000000","publicwifi":"U","url":null,"broadband_type_id":4}
{"id":null,"anchorname":"SANDWICH POLICE DEPARTMENT","address":"308 EAST COLLEGE ST","bldgnbr":"308","predir":"E","streetname":"COLLEGE","streettype":"ST","suffdir":null,"city":"SANDWICH","state_code":"IL","zip5":"60548","latitude":"41.6436440000000000","longitude":"-88.617084000000000","publicwifi":"U","url":null,"broadband_type_id":4}
{"id":null,"anchorname":"SANDWICH FIRE DEPARTMENT","address":"310 EAST RAILROAD ST","bldgnbr":"310","predir":"E","streetname":"RAILROAD","streettype":"ST","suffdir":null,"city":"SANDWICH","state_code":"IL","zip5":"60548","latitude":"41.6453500000000000","longitude":"-88.617978000000000","publicwifi":"U","url":null,"broadband_type_id":5}
{"id":null,"anchorname":"ILLINOIS STATE POLICE  NETWORK (LOC)","address":"375 WIRTZ DRIVE","bldgnbr":"375","predir":null,"streetname":"WIRTZ","streettype":"DR","suffdir":null,"city":"DEKALB","state_code":"IL","zip5":"60115","latitude":"41.9353780000000000","longitude":"-88.764138000000000","publicwifi":"U","url":null,"broadband_type_id":4}
{"id":null,"anchorname":"NIU POLICE DEPARTMENT","address":"375 WIRTZ DRIVE","bldgnbr":"375","predir":null,"streetname":"WIRTZ","streettype":"DR","suffdir":null,"city":"DE KALB","state_code":"IL","zip5":"60115","latitude":"41.9353780000000000","longitude":"-88.764138000000000","publicwifi":"U","url":null,"broadband_type_id":4}
{"id":null,"anchorname":"NORTHERN ILLINOIS UNIVERSITY POLICE DEPARTMENT","address":"375 WIRTZ DRIVE","bldgnbr":"375","predir":null,"streetname":"WIRTZ","streettype":"DR","suffdir":null,"city":"DEKALB","state_code":"IL","zip5":"60115","latitude":"41.9353780000000000","longitude":"-88.764138000000000","publicwifi":"U","url":null,"broadband_type_id":4}
{"id":null,"anchorname":"NORTHERN ILLINOIS UNIVERSITY- COLLEGE OF LAW LIBRARY","address":"SWEN PARSON HALL","bldgnbr":"N/A","predir":null,"streetname":"SWEN PARSON HALL","streettype":null,"suffdir":null,"city":"DEKALB","state_code":"IL","zip5":"60115","latitude":"41.9327610000000000","longitude":"-88.765749000000000","publicwifi":"Y","url":"http://www.ulib.niu.edu/","broadband_type_id":6}
{"id":null,"anchorname":"FARMER CITY REHAB AND HEALTH CARE","address":"10 BROOKVIEW DRIVE","bldgnbr":"10","predir":null,"streetname":"BROOKVIEW","streettype":"DR","suffdir":null,"city":"FARMER CITY","state_code":"IL","zip5":"61842","latitude":"40.2451150000000000","longitude":"-88.649902000000000","publicwifi":"U","url":null,"broadband_type_id":3}
{"id":null,"anchorname":"RUTH M SCHNEIDER ELEM SCHOOL","address":"309 NORTH JOHN ST","bldgnbr":"309","predir":"N","streetname":"JOHN","streettype":"ST","suffdir":null,"city":"FARMER CITY","state_code":"IL","zip5":"61842","latitude":"40.2460270000000000","longitude":"-88.646176000000000","publicwifi":"U","url":null,"broadband_type_id":6}
{"id":null,"anchorname":"BLUE RIDGE HIGH SCHOOL","address":"411 NORTH JOHN ST","bldgnbr":"411","predir":"N","streetname":"JOHN","streettype":"ST","suffdir":null,"city":"FARMER CITY","state_code":"IL","zip5":"61842","latitude":"40.2469770000000000","longitude":"-88.646186000000000","publicwifi":"U","url":null,"broadband_type_id":6}
{"id":null,"anchorname":"LAKE COUNTY CIRCUIT AND COUNTY COURTS - LAKE COUNTY PUBLIC RECORDS CENTER","address":"122 EAST MAIN ST, TAVARES, FL 32778","bldgnbr":"122","predir":null,"streetname":"MAIN","streettype":"ST","suffdir":null,"city":"TAVARES","state_code":"FL","zip5":"32778","latitude":"28.8019327000000000","longitude":"-81.727298050000000","publicwifi":"U","url":"0","broadband_type_id":1}
{"id":null,"anchorname":"ILLINOIS DEPT OF NATURAL RESOURCES","address":"1556 STATE RTE 54","bldgnbr":"1556","predir":null,"streetname":"STATE ROUTE 54","streettype":null,"suffdir":null,"city":"CLINTON","state_code":"IL","zip5":"61727","latitude":"40.1526300000000000","longitude":"-88.942138000000000","publicwifi":"U","url":null,"broadband_type_id":6}
{"id":null,"anchorname":"ILLINOIS EMERGENCY MANAGEMENT AGENCY","address":"814 POWER STATION  ROAD","bldgnbr":"814","predir":null,"streetname":"POWER STATION","streettype":"RD","suffdir":null,"city":"CLINTON","state_code":"IL","zip5":"61735","latitude":"40.1530760000000000","longitude":"-88.957702000000000","publicwifi":"U","url":null,"broadband_type_id":6}
{"id":null,"anchorname":"ALLEN COURT","address":"1650 EAST MAIN ST","bldgnbr":"1650","predir":"E","streetname":"MAIN","streettype":"ST","suffdir":null,"city":"CLINTON","state_code":"IL","zip5":"61727","latitude":"40.1530750000000000","longitude":"-88.940677000000000","publicwifi":"U","url":null,"broadband_type_id":1}
{"id":null,"anchorname":"HAWTHORNE INN OF CLINTON","address":"1PARK LANE WEST","bldgnbr":"1","predir":null,"streetname":"PARK LANE","streettype":null,"suffdir":"W","city":"CLINTON","state_code":"IL","zip5":"61727","latitude":"40.1455070000000000","longitude":"-88.973510000000000","publicwifi":"U","url":null,"broadband_type_id":null}
{"id":null,"anchorname":"FARMER CITY POLICE DEPARTMENT","address":"105 SOUTH MAIN ST","bldgnbr":"105","predir":"S","streetname":"MAIN","streettype":"ST","suffdir":null,"city":"FARMER CITY","state_code":"IL","zip5":"61842","latitude":"40.2441380000000000","longitude":"-88.642226000000000","publicwifi":"U","url":null,"broadband_type_id":4}
{"id":null,"anchorname":"ILLINOIS STATE POLICE  NETWORK (LOC)","address":"105 SOUTH MAIN ST","bldgnbr":"105","predir":"S","streetname":"MAIN","streettype":"ST","suffdir":null,"city":"FARMER CITY","state_code":"IL","zip5":"61842","latitude":"40.2441380000000000","longitude":"-88.642226000000000","publicwifi":"U","url":null,"broadband_type_id":4}
{"id":null,"anchorname":"FARMER CITY PUBLIC LIBRARY","address":"109 EAST GREEN ST","bldgnbr":"109","predir":"E","streetname":"GREEN","streettype":"ST","suffdir":null,"city":"FARMER CITY","state_code":"IL","zip5":"61842","latitude":"40.2434790000000000","longitude":"-88.642456000000000","publicwifi":"Y","url":"http://www.facebook.com/pages/Farmer-City-Public-Library/113928318634632","broadband_type_id":6}
{"id":null,"anchorname":"WAPELLA VOLUNTEER FIRE DEPARTMENT","address":"315 MAIN ST","bldgnbr":"315","predir":null,"streetname":"MAIN","streettype":"ST","suffdir":null,"city":"WAPELLA","state_code":"IL","zip5":"61777","latitude":"40.2205850000000000","longitude":"-88.961780000000000","publicwifi":"U","url":null,"broadband_type_id":5}
{"id":null,"anchorname":"DELAND-WELDON ELEM SCHOOL","address":"2311 NORTH 300 EAST RD","bldgnbr":"2311","predir":"\u003cNull\u003e","streetname":"300 East","streettype":null,"suffdir":null,"city":"WELDON","state_code":"IL","zip5":"61882","latitude":"40.1291610000000000","longitude":"-88.688069000000000","publicwifi":"U","url":null,"broadband_type_id":6}
{"id":null,"anchorname":"DELAND-WELDON MIDDLE SCHOOL","address":"2311 NORTH 300 EAST RD","bldgnbr":"2311","predir":"\u003cNull\u003e","streetname":"NORTH 300 EAST RD","streettype":null,"suffdir":null,"city":"WELDON","state_code":"IL","zip5":"61882","latitude":"40.1291610000000000","longitude":"-88.688069000000000","publicwifi":"U","url":null,"broadband_type_id":6}
{"id":null,"anchorname":"WELDON PUBLIC LIBRARY DISTRICT","address":"505 MAPLE ST","bldgnbr":"505","predir":null,"streetname":"MAPLE","streettype":"ST","suffdir":null,"city":"WELDON","state_code":"IL","zip5":"61882","latitude":"40.1211680000000000","longitude":"-88.751192000000000","publicwifi":"Y","url":"http://www.weldon.lib.il.us/","broadband_type_id":6}
{"id":null,"anchorname":"WELDON COMMUNITY FIRE PROTECTION DISTRICT","address":"525 MAPLE ST","bldgnbr":"525","predir":null,"streetname":"MAPLE","streettype":"ST","suffdir":null,"city":"WELDON","state_code":"IL","zip5":"61882","latitude":"40.1211680000000000","longitude":"-88.751509000000000","publicwifi":"U","url":null,"broadband_type_id":5}
{"id":null,"anchorname":"WAYNESVILLE TOWNSHIP LIBRARY","address":"303 EAST SECOND ST","bldgnbr":"303","predir":"E","streetname":"SECOND","streettype":"ST","suffdir":null,"city":"WAYNESVILLE","state_code":"IL","zip5":"61778","latitude":"40.2392270000000000","longitude":"-89.123204000000000","publicwifi":"N","url":"http://waynesvilletownshiplibrary.org/","broadband_type_id":6}
{"id":null,"anchorname":"KENNEY FIRE PROTECTION DISTRICT","address":"110 E SHELDON ST","bldgnbr":"110","predir":"E","streetname":"SHELDON","streettype":"ST","suffdir":null,"city":"KENNEY","state_code":"IL","zip5":"61749","latitude":"40.0978520000000000","longitude":"-89.085677000000000","publicwifi":"U","url":null,"broadband_type_id":5}
{"id":null,"anchorname":"WASHINGTON ELEM SCHOOL","address":"411 NORTH MULBERRY ST","bldgnbr":"411","predir":"N","streetname":"MULBERRY","streettype":"ST","suffdir":null,"city":"CLINTON","state_code":"IL","zip5":"61727","latitude":"40.1554200000000000","longitude":"-88.965250000000000","publicwifi":"U","url":null,"broadband_type_id":6}
{"id":null,"anchorname":"ILLINOIS STATE POLICE  NETWORK (LOC)","address":"101 WEST WASHINGTON ST","bldgnbr":"101","predir":"W","streetname":"WASHINGTON","streettype":"ST","suffdir":null,"city":"CLINTON","state_code":"IL","zip5":"61727","latitude":"40.1536660000000000","longitude":"-88.960588000000000","publicwifi":"U","url":null,"broadband_type_id":4}
{"id":null,"anchorname":"ILLINOIS HEALTHCARE AND FAMILY SERVICES","address":"201 WEST WASHINGTON ST","bldgnbr":"201","predir":"W","streetname":"WASHINGTON","streettype":"ST","suffdir":null,"city":"CLINTON","state_code":"IL","zip5":"61727","latitude":"40.1536350000000000","longitude":"-88.961803000000000","publicwifi":"U","url":null,"broadband_type_id":3}
{"id":null,"anchorname":"DEWITT COUNTY SHERIFF'S OFFICE","address":"101 WEST WASHINGTON ST","bldgnbr":"101","predir":"W","streetname":"WASHINGTON","streettype":"ST","suffdir":null,"city":"CLINTON","state_code":"IL","zip5":"61727","latitude":"40.1536660000000000","longitude":"-88.960588000000000","publicwifi":"U","url":null,"broadband_type_id":4}
{"id":null,"anchorname":"CLINTON FIRE DEPARTMENT","address":"118 WEST WASHINGTON ST","bldgnbr":"118","predir":"W","streetname":"WASHINGTON","streettype":"ST","suffdir":null,"city":"CLINTON","state_code":"IL","zip5":"61727","latitude":"40.1535510000000000","longitude":"-88.960794000000000","publicwifi":"U","url":null,"broadband_type_id":5}
{"id":null,"anchorname":"CLINTON POLICE DEPARTMENT","address":"118 WEST WASHINGTON ST","bldgnbr":"118","predir":"W","streetname":"WASHINGTON","streettype":"ST","suffdir":null,"city":"CLINTON","state_code":"IL","zip5":"61727","latitude":"40.1535510000000000","longitude":"-88.960794000000000","publicwifi":"U","url":null,"broadband_type_id":4}
{"id":null,"anchorname":"CLINTON JR HIGH SCHOOL","address":"701 ILLINI DR","bldgnbr":"701","predir":null,"streetname":"ILLINI","streettype":"DR","suffdir":null,"city":"CLINTON","state_code":"IL","zip5":"61727","latitude":"40.1426400000000000","longitude":"-88.977300000000000","publicwifi":"U","url":null,"broadband_type_id":6}
{"id":null,"anchorname":"CLINTON HIGH SCHOOL","address":"1200 STATE ROUTE 54 WEST","bldgnbr":"1200","predir":"\u003cNull\u003e","streetname":"State Route 54","streettype":null,"suffdir":null,"city":"CLINTON","state_code":"IL","zip5":"61727","latitude":"40.1474280000000000","longitude":"-88.972982000000000","publicwifi":"U","url":null,"broadband_type_id":6}
{"id":null,"anchorname":"LINCOLN ELEM SCHOOL","address":"407 SOUTH JACKSON ST","bldgnbr":"407","predir":"S","streetname":"JACKSON","streettype":"ST","suffdir":null,"city":"CLINTON","state_code":"IL","zip5":"61727","latitude":"40.1498160000000000","longitude":"-88.962758000000000","publicwifi":"U","url":null,"broadband_type_id":6}
{"id":null,"anchorname":"DR. JOHN  WARNER HOSPITAL","address":"422 WEST WHITE ST","bldgnbr":"422","predir":"W","streetname":"WHITE","streettype":"ST","suffdir":null,"city":"CLINTON","state_code":"IL","zip5":"61727","latitude":"40.1488990000000000","longitude":"-88.964312000000000","publicwifi":"U","url":null,"broadband_type_id":3}
{"id":null,"anchorname":"WEBSTER ELEM SCHOOL","address":"612 NORTH GEORGE ST","bldgnbr":"612","predir":"\u003cNull\u003e","streetname":"George","streettype":null,"suffdir":null,"city":"CLINTON","state_code":"IL","zip5":"61727","latitude":"40.1566410000000000","longitude":"-88.953579000000000","publicwifi":"U","url":null,"broadband_type_id":6}
{"id":null,"anchorname":"DOUGLAS ELEM SCHOOL","address":"905 EAST MAIN ST","bldgnbr":"905","predir":"E","streetname":"MAIN","streettype":"ST","suffdir":null,"city":"CLINTON","state_code":"IL","zip5":"61727","latitude":"40.1529510000000000","longitude":"-88.950827000000000","publicwifi":"U","url":null,"broadband_type_id":6}
{"id":null,"anchorname":"NEWMAN TOWNSHIP LIBRARY","address":"108 WEST YATES ST","bldgnbr":"108","predir":"W","streetname":"YATES","streettype":"ST","suffdir":null,"city":"NEWMAN","state_code":"IL","zip5":"61942","latitude":"39.7978230000000000","longitude":"-87.984347000000000","publicwifi":"Y","url":"http://www.newmanregionallibrary.org/","broadband_type_id":6}
{"id":null,"anchorname":"NEWMAN FIRE DEPARTMENT","address":"106 WEST YATES ST","bldgnbr":"106","predir":"W","streetname":"YATES","streettype":"ST","suffdir":null,"city":"NEWMAN","state_code":"IL","zip5":"61942","latitude":"39.7978230000000000","longitude":"-87.984322000000000","publicwifi":"U","url":null,"broadband_type_id":5}
{"id":null,"anchorname":"NEWMAN GRADE SCHOOL","address":"207 SOUTH COFFIN ST","bldgnbr":"207","predir":"S","streetname":"COFFIN","streettype":"ST","suffdir":null,"city":"NEWMAN","state_code":"IL","zip5":"61942","latitude":"39.7967890000000000","longitude":"-87.988008000000000","publicwifi":"Y","url":null,"broadband_type_id":6}
{"id":null,"anchorname":"NEWMAN REHAB \u0026 HEALTH CARE CTR","address":"418 SOUTH MEMORIAL PARK DRIVE","bldgnbr":"418","predir":"S","streetname":"MEMORIAL PARK","streettype":"DR","suffdir":null,"city":"NEWMAN","state_code":"IL","zip5":"61942","latitude":"39.7955180000000000","longitude":"-87.979345000000000","publicwifi":"U","url":null,"broadband_type_id":3}
{"id":null,"anchorname":"NEWMAN POLICE DEPARTMENT","address":"100 SOUTH KING ST","bldgnbr":"100","predir":"S","streetname":"KING","streettype":"ST","suffdir":null,"city":"NEWMAN","state_code":"IL","zip5":"61942","latitude":"39.7923310000000000","longitude":"-87.985448000000000","publicwifi":"U","url":null,"broadband_type_id":4}
{"id":null,"anchorname":"VILLA GROVE ELEM SCHOOL","address":"400 NORTH SYCAMORE ST","bldgnbr":"400","predir":"\u003cNull\u003e","streetname":"NORTH SYCAMORE ST","streettype":null,"suffdir":null,"city":"VILLA GROVE","state_code":"IL","zip5":"61956","latitude":"39.8689040000000000","longitude":"-88.160499000000000","publicwifi":"U","url":null,"broadband_type_id":6}
{"id":null,"anchorname":"VILLA GROVE HIGH SCHOOL","address":"400 NORTH SYCAMORE ST","bldgnbr":"400","predir":"\u003cNull\u003e","streetname":"NORTH SYCAMORE ST","streettype":null,"suffdir":null,"city":"VILLA GROVE","state_code":"IL","zip5":"61956","latitude":"39.8689040000000000","longitude":"-88.160499000000000","publicwifi":"U","url":null,"broadband_type_id":6}
{"id":null,"anchorname":"VILLA GROVE JR HIGH SCHOOL","address":"400 NORTH SYCAMORE ST","bldgnbr":"400","predir":"N","streetname":"SYCAMORE","streettype":"ST","suffdir":null,"city":"VILLA GROVE","state_code":"IL","zip5":"61956","latitude":"39.8689040000000000","longitude":"-88.160499000000000","publicwifi":"U","url":null,"broadband_type_id":6}
{"id":null,"anchorname":"VILLA GROVE FIRE DEPARTMENT","address":"3 WEST JEFFERSON ST","bldgnbr":"3","predir":"W","streetname":"JEFFERSON","streettype":"ST","suffdir":null,"city":"VILLA GROVE","state_code":"IL","zip5":"61956","latitude":"39.8639270000000000","longitude":"-88.161595000000000","publicwifi":"U","url":null,"broadband_type_id":5}
{"id":null,"anchorname":"CAMARGO TOWNSHIP DIST LIBRARY","address":"14 NORTH MAIN ST","bldgnbr":"14","predir":"N","streetname":"MAIN","streettype":"ST","suffdir":null,"city":"VILLA GROVE","state_code":"IL","zip5":"61956","latitude":"39.8621500000000000","longitude":"-88.161600000000000","publicwifi":"Y","url":"http://www.camargotownship.lib.il.us/","broadband_type_id":6}
{"id":null,"anchorname":"LAKE COUNTY RADIO SHOP","address":"15839 OLD US HIGHWAY 441, TAVARES, FL 32778","bldgnbr":"15839","predir":null,"streetname":"OLD US HIGHWAY 441","streettype":"0","suffdir":null,"city":"TAVARES","state_code":"FL","zip5":"32778","latitude":"28.8033940700000000","longitude":"-81.694530800000000","publicwifi":"Y","url":"0","broadband_type_id":1}
{"id":null,"anchorname":"ILLINOIS DEPT OF CHILDREN AND FAMILY SERVICES - NETWORK(CFS)","address":"108 WEST SALE ST","bldgnbr":"108","predir":"W","streetname":"SALE","streettype":"ST","suffdir":null,"city":"TUSCOLA","state_code":"IL","zip5":"61953","latitude":"39.7998890000000000","longitude":"-88.287875000000000","publicwifi":"U","url":null,"broadband_type_id":6}
{"id":null,"anchorname":"ILLINOIS SECRETARY OF STATE","address":"211 SOUTH MAIN","bldgnbr":"211","predir":"S","streetname":"MAIN","streettype":null,"suffdir":null,"city":"TUSCOLA","state_code":"IL","zip5":"61953","latitude":"39.7977270000000000","longitude":"-88.287606000000000","publicwifi":"U","url":null,"broadband_type_id":6}
{"id":null,"anchorname":"ILLINOIS DEPT OF HUMAN SERVICES","address":"207 EAST FICKLIN","bldgnbr":"207","predir":"E","streetname":"FICKLIN","streettype":null,"suffdir":null,"city":"TUSCOLA","state_code":"IL","zip5":"61953","latitude":"39.7922450000000000","longitude":"-88.285905000000000","publicwifi":"U","url":null,"broadband_type_id":6}
{"id":null,"anchorname":"AMISH INTERPRETIVE CTR","address":"125 N COUNTY ROAD 425E","bldgnbr":"125","predir":"N","streetname":"COUNTY","streettype":"RD","suffdir":null,"city":"ARCOLA","state_code":"IL","zip5":"61910","latitude":"39.6710810000000000","longitude":"-88.390197000000000","publicwifi":"U","url":null,"broadband_type_id":6}
{"id":null,"anchorname":"EARLY CHILDHOOD EDUCATION CENTER","address":"543 NORTH WOOD DALE RD","bldgnbr":"543","predir":"N","streetname":"WOOD DALE","streettype":"RD","suffdir":null,"city":"WOOD DALE","state_code":"IL","zip5":"60191","latitude":"41.9709930000000000","longitude":"-87.978751000000000","publicwifi":"U","url":null,"broadband_type_id":6}
{"id":null,"anchorname":"HOPE HOUSE","address":"106 EAST SECOND SOUTH ST","bldgnbr":"106","predir":"E","streetname":"SECOND","streettype":null,"suffdir":null,"city":"ARCOLA","state_code":"IL","zip5":"61910","latitude":"39.6790160000000000","longitude":"-88.308842000000000","publicwifi":"U","url":null,"broadband_type_id":null}
{"id":null,"anchorname":"H E L P  ARCOLA","address":"211 1/2 SOUTH JACQUES ST","bldgnbr":"211","predir":"\u003cNull\u003e","streetname":"1/2 SOUTH JACQUES ST","streettype":null,"suffdir":null,"city":"ARCOLA","state_code":"IL","zip5":"61910","latitude":"39.6819880000000000","longitude":"-88.297580000000000","publicwifi":"U","url":null,"broadband_type_id":null}
{"id":null,"anchorname":"CAMARGO COUNTRYSIDE FIRE PROTECTION DISTRICT","address":"MAIN ST","bldgnbr":"N/A","predir":null,"streetname":"MAIN","streettype":"ST","suffdir":null,"city":"CAMARGO","state_code":"IL","zip5":"61919","latitude":"39.7997130000000000","longitude":"-88.155265000000000","publicwifi":"U","url":null,"broadband_type_id":5}
{"id":null,"anchorname":"TUSCOLA PUBLIC LIBRARY","address":"112 EAST SALE ST","bldgnbr":"112","predir":"E","streetname":"SALE","streettype":"ST","suffdir":null,"city":"TUSCOLA","state_code":"IL","zip5":"61953","latitude":"39.7998900000000000","longitude":"-88.287446000000000","publicwifi":"Y","url":"http://www.tuscolalibrary.org/","broadband_type_id":6}
{"id":null,"anchorname":"TUSCOLA POLICE DEPARTMENT","address":"214 NORTH MAIN","bldgnbr":"214","predir":"N","streetname":"MAIN","streettype":null,"suffdir":null,"city":"TUSCOLA","state_code":"IL","zip5":"61953","latitude":"39.7999780000000000","longitude":"-88.287757000000000","publicwifi":"U","url":null,"broadband_type_id":4}
{"id":null,"anchorname":"EAST PRAIRIE JR HIGH SCHOOL","address":"409 SOUTH PRAIRIE ST","bldgnbr":"409","predir":"S","streetname":"PRAIRIE","streettype":"ST","suffdir":null,"city":"TUSCOLA","state_code":"IL","zip5":"61953","latitude":"39.7960240000000000","longitude":"-88.273305000000000","publicwifi":"U","url":null,"broadband_type_id":6}
{"id":null,"anchorname":"TUSCOLA HIGH SCHOOL","address":"500 SOUTH PRAIRIE ST","bldgnbr":"500","predir":"S","streetname":"PRAIRIE","streettype":"ST","suffdir":null,"city":"TUSCOLA","state_code":"IL","zip5":"61953","latitude":"39.7951850000000000","longitude":"-88.273440000000000","publicwifi":"U","url":null,"broadband_type_id":6}
{"id":null,"anchorname":"ILLINOIS HEALTHCARE AND FAMILY SERVICES","address":"401 SOUTH CENTER","bldgnbr":"401","predir":"S","streetname":"CENTER","streettype":null,"suffdir":null,"city":"TUSCOLA","state_code":"IL","zip5":"61953","latitude":"39.7961060000000000","longitude":"-88.285955000000000","publicwifi":"U","url":null,"broadband_type_id":3}
{"id":null,"anchorname":"TUSCOLA FIRE DEPARTMENT","address":"104 EAST PINZON ST","bldgnbr":"104","predir":"E","streetname":"PINZON","streettype":"ST","suffdir":null,"city":"TUSCOLA","state_code":"IL","zip5":"61953","latitude":"39.7933570000000000","longitude":"-88.287572000000000","publicwifi":"U","url":null,"broadband_type_id":5}
{"id":null,"anchorname":"ILLINOIS STATE POLICE  NETWORK (LOC)","address":"920 SOUTH WASHINGTON","bldgnbr":"920","predir":"S","streetname":"WASHINGTON","streettype":null,"suffdir":null,"city":"TUSCOLA","state_code":"IL","zip5":"61953","latitude":"39.7913300000000000","longitude":"-88.289410000000000","publicwifi":"U","url":null,"broadband_type_id":4}
{"id":null,"anchorname":"DOUGLAS COUNTY SHERIFF'S OFFICE","address":"920 SOUTH WASHINGTON ST","bldgnbr":"920","predir":"S","streetname":"WASHINGTON","streettype":"ST","suffdir":null,"city":"TUSCOLA","state_code":"IL","zip5":"61953","latitude":"39.7913300000000000","longitude":"-88.289410000000000","publicwifi":"U","url":null,"broadband_type_id":4}
{"id":null,"anchorname":"TUSCOLA HEALTH CARE CENTER","address":"1203 EGYPTAIN TRAIL","bldgnbr":"1203","predir":null,"streetname":"EGYPTAIN","streettype":null,"suffdir":null,"city":"TUSCOLA","state_code":"IL","zip5":"61953","latitude":"39.7883410000000000","longitude":"-88.283051000000000","publicwifi":"U","url":null,"broadband_type_id":3}
{"id":null,"anchorname":"BEAR CREEK SCHOOL","address":"391 E COUNTY ROAD 600 N","bldgnbr":"391","predir":"\u003cNull\u003e","streetname":"COUNTY ROAD 600 N","streettype":null,"suffdir":null,"city":"TUSCOLA","state_code":"IL","zip5":"61953","latitude":"39.7395808950000000","longitude":"-88.396780802000000","publicwifi":"U","url":null,"broadband_type_id":6}
{"id":null,"anchorname":"ATWOOD POLICE DEPARTMENT","address":"112 SOUTH MAIN","bldgnbr":"112","predir":"S","streetname":"MAIN","streettype":null,"suffdir":null,"city":"ATWOOD","state_code":"IL","zip5":"61913","latitude":"39.7996980000000000","longitude":"-88.462242000000000","publicwifi":"U","url":null,"broadband_type_id":4}
{"id":null,"anchorname":"ARTHUR POLICE DEPARTMENT","address":"120 EAST PROGRESS ST","bldgnbr":"120","predir":"E","streetname":"PROGRESS","streettype":"ST","suffdir":null,"city":"ARTHUR","state_code":"IL","zip5":"61911","latitude":"39.7169470000000000","longitude":"-88.472034000000000","publicwifi":"U","url":null,"broadband_type_id":4}
{"id":null,"anchorname":"NORTHSIDE SCHOOL","address":"125 E CR 500 N","bldgnbr":"125","predir":"\u003cNull\u003e","streetname":"CR 500 N","streettype":null,"suffdir":null,"city":"ARTHUR","state_code":"IL","zip5":"61911","latitude":"39.7246033650000000","longitude":"-88.437709883000000","publicwifi":"U","url":null,"broadband_type_id":6}
{"id":null,"anchorname":"ARTHUR ELEM SCHOOL","address":"126 EAST LINCOLN ST","bldgnbr":"126","predir":"E","streetname":"LINCOLN","streettype":"ST","suffdir":null,"city":"ARTHUR","state_code":"IL","zip5":"61911","latitude":"39.7134260000000000","longitude":"-88.471996000000000","publicwifi":"U","url":null,"broadband_type_id":6}
{"id":null,"anchorname":"ARTHUR CHRISTIAN SCHOOL","address":"1710 STATE HIGHWAY 133","bldgnbr":"1710","predir":"\u003cNull\u003e","streetname":"State Hwy 133","streettype":null,"suffdir":null,"city":"ARTHUR","state_code":"IL","zip5":"61911","latitude":"39.7103947550000000","longitude":"-88.458055074000000","publicwifi":"U","url":null,"broadband_type_id":6}
{"id":null,"anchorname":"ARTHUR SR HIGH SCHOOL","address":"301 EAST COLUMBIA ST","bldgnbr":"301","predir":"E","streetname":"COLUMBIA","streettype":"ST","suffdir":null,"city":"ARTHUR","state_code":"IL","zip5":"61911","latitude":"39.7103360000000000","longitude":"-88.468265000000000","publicwifi":"U","url":null,"broadband_type_id":6}
{"id":null,"anchorname":"ARTHUR JR HIGH SCHOOL","address":"301 EAST COLUMBIA ST","bldgnbr":"301","predir":"\u003cNull\u003e","streetname":"EAST COLUMBIA ST","streettype":null,"suffdir":null,"city":"ARTHUR","state_code":"IL","zip5":"61911","latitude":"39.7103360000000000","longitude":"-88.468265000000000","publicwifi":"U","url":null,"broadband_type_id":6}
{"id":null,"anchorname":"PRAIRIE LANE AMISH SCHOOL","address":"250 E CR 300 N","bldgnbr":"250","predir":"\u003cNull\u003e","streetname":"E CR 300 N","streettype":null,"suffdir":null,"city":"ARCOLA","state_code":"IL","zip5":"61910","latitude":"39.6956155220000000","longitude":"-88.423462457000000","publicwifi":"U","url":null,"broadband_type_id":6}
{"id":null,"anchorname":"MEADOWLARK SCHOOL","address":"181 N CR 100 E","bldgnbr":"120","predir":"E","streetname":"COUNTY ROAD 200","streettype":null,"suffdir":"N","city":"ARTHUR","state_code":"IL","zip5":"61911","latitude":"39.6693125710000000","longitude":"-88.452086725000000","publicwifi":"U","url":null,"broadband_type_id":6}
{"id":null,"anchorname":"LITTLE CREEK SCHOOL","address":"17841 N COUNTY ROAD 280E","bldgnbr":"17841","predir":"\u003cNull\u003e","streetname":"COUNTY ROAD 280E","streettype":null,"suffdir":null,"city":"ARCOLA","state_code":"IL","zip5":"61910","latitude":"39.6790335780000000","longitude":"-88.305076012000000","publicwifi":"U","url":null,"broadband_type_id":6}
{"id":null,"anchorname":"SOUTH PRAIRIE SCHOOL","address":"2080C E 1900 N","bldgnbr":"2080","predir":"\u003cNull\u003e","streetname":"E 1900 N","streettype":null,"suffdir":null,"city":"ARCOLA","state_code":"IL","zip5":"61910","latitude":"39.6790335780000000","longitude":"-88.305076012000000","publicwifi":"U","url":null,"broadband_type_id":6}
{"id":null,"anchorname":"ARCOLA PUBLIC LIBRARY DISTRICT","address":"407 EAST MAIN ST","bldgnbr":"407","predir":"E","streetname":"MAIN","streettype":"ST","suffdir":null,"city":"ARCOLA","state_code":"IL","zip5":"61910","latitude":"39.6840550000000000","longitude":"-88.303165000000000","publicwifi":"Y","url":"http://arcolapl.blogspot.com/","broadband_type_id":6}
{"id":null,"anchorname":"ARCOLA POLICE DEPARTMENT","address":"114 NORTH LOCUST ST","bldgnbr":"114","predir":"N","streetname":"LOCUST","streettype":"ST","suffdir":null,"city":"ARCOLA","state_code":"IL","zip5":"61910","latitude":"39.6845330000000000","longitude":"-88.306503000000000","publicwifi":"U","url":null,"broadband_type_id":4}
{"id":null,"anchorname":"ARCOLA ELEMENTARY SCHOOL","address":"351 WEST WASHINGTON ST","bldgnbr":"351","predir":"W","streetname":"WASHINGTON","streettype":"ST","suffdir":null,"city":"ARCOLA","state_code":"IL","zip5":"61910","latitude":"39.6838760000000000","longitude":"-88.316461000000000","publicwifi":"U","url":null,"broadband_type_id":6}
{"id":null,"anchorname":"ARCOLA HIGH SCHOOL","address":"351 WEST WASHINGTON ST","bldgnbr":"351","predir":"\u003cNull\u003e","streetname":"WEST WASHINGTON ST","streettype":null,"suffdir":null,"city":"ARCOLA","state_code":"IL","zip5":"61910","latitude":"39.6838760000000000","longitude":"-88.316461000000000","publicwifi":"U","url":null,"broadband_type_id":6}
{"id":null,"anchorname":"ARCOLA FIRE DEPARTMENT","address":"111 WEST  MAIN ST","bldgnbr":"111","predir":"W","streetname":"MAIN","streettype":"ST","suffdir":null,"city":"ARCOLA","state_code":"IL","zip5":"61910","latitude":"39.6845170000000000","longitude":"-88.309270000000000","publicwifi":"U","url":null,"broadband_type_id":5}
{"id":null,"anchorname":"MOHAWK ELEM SCHOOL","address":"917 WEST HILLSIDE DR","bldgnbr":"917","predir":"W","streetname":"HILLSIDE","streettype":"DR","suffdir":null,"city":"BENSENVILLE","state_code":"IL","zip5":"60106","latitude":"41.9645890000000000","longitude":"-87.953140000000000","publicwifi":"U","url":null,"broadband_type_id":6}
{"id":null,"anchorname":"ROBERT MORRIS UNIVERSITY- BENSENVILLE LIBRARY","address":"1000 TOWER LANE","bldgnbr":"1000","predir":null,"streetname":"TOWER","streettype":"LN","suffdir":null,"city":"BENSENVILLE","state_code":"IL","zip5":"60106","latitude":"41.9851120000000000","longitude":"-87.960529000000000","publicwifi":"Y","url":"http://www.robertmorris.edu/library/","broadband_type_id":6}
{"id":null,"anchorname":"SORRENTO ELEMENTARY","address":"24605 WALLICK RD, SORRENTO, FL 32776","bldgnbr":"24605","predir":null,"streetname":"WALLICK","streettype":"RD","suffdir":null,"city":"SORRENTO","state_code":"FL","zip5":"32776","latitude":"28.8155978300000000","longitude":"-81.550458460000000","publicwifi":"Y","url":"0","broadband_type_id":6}
{"id":null,"anchorname":"FLORIDA FISH AND WILDLIFE CONSERVATION COMMISSION HILOCHEE FIELD OFFICE","address":"12932 CR 474, CLERMONT, FL 34714","bldgnbr":"12932","predir":null,"streetname":"COUNTY ROAD 474","streettype":"0","suffdir":null,"city":"CLERMONT","state_code":"FL","zip5":"34714","latitude":"28.3714182300000000","longitude":"-81.736218870000000","publicwifi":"Y","url":"0","broadband_type_id":6}
{"id":null,"anchorname":"PYTHAGORAS CHILDRENS ACADEMY","address":"893 N CHURCH RD","bldgnbr":"893","predir":null,"streetname":"CHURCH","streettype":"RD","suffdir":null,"city":"ELMHURST","state_code":"IL","zip5":"60126","latitude":"41.9278059700000000","longitude":"-87.953489711000000","publicwifi":"U","url":null,"broadband_type_id":6}
{"id":null,"anchorname":"NEW MORNING CHILDRENS HOUSE","address":"400 N WALNUT ST","bldgnbr":"400","predir":"N","streetname":"WALNUT","streettype":null,"suffdir":null,"city":"ITASCA","state_code":"IL","zip5":"60143","latitude":"41.9743366990000000","longitude":"-88.013143613000000","publicwifi":"U","url":null,"broadband_type_id":null}
{"id":null,"anchorname":"ST PETER THE APOSTLE","address":"500 N CHERRY ST","bldgnbr":"500","predir":"\u003cNull\u003e","streetname":"CHERRY","streettype":null,"suffdir":null,"city":"ITASCA","state_code":"IL","zip5":"60143","latitude":"41.9756996250000000","longitude":"-88.008223849000000","publicwifi":"U","url":null,"broadband_type_id":null}
{"id":null,"anchorname":"ELMER H FRANZEN INTERMEDIATE SCH","address":"730 CATALPA AVE","bldgnbr":"730","predir":"N","streetname":"CATALPA","streettype":"ST","suffdir":null,"city":"ITASCA","state_code":"IL","zip5":"60143","latitude":"41.9785190000000000","longitude":"-88.019672000000000","publicwifi":"U","url":null,"broadband_type_id":null}
{"id":null,"anchorname":"ARBOR OF ITASCA","address":"535 SOUTH ELM","bldgnbr":"535","predir":"S","streetname":"ELM","streettype":null,"suffdir":null,"city":"ITASCA","state_code":"IL","zip5":"60143","latitude":"41.9618100000000000","longitude":"-88.011843000000000","publicwifi":"U","url":null,"broadband_type_id":null}
{"id":null,"anchorname":"ELM BROOK HLTH C \u0026 REHAB CTRE","address":"127 WEST DIVERSEY AVENUE","bldgnbr":"127","predir":"W","streetname":"DIVERSEY","streettype":"AVE","suffdir":null,"city":"ELMHURST","state_code":"IL","zip5":"60126","latitude":"41.9281780000000000","longitude":"-87.940740000000000","publicwifi":"U","url":null,"broadband_type_id":null}
{"id":null,"anchorname":"CHILD S VOICE SCHOOL","address":"180 HANSEN CT","bldgnbr":"180","predir":null,"streetname":"HANSEN","streettype":"CT","suffdir":null,"city":"WOOD DALE","state_code":"IL","zip5":"60191","latitude":"41.9812209020000000","longitude":"-87.984421314000000","publicwifi":"U","url":null,"broadband_type_id":6}
{"id":null,"anchorname":"WOOD DALE FIRE PROTECTION DISTRICT","address":"589 NORTH WOOD DALE ROAD","bldgnbr":"589","predir":"N","streetname":"WOOD DALE","streettype":"RD","suffdir":null,"city":"WOOD DALE","state_code":"IL","zip5":"60191","latitude":"41.9722790000000000","longitude":"-87.979001000000000","publicwifi":"U","url":null,"broadband_type_id":5}
{"id":null,"anchorname":"WOOD DALE POLICE DEPARTMENT","address":"404 NORTH WOOD DALE ROAD","bldgnbr":"404","predir":"N","streetname":"WOOD DALE","streettype":"RD","suffdir":null,"city":"WOOD DALE","state_code":"IL","zip5":"60191","latitude":"41.9673210000000000","longitude":"-87.978857000000000","publicwifi":"U","url":null,"broadband_type_id":4}
{"id":null,"anchorname":"WOOD DALE PUBLIC LIBRARY","address":"520 NORTH WOOD DALE ROAD","bldgnbr":"520","predir":"N","streetname":"WOOD DALE","streettype":"RD","suffdir":null,"city":"WOOD DALE","state_code":"IL","zip5":"60191","latitude":"41.9708970000000000","longitude":"-87.978857000000000","publicwifi":"Y","url":"http://www.wooddalelibrary.org/","broadband_type_id":6}
{"id":null,"anchorname":"WOOD DALE FIRE DEPARTMENT","address":"411 PARK LANE","bldgnbr":"411","predir":null,"streetname":"PARK","streettype":"LN","suffdir":null,"city":"WOOD DALE","state_code":"IL","zip5":"60191","latitude":"41.9625380000000000","longitude":"-87.994241000000000","publicwifi":"U","url":null,"broadband_type_id":5}
{"id":null,"anchorname":"WESTVIEW ELEM SCHOOL","address":"200 NORTH ADDISON RD","bldgnbr":"200","predir":"N","streetname":"ADDISON","streettype":"RD","suffdir":null,"city":"WOOD DALE","state_code":"IL","zip5":"60191","latitude":"41.9600500000000000","longitude":"-87.989860000000000","publicwifi":"U","url":null,"broadband_type_id":6}
{"id":null,"anchorname":"HOLY GHOST SCHOOL","address":"260 N WOOD DALE RD","bldgnbr":"260","predir":"\u003cNull\u003e","streetname":"WOOD DALE","streettype":null,"suffdir":null,"city":"WOOD DALE","state_code":"IL","zip5":"60191","latitude":"41.9622710810000000","longitude":"-87.978944055000000","publicwifi":"U","url":null,"broadband_type_id":6}
{"id":null,"anchorname":"LINCOLN ELEM SCHOOL","address":"720 NORTH LINCOLN AVE","bldgnbr":"720","predir":"N","streetname":"LINCOLN","streettype":"AVE","suffdir":null,"city":"ADDISON","state_code":"IL","zip5":"60101","latitude":"41.9400900000000000","longitude":"-87.995471000000000","publicwifi":"U","url":null,"broadband_type_id":6}
{"id":null,"anchorname":"F E PEACOCK MIDDLE SCHOOL","address":"301 EAST NORTH ST","bldgnbr":"301","predir":"E","streetname":"NORTH","streettype":"ST","suffdir":null,"city":"ITASCA","state_code":"IL","zip5":"60143","latitude":"41.9757200000000000","longitude":"-88.010526000000000","publicwifi":"U","url":null,"broadband_type_id":6}
{"id":null,"anchorname":"BRIGHT HORIZONS CHILD CARE \u0026 EARLY EDUCATION","address":"270 WINDSOR DR","bldgnbr":"270","predir":null,"streetname":"WINDSOR","streettype":"DR","suffdir":null,"city":"ITASCA","state_code":"IL","zip5":"60143","latitude":"41.9910641490000000","longitude":"-88.010158698000000","publicwifi":"U","url":null,"broadband_type_id":3}
{"id":null,"anchorname":"ITASCA COMMUNITY LIBRARY","address":"500 WEST IRVING PARK ROAD","bldgnbr":"500","predir":"W","streetname":"IRVING PARK","streettype":"RD","suffdir":null,"city":"ITASCA","state_code":"IL","zip5":"60143","latitude":"41.9713730000000000","longitude":"-88.020790000000000","publicwifi":"Y","url":"http://www.itascalibrary.org/","broadband_type_id":6}
{"id":null,"anchorname":"NATIONAL SAFETY COUNCIL LIBRARY","address":"1121 SPRING LAKE DRIVE","bldgnbr":"1121","predir":null,"streetname":"SPRING LAKE","streettype":"DR","suffdir":null,"city":"ITASCA","state_code":"IL","zip5":"60143","latitude":"41.9645760000000000","longitude":"-88.029340000000000","publicwifi":"Y","url":"http://www.nsc.org/nsc_library/Pages/Home.aspx","broadband_type_id":6}
{"id":null,"anchorname":"RAYMOND BENSON PRIMARY SCHOOL","address":"301 EAST WASHINGTON ST","bldgnbr":"301","predir":"E","streetname":"WASHINGTON","streettype":"ST","suffdir":null,"city":"ITASCA","state_code":"IL","zip5":"60143","latitude":"41.9660230000000000","longitude":"-88.010632000000000","publicwifi":"U","url":null,"broadband_type_id":6}
{"id":null,"anchorname":"LUTHERAN SCHOOL OF ST LUKE","address":"410 S RUSH ST","bldgnbr":"410","predir":"\u003cNull\u003e","streetname":"RUSH","streettype":null,"suffdir":null,"city":"ITASCA","state_code":"IL","zip5":"60143","latitude":"41.9656691630000000","longitude":"-88.009490079000000","publicwifi":"U","url":null,"broadband_type_id":6}
{"id":null,"anchorname":"ARMY TRAIL ELEM SCHOOL","address":"346 WEST ARMY TRAIL BLVD","bldgnbr":"346","predir":null,"streetname":"ARMY TRAIL","streettype":"RD","suffdir":null,"city":"ADDISON","state_code":"IL","zip5":"60101","latitude":"41.9317530000000000","longitude":"-87.997213000000000","publicwifi":"U","url":"HTTP://WWW.ASD4.ORG/","broadband_type_id":6}
{"id":null,"anchorname":"INDIAN TRAIL JR HIGH SCHOOL","address":"222 NORTH JF KENNEDY DR","bldgnbr":"222","predir":"\u003cNull\u003e","streetname":"KENNEDY","streettype":null,"suffdir":null,"city":"ADDISON","state_code":"IL","zip5":"60101","latitude":"41.9324330000000000","longitude":"-87.994425000000000","publicwifi":"U","url":"HTTP://WWW.ASD4.ORG/","broadband_type_id":6}
{"id":null,"anchorname":"ADDISON PUBLIC LIBRARY","address":"4 FRIENDSHIP PLAZA","bldgnbr":"4","predir":null,"streetname":"FRIENDSHIP","streettype":"PLZ","suffdir":null,"city":"ADDISON","state_code":"IL","zip5":"60101","latitude":"41.9336020000000000","longitude":"-87.992775000000000","publicwifi":"Y","url":"http://www.addisonlibrary.org/","broadband_type_id":6}
{"id":null,"anchorname":"ADDISON POLICE DEPARTMENT","address":"131 WEST LAKE ST","bldgnbr":"131","predir":"W","streetname":"LAKE","streettype":"ST","suffdir":null,"city":"ADDISON","state_code":"IL","zip5":"60101","latitude":"41.9333220000000000","longitude":"-87.992026000000000","publicwifi":"U","url":null,"broadband_type_id":4}
{"id":null,"anchorname":"ADDISON TRAIL HIGH SCHOOL","address":"213 NORTH LOMBARD RD","bldgnbr":"213","predir":"N","streetname":"LOMBARD","streettype":"RD","suffdir":null,"city":"ADDISON","state_code":"IL","zip5":"60101","latitude":"41.9303720000000000","longitude":"-88.022366000000000","publicwifi":"U","url":"HTTP://DUPAGE88.NET/","broadband_type_id":6}
{"id":null,"anchorname":"WESLEY ELEM SCHOOL","address":"1111 WEST WESTWOOD TRL","bldgnbr":"1111","predir":"W","streetname":"WESTWOOD","streettype":"TRL","suffdir":null,"city":"ADDISON","state_code":"IL","zip5":"60101","latitude":"41.9366670000000000","longitude":"-88.015240000000000","publicwifi":"U","url":"HTTP://WWW.ASD4.ORG/","broadband_type_id":6}
{"id":null,"anchorname":"ST PHILIP THE APOSTLE SCHOOL","address":"1233 W HOLTZ AVE","bldgnbr":"1233","predir":"\u003cNull\u003e","streetname":"HOLTZ","streettype":null,"suffdir":null,"city":"ADDISON","state_code":"IL","zip5":"60101","latitude":"41.9394029550000000","longitude":"-88.016921484000000","publicwifi":"U","url":"HTTP://WWW.STPHILIPTHEAPOSTLEPARISH.COM/SCHOOL/","broadband_type_id":6}
{"id":null,"anchorname":"STONE ELEM SCHOOL","address":"1404 WEST STONE AVE","bldgnbr":"1404","predir":"W","streetname":"STONE","streettype":"RD","suffdir":null,"city":"ADDISON","state_code":"IL","zip5":"60101","latitude":"41.9349940000000000","longitude":"-88.022590000000000","publicwifi":"U","url":"HTTP://WWW.ASD4.ORG/","broadband_type_id":6}
