{"id":null,"anchorname":"Augusta/Richmond Co Municipal Building","address":"530 Greene St","bldgnbr":"530","predir":null,"streetname":"Greene","streettype":"St","suffdir":null,"city":"AUGUSTA","state_code":"GA","zip5":"30901","latitude":"33.4714810000000000","longitude":"-81.961601000000000","publicwifi":"U","url":null,"broadband_type_id":1}
{"id":null,"anchorname":"Rockdale County Jail","address":"911 Chambers Drive Nw","bldgnbr":"911","predir":null,"streetname":"Chambers","streettype":"Dr","suffdir":"NW","city":"CONYERS","state_code":"GA","zip5":"30012","latitude":"33.6870340000000000","longitude":"-84.058271000000000","publicwifi":"U","url":null,"broadband_type_id":1}
{"id":null,"anchorname":"Georgia Bureau Of Investigation","address":"2120 Iris Dr Sw","bldgnbr":"2120","predir":null,"streetname":"Iris","streettype":"Dr","suffdir":"SW","city":"CONYERS","state_code":"GA","zip5":"30094","latitude":"33.6765167990000000","longitude":"-84.059408624000000","publicwifi":"U","url":null,"broadband_type_id":4}
{"id":null,"anchorname":"Dept Of Juvenile Justice","address":"971 Broad St","bldgnbr":"971","predir":null,"streetname":"Broad","streettype":"St","suffdir":null,"city":"AUGUSTA","state_code":"GA","zip5":"30901","latitude":"33.4767778840000000","longitude":"-81.969616992000000","publicwifi":"U","url":null,"broadband_type_id":null}
{"id":null,"anchorname":"Dept Of Corrections","address":"901 Greene St","bldgnbr":"901","predir":null,"streetname":"Greene","streettype":"St","suffdir":null,"city":"AUGUSTA","state_code":"GA","zip5":"30901","latitude":"33.4742251400000000","longitude":"-81.968471090000000","publicwifi":"U","url":null,"broadband_type_id":null}
{"id":null,"anchorname":"Georgia Bureau Of Investigation","address":"2148 Iris Dr Sw","bldgnbr":"2148","predir":null,"streetname":"Iris","streettype":"Dr","suffdir":"SW","city":"CONYERS","state_code":"GA","zip5":"30094","latitude":"33.6768517610000000","longitude":"-84.060173537000000","publicwifi":"U","url":null,"broadband_type_id":4}
{"id":null,"anchorname":"GREATER FAITH ACADEMY","address":"2035 W PARKER STREET, LAKELAND, FL 33815","bldgnbr":"2035","predir":null,"streetname":"PARKER","streettype":"ST","suffdir":null,"city":"LAKELAND","state_code":"FL","zip5":"33815","latitude":"28.0515936800000000","longitude":"-81.987249060000000","publicwifi":"U","url":"0","broadband_type_id":6}
{"id":null,"anchorname":"Dept Of Human Services","address":"975 Taylor St Sw","bldgnbr":"975","predir":null,"streetname":"Taylor","streettype":"St","suffdir":"SW","city":"CONYERS","state_code":"GA","zip5":"30012","latitude":"33.6642847410000000","longitude":"-84.025085121000000","publicwifi":"U","url":null,"broadband_type_id":6}
{"id":null,"anchorname":"G.M.N. HEAD START-BYESVILLE CT","address":"230 MEEK AVE BYESVILLE, OH 43723-1023","bldgnbr":"230","predir":null,"streetname":"MEEK AVE","streettype":null,"suffdir":null,"city":"BYESVILLE","state_code":"OH","zip5":"43723","latitude":"39.9723800000000000","longitude":"-81.540880000000000","publicwifi":"U","url":null,"broadband_type_id":6}
{"id":null,"anchorname":"Dept Of Labor","address":"601 Greene St","bldgnbr":"601","predir":null,"streetname":"Greene","streettype":"St","suffdir":null,"city":"AUGUSTA","state_code":"GA","zip5":"30901","latitude":"33.4720526400000000","longitude":"-81.962564432000000","publicwifi":"U","url":null,"broadband_type_id":null}
{"id":null,"anchorname":"Alpha House","address":"2760 Zingara Road","bldgnbr":"2760","predir":null,"streetname":"Zingara","streettype":"Rd","suffdir":null,"city":"CONYERS","state_code":"GA","zip5":"30012","latitude":"33.7174330000000000","longitude":"-83.999908000000000","publicwifi":"U","url":null,"broadband_type_id":null}
{"id":null,"anchorname":"Rockdale Co E-911","address":"2120 Farmer Rd Nw","bldgnbr":"2120","predir":null,"streetname":"Farmer","streettype":"Rd","suffdir":"NW","city":"CONYERS","state_code":"GA","zip5":"30012","latitude":"33.7014917610000000","longitude":"-84.022776973000000","publicwifi":"U","url":null,"broadband_type_id":null}
{"id":null,"anchorname":"Rockdale RYDC","address":"2165 Chambers Dr NW","bldgnbr":"2165","predir":null,"streetname":"Chambers","streettype":"Drive","suffdir":"NW","city":"Conyers","state_code":"GA","zip5":"30012","latitude":"33.6852140000000000","longitude":"-84.058784000000000","publicwifi":"U","url":null,"broadband_type_id":null}
{"id":null,"anchorname":"Rockdale-Dekalb Probation Detention Center","address":"2165 Chambers Drive","bldgnbr":"2165","predir":null,"streetname":"Chambers","streettype":"Dr","suffdir":null,"city":"CONYERS","state_code":"GA","zip5":"30012","latitude":"33.6862090000000000","longitude":"-84.055358000000000","publicwifi":"U","url":null,"broadband_type_id":null}
{"id":null,"anchorname":"Peek Street Agr","address":"991 Peek Street Nw","bldgnbr":"991","predir":null,"streetname":"Peek","streettype":"St","suffdir":"NW","city":"CONYERS","state_code":"GA","zip5":"30012","latitude":"33.6690560000000000","longitude":"-84.020470000000000","publicwifi":"U","url":null,"broadband_type_id":null}
{"id":null,"anchorname":"Dept Of Juvenile Justice","address":"987 Taylor St Sw","bldgnbr":"987","predir":null,"streetname":"Taylor","streettype":"St","suffdir":"SW","city":"CONYERS","state_code":"GA","zip5":"30012","latitude":"33.6642552950000000","longitude":"-84.025043631000000","publicwifi":"U","url":null,"broadband_type_id":null}
{"id":null,"anchorname":"Medical College Of Georgia Department Of Public Safety","address":"1120 15Th Street","bldgnbr":"1120","predir":null,"streetname":"15Th","streettype":"St","suffdir":null,"city":"AUGUSTA","state_code":"GA","zip5":"30901","latitude":"33.4767960000000000","longitude":"-81.985196000000000","publicwifi":"U","url":null,"broadband_type_id":3}
{"id":null,"anchorname":"Mcg Health Inc","address":"1120 15Th Street","bldgnbr":"1120","predir":null,"streetname":"15Th","streettype":"St","suffdir":null,"city":"AUGUSTA","state_code":"GA","zip5":"30901","latitude":"33.4710600000000000","longitude":"-81.991190000000000","publicwifi":"U","url":null,"broadband_type_id":3}
{"id":null,"anchorname":"Medical College Of Georgia","address":"1120 15Th Street","bldgnbr":"1120","predir":null,"streetname":"15Th","streettype":"St","suffdir":null,"city":"AUGUSTA","state_code":"GA","zip5":"30901","latitude":"33.4710220000000000","longitude":"-81.991200000000000","publicwifi":"U","url":null,"broadband_type_id":3}
{"id":null,"anchorname":"Augusta Fire Department Station 06","address":"1435 Walton Way","bldgnbr":"1435","predir":null,"streetname":"Walton","streettype":"Way","suffdir":null,"city":"AUGUSTA","state_code":"GA","zip5":"30901","latitude":"33.4741590000000000","longitude":"-81.983459000000000","publicwifi":"U","url":null,"broadband_type_id":5}
{"id":null,"anchorname":"Augusta Fire Department","address":"1099 Reynolds St","bldgnbr":"1099","predir":null,"streetname":"Reynolds","streettype":"St","suffdir":null,"city":"AUGUSTA","state_code":"GA","zip5":"30901","latitude":"33.4788400000000000","longitude":"-81.970146000000000","publicwifi":"U","url":null,"broadband_type_id":5}
{"id":null,"anchorname":"Augusta-Richmond County Public Library","address":"902 Greene Street","bldgnbr":"902","predir":null,"streetname":"Greene","streettype":"St","suffdir":null,"city":"AUGUSTA","state_code":"GA","zip5":"30901","latitude":"33.4740870000000000","longitude":"-81.968956000000000","publicwifi":"U","url":null,"broadband_type_id":6}
{"id":null,"anchorname":"Immaculate Conception School","address":"811 Telfair St","bldgnbr":"811","predir":null,"streetname":"Telfair","streettype":"St","suffdir":null,"city":"AUGUSTA","state_code":"GA","zip5":"30901","latitude":"33.4723096300000000","longitude":"-81.967457158000000","publicwifi":"U","url":null,"broadband_type_id":6}
{"id":null,"anchorname":"Saint John Towers - Plaza Personal Care Center","address":"724 Greene Street","bldgnbr":"724","predir":null,"streetname":"Greene","streettype":"St","suffdir":null,"city":"AUGUSTA","state_code":"GA","zip5":"30901","latitude":"33.4719850000000000","longitude":"-81.965484000000000","publicwifi":"U","url":null,"broadband_type_id":3}
{"id":null,"anchorname":"Richmond County Courthouse","address":"530 Green St","bldgnbr":"530","predir":null,"streetname":"Green","streettype":"St","suffdir":null,"city":"AUGUSTA","state_code":"GA","zip5":"30901","latitude":"33.4714850000000000","longitude":"-81.961594000000000","publicwifi":"U","url":null,"broadband_type_id":1}
{"id":null,"anchorname":"House Elementary School","address":"2930 Highway 20 Ne","bldgnbr":"2930","predir":null,"streetname":"20","streettype":null,"suffdir":"NE","city":"CONYERS","state_code":"GA","zip5":"30012","latitude":"33.7222130000000000","longitude":"-84.005171000000000","publicwifi":"U","url":null,"broadband_type_id":6}
{"id":null,"anchorname":"Rockdale County Fire Department Station 5","address":"2100 Hightower Trail Ne","bldgnbr":"2100","predir":null,"streetname":"Hightower","streettype":"Trl","suffdir":"NE","city":"CONYERS","state_code":"GA","zip5":"30012","latitude":"33.7332330000000000","longitude":"-83.976191000000000","publicwifi":"U","url":null,"broadband_type_id":5}
{"id":null,"anchorname":"Lake Haynes Personal Care Home","address":"1040 Lake Haynes Drive Ne","bldgnbr":"1040","predir":null,"streetname":"Lake Haynes","streettype":"Dr","suffdir":"NE","city":"CONYERS","state_code":"GA","zip5":"30012","latitude":"33.7589690000000000","longitude":"-83.979031000000000","publicwifi":"U","url":null,"broadband_type_id":3}
{"id":null,"anchorname":"Ace Personal Care Home","address":"2132 Arlin Street","bldgnbr":"2132","predir":null,"streetname":"Arlin","streettype":"St","suffdir":null,"city":"CONYERS","state_code":"GA","zip5":"30012","latitude":"33.7034380000000000","longitude":"-83.966298000000000","publicwifi":"U","url":null,"broadband_type_id":3}
{"id":null,"anchorname":"Rockdale Co Sheriff'S Dept","address":"911 Chambers Dr Nw","bldgnbr":"911","predir":null,"streetname":"Chambers","streettype":"Dr","suffdir":"NW","city":"CONYERS","state_code":"GA","zip5":"30012","latitude":"33.6842379270000000","longitude":"-84.058549654000000","publicwifi":"U","url":null,"broadband_type_id":4}
{"id":null,"anchorname":"Rockdale County Sheriff","address":"911 Chambers Drive Nw","bldgnbr":"911","predir":null,"streetname":"Chambers","streettype":"Dr","suffdir":"NW","city":"CONYERS","state_code":"GA","zip5":"30012","latitude":"33.6866140000000000","longitude":"-84.057300000000000","publicwifi":"U","url":null,"broadband_type_id":4}
{"id":null,"anchorname":"In His Image Personal Care Home","address":"1024 Falls Brooke Drive Sw","bldgnbr":"1024","predir":null,"streetname":"Falls Brooke","streettype":"Dr","suffdir":"SW","city":"CONYERS","state_code":"GA","zip5":"30094","latitude":"33.6651520000000000","longitude":"-84.088416000000000","publicwifi":"U","url":null,"broadband_type_id":3}
{"id":null,"anchorname":"Shoal Creek Elementary School","address":"1300 Mcwilliams Rd Sw","bldgnbr":"1300","predir":null,"streetname":"Mcwilliams","streettype":"Rd","suffdir":"SW","city":"CONYERS","state_code":"GA","zip5":"30094","latitude":"33.6545920000000000","longitude":"-84.063197000000000","publicwifi":"U","url":null,"broadband_type_id":6}
{"id":null,"anchorname":"Southside Personal Care Home","address":"2210 Independence Drive Sw","bldgnbr":"2210","predir":null,"streetname":"Independence","streettype":"Dr","suffdir":"SW","city":"CONYERS","state_code":"GA","zip5":"30094","latitude":"33.6330180000000000","longitude":"-84.052330000000000","publicwifi":"U","url":null,"broadband_type_id":3}
{"id":null,"anchorname":"Heritage High School","address":"2400 Granade Rd Sw","bldgnbr":"2400","predir":null,"streetname":"Granade","streettype":"Rd","suffdir":"SW","city":"CONYERS","state_code":"GA","zip5":"30094","latitude":"33.6271610000000000","longitude":"-84.049103000000000","publicwifi":"U","url":null,"broadband_type_id":6}
{"id":null,"anchorname":"Rockdale County Public Schools","address":"954 N Main St","bldgnbr":"954","predir":"N","streetname":"Main","streettype":"St","suffdir":null,"city":"Conyers","state_code":"GA","zip5":"30012","latitude":"33.6691161300000000","longitude":"-84.018713822000000","publicwifi":"U","url":null,"broadband_type_id":6}
{"id":null,"anchorname":"Rockdale County Health Department","address":"985 Taylor Street","bldgnbr":"985","predir":null,"streetname":"Taylor","streettype":"St","suffdir":null,"city":"CONYERS","state_code":"GA","zip5":"30012","latitude":"33.6647130000000000","longitude":"-84.024580000000000","publicwifi":"U","url":null,"broadband_type_id":3}
{"id":null,"anchorname":"Nancy Guinn Memorial Library","address":"864 Green Street","bldgnbr":"864","predir":null,"streetname":"Green","streettype":"St","suffdir":null,"city":"CONYERS","state_code":"GA","zip5":"30012","latitude":"33.6653560000000000","longitude":"-84.017891000000000","publicwifi":"U","url":null,"broadband_type_id":6}
{"id":null,"anchorname":"HEARTLAND REHABILITATION SERVICES OF FLORIDA LLC","address":"2710 BLANDING BLVD, MIDDLEBURG, FL, 32068","bldgnbr":"2710","predir":"0","streetname":"BLANDING","streettype":"BLVD","suffdir":"0","city":"MIDDLEBURG","state_code":"FL","zip5":"32068","latitude":"30.0610100000000000","longitude":"-81.876939000000000","publicwifi":"U","url":"0","broadband_type_id":6}
{"id":null,"anchorname":"State Board Of Pardons And Paroles","address":"997 Commerce Dr Sw","bldgnbr":"997","predir":null,"streetname":"Commerce","streettype":"Dr","suffdir":"SW","city":"CONYERS","state_code":"GA","zip5":"30094","latitude":"33.6553321520000000","longitude":"-84.022584995000000","publicwifi":"U","url":null,"broadband_type_id":6}
{"id":null,"anchorname":"Rockdale Center For Higher Education","address":"1115 West Avenue","bldgnbr":"1115","predir":null,"streetname":"West","streettype":"Ave","suffdir":null,"city":"CONYERS","state_code":"GA","zip5":"30012","latitude":"33.6684760000000000","longitude":"-84.026039000000000","publicwifi":"U","url":null,"broadband_type_id":6}
{"id":null,"anchorname":"Excel Christian Academy","address":"1825 Highway 138 Ne","bldgnbr":"1825","predir":null,"streetname":"138","streettype":null,"suffdir":"NE","city":"CONYERS","state_code":"GA","zip5":"30013","latitude":"33.6705409080000000","longitude":"-83.984605797000000","publicwifi":"U","url":null,"broadband_type_id":6}
{"id":null,"anchorname":"Atlanta Perinatal Associates- Conyers","address":"1368 Wellbrook Circle","bldgnbr":"1368","predir":null,"streetname":"Wellbrook","streettype":"Circle","suffdir":null,"city":"Conyers","state_code":"GA","zip5":"30012","latitude":"33.6783630720000000","longitude":"-84.003006969000000","publicwifi":"U","url":null,"broadband_type_id":6}
{"id":null,"anchorname":"ACHIEVEMENT ACADEMY","address":"716 E BELLA VISTA STREET, LAKELAND, FL 33805","bldgnbr":"716","predir":null,"streetname":"BELLA VISTA","streettype":"ST","suffdir":null,"city":"LAKELAND","state_code":"FL","zip5":"33805","latitude":"28.0701195400000000","longitude":"-81.950887370000000","publicwifi":"Y","url":"0","broadband_type_id":6}
{"id":null,"anchorname":"PLEASANT HILL ACADEMY","address":"2525 TRAFALGAR BLVD, KISSIMMEE, FL 34759","bldgnbr":"2525","predir":null,"streetname":"TRAFALGAR","streettype":"BLVD","suffdir":null,"city":"KISSIMMEE","state_code":"FL","zip5":"34759","latitude":"28.1279598400000000","longitude":"-81.462011540000000","publicwifi":"U","url":"0","broadband_type_id":6}
{"id":null,"anchorname":"Tgs Kidz Academy","address":"2130 Bridgestone Business Pkwy Ne","bldgnbr":"2130","predir":null,"streetname":"Bridgestone Business","streettype":"Parkway","suffdir":"NE","city":"CONYERS","state_code":"GA","zip5":"30012","latitude":"33.6762936300000000","longitude":"-83.980151609000000","publicwifi":"U","url":null,"broadband_type_id":6}
{"id":null,"anchorname":"Delta House","address":"1091 Pine Street Ne","bldgnbr":"1091","predir":null,"streetname":"Pine","streettype":"St","suffdir":"NE","city":"CONYERS","state_code":"GA","zip5":"30012","latitude":"33.6661180000000000","longitude":"-84.011538000000000","publicwifi":"U","url":null,"broadband_type_id":null}
{"id":null,"anchorname":"The Magnolias","address":"964 S Main Street","bldgnbr":"964","predir":"S","streetname":"Main","streettype":"St","suffdir":null,"city":"CONYERS","state_code":"GA","zip5":"30012","latitude":"33.6659590000000000","longitude":"-84.015676000000000","publicwifi":"U","url":null,"broadband_type_id":null}
{"id":null,"anchorname":"Dept Of Corrections","address":"365 Salem Gate Dr Se","bldgnbr":"365","predir":null,"streetname":"Salem Gate","streettype":"Dr","suffdir":"SE","city":"CONYERS","state_code":"GA","zip5":"30013","latitude":"33.6497224740000000","longitude":"-83.999215259000000","publicwifi":"U","url":null,"broadband_type_id":null}
{"id":null,"anchorname":"River Chase","address":"1616 Riverside Trail Ne","bldgnbr":"1616","predir":null,"streetname":"Riverside","streettype":"Trl","suffdir":"NE","city":"CONYERS","state_code":"GA","zip5":"30013","latitude":"33.6842640000000000","longitude":"-83.960517000000000","publicwifi":"U","url":null,"broadband_type_id":null}
{"id":null,"anchorname":"No Name","address":"2206 Eastview Parkway Ne","bldgnbr":"2206","predir":null,"streetname":"Eastview","streettype":"Pkwy","suffdir":"NE","city":"CONYERS","state_code":"GA","zip5":"30012","latitude":"33.6667280000000000","longitude":"-83.975533000000000","publicwifi":"U","url":null,"broadband_type_id":null}
{"id":null,"anchorname":"Eastside","address":"1703 Conductor Lane Ne","bldgnbr":"1703","predir":null,"streetname":"Conductor","streettype":"Ln","suffdir":"NE","city":"CONYERS","state_code":"GA","zip5":"30013","latitude":"33.6383290000000000","longitude":"-83.967745000000000","publicwifi":"U","url":null,"broadband_type_id":null}
{"id":null,"anchorname":"Remington House","address":"1508 Renaissance Drive","bldgnbr":"1508","predir":null,"streetname":"Renaissance","streettype":"Dr","suffdir":null,"city":"CONYERS","state_code":"GA","zip5":"30012","latitude":"33.6800070000000000","longitude":"-83.990750000000000","publicwifi":"U","url":null,"broadband_type_id":null}
{"id":null,"anchorname":"Azalea Gardens","address":"1358 Manchester Drive Ne","bldgnbr":"1358","predir":null,"streetname":"Manchester","streettype":"Dr","suffdir":"NE","city":"CONYERS","state_code":"GA","zip5":"30012","latitude":"33.6787960000000000","longitude":"-83.995072000000000","publicwifi":"U","url":null,"broadband_type_id":null}
{"id":null,"anchorname":"Morningside Of Conyers","address":"1352 Wellbrook Circle Ne","bldgnbr":"1352","predir":null,"streetname":"Wellbrook","streettype":"Cir","suffdir":"NE","city":"CONYERS","state_code":"GA","zip5":"30012","latitude":"33.6771200000000000","longitude":"-84.001596000000000","publicwifi":"U","url":null,"broadband_type_id":null}
{"id":null,"anchorname":"Conyers City Hall","address":"1194 Scott St","bldgnbr":"1194","predir":null,"streetname":"Scott","streettype":"St","suffdir":null,"city":"CONYERS","state_code":"GA","zip5":"30012","latitude":"33.6589850000000000","longitude":"-84.016884000000000","publicwifi":"U","url":null,"broadband_type_id":1}
{"id":null,"anchorname":"Conyers Police Department","address":"1194 Scott Street","bldgnbr":"1194","predir":null,"streetname":"Scott","streettype":"St","suffdir":null,"city":"CONYERS","state_code":"GA","zip5":"30012","latitude":"33.6586620000000000","longitude":"-84.016525000000000","publicwifi":"U","url":null,"broadband_type_id":4}
{"id":null,"anchorname":"Highland Circle Personal Care Home","address":"1028 Highland Circle","bldgnbr":"1028","predir":null,"streetname":"Highland","streettype":"Cir","suffdir":null,"city":"CONYERS","state_code":"GA","zip5":"30012","latitude":"33.6590070000000000","longitude":"-84.013617000000000","publicwifi":"U","url":null,"broadband_type_id":3}
{"id":null,"anchorname":"Rockdale County Fire Department Station 8","address":"1164 Scott Street Sw","bldgnbr":"1164","predir":null,"streetname":"Scott","streettype":"St","suffdir":"SW","city":"CONYERS","state_code":"GA","zip5":"30012","latitude":"33.6596740000000000","longitude":"-84.016857000000000","publicwifi":"U","url":null,"broadband_type_id":5}
{"id":null,"anchorname":"Eastminster School","address":"2450 Lennox Rd Se","bldgnbr":"2450","predir":null,"streetname":"Lennox","streettype":"Road","suffdir":"SE","city":"CONYERS","state_code":"GA","zip5":"30094","latitude":"33.6254312020000000","longitude":"-84.020958332000000","publicwifi":"U","url":null,"broadband_type_id":6}
{"id":null,"anchorname":"Rockdale County Fire Department Station 7","address":"1496 Rockbridge Road Nw","bldgnbr":"1496","predir":null,"streetname":"Rockbridge","streettype":"Rd","suffdir":"NW","city":"CONYERS","state_code":"GA","zip5":"30012","latitude":"33.6825030000000000","longitude":"-84.030587000000000","publicwifi":"U","url":null,"broadband_type_id":5}
{"id":null,"anchorname":"His Academy Christian School","address":"2360 Old Covington Hwy Sw","bldgnbr":"2360","predir":null,"streetname":"Covington","streettype":"Hwy","suffdir":"SW","city":"CONYERS","state_code":"GA","zip5":"30012","latitude":"33.6739557170000000","longitude":"-84.041073693000000","publicwifi":"U","url":null,"broadband_type_id":6}
{"id":null,"anchorname":"Rockdale County Courthouse","address":"922 Court St","bldgnbr":"922","predir":null,"streetname":"Court","streettype":"St","suffdir":null,"city":"CONYERS","state_code":"GA","zip5":"30012","latitude":"33.6676670000000000","longitude":"-84.016708000000000","publicwifi":"U","url":null,"broadband_type_id":1}
{"id":null,"anchorname":"Victory Christian School","address":"1151 Flat Shoals Rd Se","bldgnbr":"1151","predir":null,"streetname":"Flat Shoals","streettype":"Road","suffdir":"SE","city":"CONYERS","state_code":"GA","zip5":"30013","latitude":"33.6409105480000000","longitude":"-84.006544651000000","publicwifi":"U","url":null,"broadband_type_id":6}
{"id":null,"anchorname":"Heritage Home Care","address":"1855 Old Salem Road Sw","bldgnbr":"1855","predir":null,"streetname":"Salem","streettype":"Rd","suffdir":"SW","city":"CONYERS","state_code":"GA","zip5":"30013","latitude":"33.6401940000000000","longitude":"-84.000432000000000","publicwifi":"U","url":null,"broadband_type_id":3}
{"id":null,"anchorname":"Brighter Beginning 2 Personal Care Home","address":"2817 Briar Hill Lane Sw","bldgnbr":"2817","predir":null,"streetname":"Briar Hill","streettype":"Ln","suffdir":"SW","city":"CONYERS","state_code":"GA","zip5":"30013","latitude":"33.6133560000000000","longitude":"-83.976894000000000","publicwifi":"U","url":null,"broadband_type_id":3}
{"id":null,"anchorname":"Walker Lake Breeze Personal Care Home Ii","address":"3107 Salem Road Sw","bldgnbr":"3107","predir":null,"streetname":"Salem","streettype":"Rd","suffdir":"SW","city":"CONYERS","state_code":"GA","zip5":"30013","latitude":"33.6068350000000000","longitude":"-83.973600000000000","publicwifi":"U","url":null,"broadband_type_id":3}
{"id":null,"anchorname":"Wonder Years Personal Care Home","address":"3321 Old Salem Road Sw","bldgnbr":"3321","predir":null,"streetname":"Salem","streettype":"Rd","suffdir":"SW","city":"CONYERS","state_code":"GA","zip5":"30013","latitude":"33.6027990000000000","longitude":"-83.977974000000000","publicwifi":"U","url":null,"broadband_type_id":3}
{"id":null,"anchorname":"Salem High School","address":"3551 Underwood Rd Se","bldgnbr":"3551","predir":null,"streetname":"Underwood","streettype":"Rd","suffdir":"SE","city":"CONYERS","state_code":"GA","zip5":"30013","latitude":"33.5951720000000000","longitude":"-83.987616000000000","publicwifi":"U","url":null,"broadband_type_id":6}
{"id":null,"anchorname":"Memorial Middle School","address":"3205 Underwood Rd Se","bldgnbr":"3205","predir":null,"streetname":"Underwood","streettype":"Rd","suffdir":"SE","city":"CONYERS","state_code":"GA","zip5":"30013","latitude":"33.6025540000000000","longitude":"-83.988569000000000","publicwifi":"U","url":null,"broadband_type_id":6}
{"id":null,"anchorname":"Flat Shoals Elementary School","address":"1455 Flat Shoals Rd Se","bldgnbr":"1455","predir":null,"streetname":"Flat Shoals","streettype":"Rd","suffdir":"SE","city":"CONYERS","state_code":"GA","zip5":"30013","latitude":"33.6359970000000000","longitude":"-83.998166000000000","publicwifi":"U","url":null,"broadband_type_id":6}
{"id":null,"anchorname":"Peachtree Academy Primary School","address":"1801 Ellington Rd Se","bldgnbr":"1801","predir":null,"streetname":"Ellington","streettype":"Road","suffdir":"SE","city":"CONYERS","state_code":"GA","zip5":"30013","latitude":"33.6246848110000000","longitude":"-83.983217220000000","publicwifi":"U","url":null,"broadband_type_id":6}
{"id":null,"anchorname":"Rockdale County Fire Department Station 3","address":"2450 Old Salem Road Sw","bldgnbr":"2450","predir":null,"streetname":"Salem","streettype":"Rd","suffdir":"SW","city":"CONYERS","state_code":"GA","zip5":"30013","latitude":"33.6239450000000000","longitude":"-83.996465000000000","publicwifi":"U","url":null,"broadband_type_id":5}
{"id":null,"anchorname":"Rockdale Healthcare Center","address":"1510 Ne Renaissance Drive","bldgnbr":"1510","predir":"NE","streetname":"Renaissance","streettype":"Dr","suffdir":null,"city":"CONYERS","state_code":"GA","zip5":"30012","latitude":"33.6823260000000000","longitude":"-83.989009000000000","publicwifi":"U","url":null,"broadband_type_id":3}
{"id":null,"anchorname":"Westbury Health And Rehabilitation Center - Conyers","address":"1420 Milstead Road Ne","bldgnbr":"1420","predir":null,"streetname":"Milstead","streettype":"Rd","suffdir":"NE","city":"CONYERS","state_code":"GA","zip5":"30012","latitude":"33.6809210000000000","longitude":"-83.999554000000000","publicwifi":"U","url":null,"broadband_type_id":3}
{"id":null,"anchorname":"Pine Street Elementary School","address":"960 Pine St Ne","bldgnbr":"960","predir":null,"streetname":"Pine","streettype":"St","suffdir":"NE","city":"CONYERS","state_code":"GA","zip5":"30012","latitude":"33.6673690000000000","longitude":"-84.013611000000000","publicwifi":"U","url":null,"broadband_type_id":6}
{"id":null,"anchorname":"Rockdale County High School","address":"1174 Bulldog Cir Ne","bldgnbr":"1174","predir":null,"streetname":"Bulldog","streettype":"Cir","suffdir":"NE","city":"CONYERS","state_code":"GA","zip5":"30012","latitude":"33.6664380000000000","longitude":"-84.009709000000000","publicwifi":"U","url":null,"broadband_type_id":6}
{"id":null,"anchorname":"Hicks Elementary School","address":"930 Rowland Rd Ne","bldgnbr":"930","predir":null,"streetname":"Rowland","streettype":"Rd","suffdir":"NE","city":"CONYERS","state_code":"GA","zip5":"30012","latitude":"33.6681660000000000","longitude":"-84.006099000000000","publicwifi":"U","url":null,"broadband_type_id":6}
{"id":null,"anchorname":"CINNAMON STREET BAPTIST CHRISTIAN ACADEMY","address":"29 CINNAMON ST, MIDDLEBURG, FL 32068","bldgnbr":"29","predir":null,"streetname":"CINNAMON","streettype":"ST","suffdir":null,"city":"MIDDLEBURG","state_code":"FL","zip5":"32068","latitude":"30.0651232400000000","longitude":"-81.901700020000000","publicwifi":"U","url":"0","broadband_type_id":6}
{"id":null,"anchorname":"ISMAEL RODRIGUEZ M D P A","address":"2001 KINGSLEY AVE, ORANGE PARK, FL, 32073","bldgnbr":"2001","predir":"0","streetname":"KINGSLEY","streettype":"AVE","suffdir":"0","city":"ORANGE PARK","state_code":"FL","zip5":"32073","latitude":"30.1648620000000000","longitude":"-81.737162000000000","publicwifi":"U","url":"0","broadband_type_id":6}
{"id":null,"anchorname":"All About Kids","address":"2815 Highway 212 Sw","bldgnbr":"2815","predir":null,"streetname":"212","streettype":null,"suffdir":"SW","city":"CONYERS","state_code":"GA","zip5":"30094","latitude":"33.6066052310000000","longitude":"-84.074399106000000","publicwifi":"U","url":null,"broadband_type_id":null}
{"id":null,"anchorname":"STATE OF FLORIDA AUDITOR GENERAL","address":"5015 S FLORIDA AVE, LAKELAND, FL 33813","bldgnbr":"5015","predir":null,"streetname":"FLORIDA","streettype":"AVE","suffdir":null,"city":"LAKELAND","state_code":"FL","zip5":"33813","latitude":"27.9746012100000000","longitude":"-81.960545120000000","publicwifi":"Y","url":"0","broadband_type_id":1}
{"id":null,"anchorname":"LIGHTHOUSE LEARNING CENTER","address":"550 KINGSLEY AVE, ORANGE PARK, FL 32073","bldgnbr":"550","predir":null,"streetname":"KINGSLEY","streettype":"AVE","suffdir":null,"city":"ORANGE PARK","state_code":"FL","zip5":"32073","latitude":"30.1650405700000000","longitude":"-81.705493640000000","publicwifi":"Y","url":"0","broadband_type_id":6}
{"id":null,"anchorname":"Education Safari Academy","address":"3411 Ga Highway 20 Se","bldgnbr":"3411","predir":null,"streetname":"20","streettype":null,"suffdir":"SE","city":"CONYERS","state_code":"GA","zip5":"30013","latitude":"33.5989152680000000","longitude":"-84.014702492000000","publicwifi":"U","url":null,"broadband_type_id":6}
{"id":null,"anchorname":"OUR CHILDREN'S ACADEMY","address":"555 BURNS AVE, LAKE WALES, FL 33853","bldgnbr":"555","predir":null,"streetname":"BURNS","streettype":"AVE","suffdir":null,"city":"LAKE WALES","state_code":"FL","zip5":"33853","latitude":"27.9141605300000000","longitude":"-81.579943450000000","publicwifi":"Y","url":"0","broadband_type_id":6}
{"id":null,"anchorname":"Department Of Public Safety -Letpp Project","address":"222 Hayes Ave","bldgnbr":"222","predir":null,"streetname":"Hayes","streettype":"Ave","suffdir":null,"city":"ELLAVILLE","state_code":"GA","zip5":"31806","latitude":"32.2361118720000000","longitude":"-84.298755624000000","publicwifi":"N","url":null,"broadband_type_id":4}
{"id":null,"anchorname":"Hidden Pines","address":"34 Pine Street","bldgnbr":"34","predir":null,"streetname":"Pine","streettype":"St","suffdir":null,"city":"ELLAVILLE","state_code":"GA","zip5":"31806","latitude":"32.2482230000000000","longitude":"-84.299618000000000","publicwifi":"U","url":null,"broadband_type_id":6}
{"id":null,"anchorname":"Jr And C Assisted Living Center","address":"2195 Waynesboro Hwy","bldgnbr":"2195","predir":null,"streetname":"Waynesboro","streettype":"Hwy","suffdir":null,"city":"SYLVANIA","state_code":"GA","zip5":"30467","latitude":"32.8789160000000000","longitude":"-81.655769000000000","publicwifi":"U","url":null,"broadband_type_id":6}
{"id":null,"anchorname":"Screven County Correctional Institution","address":"859 Rocky Ford Road","bldgnbr":"859","predir":null,"streetname":"Rocky Ford","streettype":"Rd","suffdir":null,"city":"SYLVANIA","state_code":"GA","zip5":"30467","latitude":"32.7508350000000000","longitude":"-81.670140000000000","publicwifi":"U","url":null,"broadband_type_id":1}
{"id":null,"anchorname":"Colonial House","address":"1735 Colonial S Drive Sw","bldgnbr":"1735","predir":null,"streetname":"Colonial S","streettype":"Dr","suffdir":"SW","city":"CONYERS","state_code":"GA","zip5":"30094","latitude":"33.5566930000000000","longitude":"-84.044867000000000","publicwifi":"U","url":null,"broadband_type_id":null}
{"id":null,"anchorname":"Rockdale Hospital And Health System","address":"1412 Milstead Avenue Ne","bldgnbr":"1412","predir":null,"streetname":"Milstead","streettype":"Ave","suffdir":"NE","city":"CONYERS","state_code":"GA","zip5":"30012","latitude":"33.6792800000000000","longitude":"-84.006210000000000","publicwifi":"U","url":null,"broadband_type_id":3}
{"id":null,"anchorname":"Georgia Department Of Natural Resources Law Enforcement - Panola Mountain State Park","address":"2600 State Highway 155 Sw","bldgnbr":"2600","predir":null,"streetname":"155","streettype":null,"suffdir":"SW","city":"LITHONIA","state_code":"GA","zip5":"30038","latitude":"33.6258250000000000","longitude":"-84.171540000000000","publicwifi":"U","url":null,"broadband_type_id":2}
{"id":null,"anchorname":"Rockdale County Fire Department Station 4","address":"3601 Union Church Road Sw","bldgnbr":"3601","predir":null,"streetname":"Union Church","streettype":"Rd","suffdir":"SW","city":"STOCKBRIDGE","state_code":"GA","zip5":"30281","latitude":"33.5936840000000000","longitude":"-84.138183000000000","publicwifi":"U","url":null,"broadband_type_id":5}
{"id":null,"anchorname":"Edwards Middle School","address":"2633 Stanton Rd Se","bldgnbr":"2633","predir":null,"streetname":"Stanton","streettype":"Rd","suffdir":"SE","city":"CONYERS","state_code":"GA","zip5":"30094","latitude":"33.6150250000000000","longitude":"-84.030479000000000","publicwifi":"U","url":null,"broadband_type_id":6}
{"id":null,"anchorname":"Young Americans Christian School","address":"1701 Honey Creek Rd Se","bldgnbr":"1701","predir":null,"streetname":"Honey Creek","streettype":"Road","suffdir":"SE","city":"CONYERS","state_code":"GA","zip5":"30013","latitude":"33.5911320900000000","longitude":"-83.994318817000000","publicwifi":"U","url":null,"broadband_type_id":6}
{"id":null,"anchorname":"We Care Quarters","address":"2720 Glad Dale Drive Sw","bldgnbr":"2720","predir":null,"streetname":"Glad Dale","streettype":"Dr","suffdir":"SW","city":"CONYERS","state_code":"GA","zip5":"30094","latitude":"33.6172740000000000","longitude":"-84.036741000000000","publicwifi":"U","url":null,"broadband_type_id":3}
{"id":null,"anchorname":"Sims Elementary School","address":"1821 Walker Rd Sw","bldgnbr":"1821","predir":null,"streetname":"Walker","streettype":"Rd","suffdir":"SW","city":"CONYERS","state_code":"GA","zip5":"30094","latitude":"33.6205590000000000","longitude":"-84.051491000000000","publicwifi":"U","url":null,"broadband_type_id":6}
{"id":null,"anchorname":"General Ray Davis Middle School","address":"3343 E Fairview Rd Sw","bldgnbr":"3343","predir":"E","streetname":"Fairview","streettype":"Rd","suffdir":"SW","city":"STOCKBRIDGE","state_code":"GA","zip5":"30281","latitude":"33.5943470000000000","longitude":"-84.097389000000000","publicwifi":"U","url":null,"broadband_type_id":6}
{"id":null,"anchorname":"Lorraine Elementary School","address":"3343 East Fairview Rd Sw","bldgnbr":"3343","predir":"E","streetname":"Fairview","streettype":"Road","suffdir":"SW","city":"STOCKBRIDGE","state_code":"GA","zip5":"30281","latitude":"33.5744708910000000","longitude":"-84.115585891000000","publicwifi":"U","url":null,"broadband_type_id":6}
{"id":null,"anchorname":"New Life Path Personal Care Home","address":"565 Clubhouse Drive Sw","bldgnbr":"565","predir":null,"streetname":"Clubhouse","streettype":"Dr","suffdir":"SW","city":"CONYERS","state_code":"GA","zip5":"30094","latitude":"33.5862410000000000","longitude":"-84.030191000000000","publicwifi":"U","url":null,"broadband_type_id":3}
{"id":null,"anchorname":"Rockdale County Fire Department Station 2","address":"4088 Troupe Smith Road Sw","bldgnbr":"4088","predir":null,"streetname":"Troupe Smith","streettype":"Rd","suffdir":"SW","city":"CONYERS","state_code":"GA","zip5":"30094","latitude":"33.5807970000000000","longitude":"-84.039868000000000","publicwifi":"U","url":null,"broadband_type_id":5}
{"id":null,"anchorname":"Barksdale Elementary School","address":"596 Oglesby Bridge Rd Se","bldgnbr":"596","predir":null,"streetname":"Oglesby Bridge","streettype":"Rd","suffdir":"SE","city":"CONYERS","state_code":"GA","zip5":"30094","latitude":"33.5660690000000000","longitude":"-84.028816000000000","publicwifi":"U","url":null,"broadband_type_id":6}
{"id":null,"anchorname":"Ellaville Police Department","address":"48 N Pecan Street","bldgnbr":"48","predir":"N","streetname":"Pecan","streettype":"St","suffdir":null,"city":"ELLAVILLE","state_code":"GA","zip5":"31806","latitude":"32.2390170000000000","longitude":"-84.310250000000000","publicwifi":"N","url":"www.ellavillega.org","broadband_type_id":4}
{"id":null,"anchorname":"Schley County Fire And Emergency Medical Services","address":"67 W College Street","bldgnbr":"67","predir":"W","streetname":"College","streettype":"St","suffdir":null,"city":"ELLAVILLE","state_code":"GA","zip5":"31806","latitude":"32.2392800000000000","longitude":"-84.310194000000000","publicwifi":"N","url":"www.ellavillega.org","broadband_type_id":3}
{"id":null,"anchorname":"Schley County Sheriffs Office / Schley County Jail","address":"48 N Pecan Street","bldgnbr":"48","predir":"N","streetname":"Pecan","streettype":"St","suffdir":null,"city":"ELLAVILLE","state_code":"GA","zip5":"31806","latitude":"32.2390180000000000","longitude":"-84.310251000000000","publicwifi":"N","url":"www.ellavillega.org","broadband_type_id":4}
{"id":null,"anchorname":"Schley County Courthouse","address":"Us 19 Ga 26","bldgnbr":"26","predir":null,"streetname":"US 19","streettype":null,"suffdir":null,"city":"ELLAVILLE","state_code":"GA","zip5":"31806","latitude":"32.2380450000000000","longitude":"-84.309204000000000","publicwifi":"N","url":null,"broadband_type_id":1}
{"id":null,"anchorname":"Schley County Health Department","address":"45 W Oglethorpe Street","bldgnbr":"45","predir":"W","streetname":"Oglethorpe","streettype":"St","suffdir":null,"city":"ELLAVILLE","state_code":"GA","zip5":"31806","latitude":"32.2377710000000000","longitude":"-84.309792000000000","publicwifi":"U","url":"www.columbushealth.com","broadband_type_id":3}
{"id":null,"anchorname":"Benchmark Health Care System","address":"769 McMickle Road","bldgnbr":"769","predir":null,"streetname":"McMickle","streettype":"Road","suffdir":null,"city":"Ellaville","state_code":"GA","zip5":"31806","latitude":"32.3190917840000000","longitude":"-84.364651983000000","publicwifi":"U","url":null,"broadband_type_id":3}
{"id":null,"anchorname":"Schley Middle High School","address":"2131 Us Highway 19 S","bldgnbr":"2131","predir":null,"streetname":"19","streettype":null,"suffdir":"S","city":"ELLAVILLE","state_code":"GA","zip5":"31806","latitude":"32.2148320000000000","longitude":"-84.363980000000000","publicwifi":"N","url":"www.schleyk12.org","broadband_type_id":6}
{"id":null,"anchorname":"Hiltonia City Hall","address":"140 2Nd Ave","bldgnbr":"140","predir":null,"streetname":"2Nd","streettype":"Ave","suffdir":null,"city":"SYLVANIA","state_code":"GA","zip5":"30467","latitude":"32.8835870000000000","longitude":"-81.661133000000000","publicwifi":"U","url":null,"broadband_type_id":1}
{"id":null,"anchorname":"Hiltonia Police Department","address":"140 2Nd Avenue","bldgnbr":"140","predir":null,"streetname":"2Nd","streettype":"Ave","suffdir":null,"city":"SYLVANIA","state_code":"GA","zip5":"30467","latitude":"32.8837120000000000","longitude":"-81.661347000000000","publicwifi":"U","url":null,"broadband_type_id":4}
{"id":null,"anchorname":"Williams Personal Care Home","address":"191 C Street","bldgnbr":"191","predir":null,"streetname":"C","streettype":"St","suffdir":null,"city":"SYLVANIA","state_code":"GA","zip5":"30467","latitude":"32.8816880000000000","longitude":"-81.658150000000000","publicwifi":"U","url":null,"broadband_type_id":3}
{"id":null,"anchorname":"Hiltonia Volunteer Fire Department","address":"2400 Waynesboro Highway","bldgnbr":"2400","predir":null,"streetname":"Waynesboro","streettype":"Hwy","suffdir":null,"city":"SYLVANIA","state_code":"GA","zip5":"30467","latitude":"32.8850240000000000","longitude":"-81.658374000000000","publicwifi":"U","url":null,"broadband_type_id":5}
{"id":null,"anchorname":"Savannah River Challenge","address":"626 Old River Rd","bldgnbr":"626","predir":null,"streetname":"River","streettype":"Road","suffdir":null,"city":"SYLVANIA","state_code":"GA","zip5":"30467","latitude":"32.8375297630000000","longitude":"-81.484611145000000","publicwifi":"U","url":null,"broadband_type_id":1}
{"id":null,"anchorname":"Georgia Department Of Juvenile Justice - Savannah River Challenge Program","address":"626 Old River Road","bldgnbr":"626","predir":null,"streetname":"River","streettype":"Rd","suffdir":null,"city":"SYLVANIA","state_code":"GA","zip5":"30467","latitude":"32.8364970000000000","longitude":"-81.482391000000000","publicwifi":"U","url":null,"broadband_type_id":1}
{"id":null,"anchorname":"Screven County Fire Department Station 9","address":"149 Millerville Road","bldgnbr":"149","predir":null,"streetname":"Millerville","streettype":"Rd","suffdir":null,"city":"SYLVANIA","state_code":"GA","zip5":"30467","latitude":"32.7729570000000000","longitude":"-81.763368000000000","publicwifi":"U","url":null,"broadband_type_id":5}
{"id":null,"anchorname":"Screven County Sheriffs Department / Screven County Jail","address":"202 Rocky Ford Road","bldgnbr":"202","predir":null,"streetname":"Rocky Ford","streettype":"Rd","suffdir":null,"city":"SYLVANIA","state_code":"GA","zip5":"30467","latitude":"32.7506890000000000","longitude":"-81.649403000000000","publicwifi":"U","url":null,"broadband_type_id":4}
{"id":null,"anchorname":"KAREN M SIEGEL ACADEMY","address":"935 EVENHOUSE RD, LAKE ALFRED, FL, 33850","bldgnbr":"935","predir":"0","streetname":"EVENHOUSE","streettype":"RD","suffdir":"0","city":"LAKE ALFRED","state_code":"FL","zip5":"33850","latitude":"28.1100910000000000","longitude":"-81.719829000000000","publicwifi":"Y","url":"0","broadband_type_id":6}
{"id":null,"anchorname":"FLORIDA DEPARTMENT OF BUSINESS AND PROFESSIONAL REGULATION","address":"455 PARK AVENUE, ORANGE PARK, FL, 32073","bldgnbr":"455","predir":"0","streetname":"PARK","streettype":"AVENUE","suffdir":"0","city":"ORANGE PARK","state_code":"FL","zip5":"32073","latitude":"30.1845850000000000","longitude":"-81.701671000000000","publicwifi":"Y","url":"0","broadband_type_id":6}
{"id":null,"anchorname":"FRANK E BRIGHAM ACADEMY","address":"601 AVENUE C SE, WINTER HAVEN, FL 33880","bldgnbr":"601","predir":null,"streetname":"C","streettype":"0","suffdir":null,"city":"WINTER HAVEN","state_code":"FL","zip5":"33880","latitude":"28.0189248600000000","longitude":"-81.717984900000000","publicwifi":"Y","url":"0","broadband_type_id":6}
{"id":null,"anchorname":"Dept Of Public Safety","address":"329 Rocky Ford Rd","bldgnbr":"329","predir":null,"streetname":"Rocky Ford","streettype":"Rd","suffdir":null,"city":"SYLVANIA","state_code":"GA","zip5":"30467","latitude":"32.7508514800000000","longitude":"-81.647639676000000","publicwifi":"U","url":null,"broadband_type_id":4}
{"id":null,"anchorname":"Georgia State Patrol Troop F Post 21 - Sylvania","address":"329 Rocky Ford Road","bldgnbr":"329","predir":null,"streetname":"Rocky Ford","streettype":"Rd","suffdir":null,"city":"SYLVANIA","state_code":"GA","zip5":"30467","latitude":"32.7491110000000000","longitude":"-81.652701000000000","publicwifi":"U","url":null,"broadband_type_id":4}
{"id":null,"anchorname":"Gerdie And Louise","address":"104 Robbins Street","bldgnbr":"104","predir":null,"streetname":"Robbins","streettype":"St","suffdir":null,"city":"SYLVANIA","state_code":"GA","zip5":"30467","latitude":"32.7546420000000000","longitude":"-81.630465000000000","publicwifi":"U","url":null,"broadband_type_id":6}
{"id":null,"anchorname":"Sylvania Way","address":"803 W Ogeechee Street","bldgnbr":"803","predir":"W","streetname":"Ogeechee","streettype":"St","suffdir":null,"city":"SYLVANIA","state_code":"GA","zip5":"30467","latitude":"32.7377230000000000","longitude":"-81.648675000000000","publicwifi":"U","url":null,"broadband_type_id":null}
{"id":null,"anchorname":"Dept Of Transportation","address":"1017 W Ogeechee St","bldgnbr":"1017","predir":"W","streetname":"Ogeechee","streettype":"St","suffdir":null,"city":"SYLVANIA","state_code":"GA","zip5":"30467","latitude":"32.7319144960000000","longitude":"-81.652487948000000","publicwifi":"U","url":null,"broadband_type_id":null}
{"id":null,"anchorname":"Dept Of Juvenile Justice","address":"107 N Main St","bldgnbr":"107","predir":"N","streetname":"Main","streettype":"St","suffdir":null,"city":"SYLVANIA","state_code":"GA","zip5":"30467","latitude":"32.7608079650000000","longitude":"-81.637256726000000","publicwifi":"U","url":null,"broadband_type_id":null}
{"id":null,"anchorname":"Hendrix Family Home","address":"109 Argus Place","bldgnbr":"109","predir":null,"streetname":"Argus","streettype":"Pl","suffdir":null,"city":"SYLVANIA","state_code":"GA","zip5":"30467","latitude":"32.7512640000000000","longitude":"-81.630953000000000","publicwifi":"U","url":null,"broadband_type_id":null}
{"id":null,"anchorname":"City Of Sylvania Police Dept","address":"216 Mims Rd","bldgnbr":"216","predir":null,"streetname":"Mims","streettype":"Rd","suffdir":null,"city":"SYLVANIA","state_code":"GA","zip5":"30467","latitude":"32.7507198000000000","longitude":"-81.646591107000000","publicwifi":"U","url":null,"broadband_type_id":4}
{"id":null,"anchorname":"Syl-View Health Care Center","address":"411 Pine Street","bldgnbr":"411","predir":null,"streetname":"Pine","streettype":"St","suffdir":null,"city":"SYLVANIA","state_code":"GA","zip5":"30467","latitude":"32.7447570000000000","longitude":"-81.650615000000000","publicwifi":"U","url":null,"broadband_type_id":3}
{"id":null,"anchorname":"Screven County Elementary School","address":"1333 Frontage Rd E","bldgnbr":"1333","predir":null,"streetname":"Frontage Road","streettype":null,"suffdir":"E","city":"SYLVANIA","state_code":"GA","zip5":"30467","latitude":"32.7337260000000000","longitude":"-81.654443000000000","publicwifi":"U","url":null,"broadband_type_id":6}
{"id":null,"anchorname":"Screven County Fire Department Station 1","address":"618 Frontage Road W","bldgnbr":"618","predir":null,"streetname":"Frontage Road","streettype":null,"suffdir":"W","city":"SYLVANIA","state_code":"GA","zip5":"30467","latitude":"32.7608640000000000","longitude":"-81.651558000000000","publicwifi":"U","url":null,"broadband_type_id":5}
{"id":null,"anchorname":"Screven County Library","address":"106 Community Drive","bldgnbr":"106","predir":null,"streetname":"Community","streettype":"Dr","suffdir":null,"city":"SYLVANIA","state_code":"GA","zip5":"30467","latitude":"32.7498440000000000","longitude":"-81.643486000000000","publicwifi":"U","url":null,"broadband_type_id":6}
{"id":null,"anchorname":"Screven County Courthouse","address":"216 Mims Rd","bldgnbr":"216","predir":null,"streetname":"Mims","streettype":"Rd","suffdir":null,"city":"SYLVANIA","state_code":"GA","zip5":"30467","latitude":"32.7500190000000000","longitude":"-81.645584000000000","publicwifi":"U","url":null,"broadband_type_id":1}
{"id":null,"anchorname":"Sylvania Fire Department","address":"216 Mims Road","bldgnbr":"216","predir":null,"streetname":"Mims","streettype":"Rd","suffdir":null,"city":"SYLVANIA","state_code":"GA","zip5":"30467","latitude":"32.7504040000000000","longitude":"-81.644682000000000","publicwifi":"U","url":null,"broadband_type_id":5}
{"id":null,"anchorname":"City Of Sylvania Police Department","address":"216 Mims Road","bldgnbr":"216","predir":null,"streetname":"Mims","streettype":"Rd","suffdir":null,"city":"SYLVANIA","state_code":"GA","zip5":"30467","latitude":"32.7508040000000000","longitude":"-81.644997000000000","publicwifi":"U","url":null,"broadband_type_id":4}
{"id":null,"anchorname":"Screven County Hospital","address":"215 Mims Road","bldgnbr":"215","predir":null,"streetname":"Mims","streettype":"Rd","suffdir":null,"city":"SYLVANIA","state_code":"GA","zip5":"30467","latitude":"32.7510200000000000","longitude":"-81.646770000000000","publicwifi":"U","url":null,"broadband_type_id":3}
{"id":null,"anchorname":"Sylvania City Hall","address":"104 S Main St","bldgnbr":"104","predir":"S","streetname":"Main","streettype":"St","suffdir":null,"city":"SYLVANIA","state_code":"GA","zip5":"30467","latitude":"32.7500530000000000","longitude":"-81.636482000000000","publicwifi":"U","url":null,"broadband_type_id":1}
{"id":null,"anchorname":"SCREVEN COUNTY LIBRARY","address":"106 SOUTH COMMUNITY DRIVE","bldgnbr":"106","predir":"South","streetname":"COMMUNITY","streettype":"Drive","suffdir":null,"city":"SYLVANIA","state_code":"GA","zip5":"30467","latitude":"32.7485750000000000","longitude":"-81.642468000000000","publicwifi":"U","url":null,"broadband_type_id":6}
{"id":null,"anchorname":"Screven County Volunteer Fire Department Station 8","address":"2900 Old Poor Robin Road","bldgnbr":"2900","predir":null,"streetname":"Poor Robin","streettype":"Rd","suffdir":null,"city":"SYLVANIA","state_code":"GA","zip5":"30467","latitude":"32.7119940000000000","longitude":"-81.505162000000000","publicwifi":"U","url":null,"broadband_type_id":5}
{"id":null,"anchorname":"Dennis And Delsie Adult Care Home","address":"217 Saint Andrews Street","bldgnbr":"217","predir":null,"streetname":"Saint Andrews","streettype":"St","suffdir":null,"city":"SYLVANIA","state_code":"GA","zip5":"30467","latitude":"32.7554420000000000","longitude":"-81.632478000000000","publicwifi":"U","url":null,"broadband_type_id":3}
{"id":null,"anchorname":"Ogeechee Behavioral Health Services","address":"302 E Ogeechee St","bldgnbr":"302","predir":"E","streetname":"Ogeechee","streettype":"St","suffdir":null,"city":"SYLVANIA","state_code":"GA","zip5":"30467","latitude":"32.7521454200000000","longitude":"-81.631094595000000","publicwifi":"U","url":null,"broadband_type_id":3}
{"id":null,"anchorname":"Patricia'S Adults Care Home","address":"206 Saint Andrews Street","bldgnbr":"206","predir":null,"streetname":"Saint Andrews","streettype":"St","suffdir":null,"city":"SYLVANIA","state_code":"GA","zip5":"30467","latitude":"32.7548600000000000","longitude":"-81.633218000000000","publicwifi":"U","url":null,"broadband_type_id":3}
{"id":null,"anchorname":"Screven County Middle School","address":"126 Friendship Rd","bldgnbr":"126","predir":null,"streetname":"Friendship","streettype":"Rd","suffdir":null,"city":"SYLVANIA","state_code":"GA","zip5":"30467","latitude":"32.7532810000000000","longitude":"-81.624630000000000","publicwifi":"U","url":null,"broadband_type_id":6}
{"id":null,"anchorname":"Screven County High School","address":"110 Halcyondale Rd","bldgnbr":"110","predir":null,"streetname":"Halcyondale","streettype":"Rd","suffdir":null,"city":"SYLVANIA","state_code":"GA","zip5":"30467","latitude":"32.7394580000000000","longitude":"-81.631527000000000","publicwifi":"U","url":null,"broadband_type_id":6}
{"id":null,"anchorname":"Newington Area Volunteer Fire Department","address":"201 Church Street","bldgnbr":"201","predir":null,"streetname":"Church","streettype":"St","suffdir":null,"city":"NEWINGTON","state_code":"GA","zip5":"30446","latitude":"32.5886740000000000","longitude":"-81.503903000000000","publicwifi":"U","url":null,"broadband_type_id":5}
{"id":null,"anchorname":"Newington City Hall","address":"201 Walton St","bldgnbr":"201","predir":null,"streetname":"Walton","streettype":"St","suffdir":null,"city":"NEWINGTON","state_code":"GA","zip5":"30446","latitude":"32.5888790000000000","longitude":"-81.503922000000000","publicwifi":"U","url":null,"broadband_type_id":1}
{"id":null,"anchorname":"Newington Police Department","address":"201 Church Street","bldgnbr":"201","predir":null,"streetname":"Church","streettype":"St","suffdir":null,"city":"NEWINGTON","state_code":"GA","zip5":"30446","latitude":"32.5886680000000000","longitude":"-81.503873000000000","publicwifi":"U","url":null,"broadband_type_id":4}
{"id":null,"anchorname":"Oliver City Hall","address":"6069 Effingham Hwy","bldgnbr":"6069","predir":null,"streetname":"Effingham","streettype":"Hwy","suffdir":null,"city":"NEWINGTON","state_code":"GA","zip5":"30446","latitude":"32.5214810000000000","longitude":"-81.532242000000000","publicwifi":"U","url":null,"broadband_type_id":1}
{"id":null,"anchorname":"Lewis Family Care Home","address":"2870 Effingham Hwy","bldgnbr":"2870","predir":null,"streetname":"Effingham","streettype":"Hwy","suffdir":null,"city":"SYLVANIA","state_code":"GA","zip5":"30467","latitude":"32.5596510000000000","longitude":"-81.627251000000000","publicwifi":"U","url":null,"broadband_type_id":3}
{"id":null,"anchorname":"Screven County Fire Department Station 3","address":"6596 Statesboro Highway","bldgnbr":"6596","predir":null,"streetname":"Statesboro","streettype":"Hwy","suffdir":null,"city":"SYLVANIA","state_code":"GA","zip5":"30467","latitude":"32.5903360000000000","longitude":"-81.704689000000000","publicwifi":"U","url":null,"broadband_type_id":5}
{"id":null,"anchorname":"Screven County Fire Department Station 6","address":"192 Brinson Street","bldgnbr":"192","predir":null,"streetname":"Brinson","streettype":"St","suffdir":null,"city":"ROCKY FORD","state_code":"GA","zip5":"30455","latitude":"32.6645660000000000","longitude":"-81.827027000000000","publicwifi":"U","url":null,"broadband_type_id":5}
{"id":null,"anchorname":"Jenk Hill Volunteer Fire Department","address":"1170 Jenk Hill Road","bldgnbr":"1170","predir":null,"streetname":"Jenk Hill","streettype":"Rd","suffdir":null,"city":"SYLVANIA","state_code":"GA","zip5":"30467","latitude":"32.6668170000000000","longitude":"-81.704859000000000","publicwifi":"U","url":null,"broadband_type_id":5}
{"id":null,"anchorname":"Rocky Ford City Hall","address":"7694 Rocky Ford Rd","bldgnbr":"7694","predir":null,"streetname":"Rocky Ford","streettype":"Rd","suffdir":null,"city":"ROCKY FORD","state_code":"GA","zip5":"30455","latitude":"32.6629370000000000","longitude":"-81.830544000000000","publicwifi":"U","url":null,"broadband_type_id":1}
{"id":null,"anchorname":"Rocky Ford Police Department Headquarters","address":"160 Main Street","bldgnbr":"160","predir":null,"streetname":"Main","streettype":"St","suffdir":null,"city":"ROCKY FORD","state_code":"GA","zip5":"30455","latitude":"32.6632980000000000","longitude":"-81.830530000000000","publicwifi":"U","url":null,"broadband_type_id":4}
{"id":null,"anchorname":"Georgia Department Of Natural Resources Law Enforcement - Seminole State Park","address":"7870 State Park Drive","bldgnbr":"7870","predir":null,"streetname":"State Park","streettype":"Dr","suffdir":null,"city":"DONALSONVILLE","state_code":"GA","zip5":"39845","latitude":"30.8048780000000000","longitude":"-84.878914000000000","publicwifi":"U","url":null,"broadband_type_id":2}
{"id":null,"anchorname":"Iron City City Hall","address":"City Hall","bldgnbr":"N/A","predir":null,"streetname":"City Hall","streettype":null,"suffdir":null,"city":"IRON CITY","state_code":"GA","zip5":"39859","latitude":"31.0141200000000000","longitude":"-84.812714000000000","publicwifi":"U","url":null,"broadband_type_id":1}
{"id":null,"anchorname":"Iron City Volunteer Fire Department","address":"115 N Church Street","bldgnbr":"115","predir":"N","streetname":"Church","streettype":"St","suffdir":null,"city":"IRON CITY","state_code":"GA","zip5":"39859","latitude":"31.0142140000000000","longitude":"-84.812962000000000","publicwifi":"U","url":null,"broadband_type_id":5}
{"id":null,"anchorname":"Seminole County Middle/High School","address":"5582 Ga Highway 39","bldgnbr":"5582","predir":null,"streetname":"39","streettype":null,"suffdir":null,"city":"DONALSONVILLE","state_code":"GA","zip5":"39845","latitude":"31.0298960000000000","longitude":"-84.849944000000000","publicwifi":"U","url":null,"broadband_type_id":6}
{"id":null,"anchorname":"FLORIDA DEPARTMENT OF CHILDREN AND FAMILIES","address":"1845 TOWN CENTER BLVD, ORANGE PARK, FL, 32003","bldgnbr":"1845","predir":"0","streetname":"TOWN CENTER","streettype":"BLVD","suffdir":"0","city":"ORANGE PARK","state_code":"FL","zip5":"32003","latitude":"30.0956606200000000","longitude":"-81.713173870000000","publicwifi":"Y","url":"0","broadband_type_id":6}
{"id":null,"anchorname":"Department Of Public Safety -Letpp Project","address":"208 Court St","bldgnbr":"208","predir":null,"streetname":"Court","streettype":"St","suffdir":null,"city":"DONALSONVILLE","state_code":"GA","zip5":"31745","latitude":"31.0418521100000000","longitude":"-84.885683283000000","publicwifi":"U","url":null,"broadband_type_id":4}
{"id":null,"anchorname":"Dept Of Human Services","address":"108 W 4Th St","bldgnbr":"108","predir":"W","streetname":"4Th","streettype":"St","suffdir":null,"city":"DONALSONVILLE","state_code":"GA","zip5":"39845","latitude":"31.0390880390000000","longitude":"-84.882755824000000","publicwifi":"U","url":null,"broadband_type_id":6}
{"id":null,"anchorname":"Griffin Christian Academy","address":"2000 W Mcintosh Rd","bldgnbr":"2000","predir":"W","streetname":"Mcintosh","streettype":"Road","suffdir":null,"city":"GRIFFIN","state_code":"GA","zip5":"30223","latitude":"33.2897942260000000","longitude":"-84.211926153000000","publicwifi":"U","url":null,"broadband_type_id":6}
{"id":null,"anchorname":"Great Gran'S Pch","address":"1002 N. Wiley Avenue","bldgnbr":"1002","predir":"N","streetname":"Wiley","streettype":"Ave","suffdir":null,"city":"DONALSONVILLE","state_code":"GA","zip5":"39845","latitude":"31.0531490000000000","longitude":"-84.880288000000000","publicwifi":"U","url":null,"broadband_type_id":null}
{"id":null,"anchorname":"Mcintosh Trail Community Service Board","address":"1435 N. Expressway","bldgnbr":"1435","predir":"N","streetname":"Expressway","streettype":null,"suffdir":null,"city":"GRIFFIN","state_code":"GA","zip5":"30224","latitude":"33.2606869610000000","longitude":"-84.263614626000000","publicwifi":"U","url":null,"broadband_type_id":1}
{"id":null,"anchorname":"Desir Support Service 2","address":"112 Mcintosh Circle","bldgnbr":"112","predir":null,"streetname":"Mcintosh","streettype":"Cir","suffdir":null,"city":"GRIFFIN","state_code":"GA","zip5":"30223","latitude":"33.2801890000000000","longitude":"-84.258597000000000","publicwifi":"U","url":null,"broadband_type_id":6}
{"id":null,"anchorname":"GA Industries for the Blind","address":"235 Emlet Dr","bldgnbr":"235","predir":null,"streetname":"Emlet","streettype":"Dr","suffdir":null,"city":"GRIFFIN","state_code":"GA","zip5":"30223","latitude":"33.2645758710000000","longitude":"-84.259467222000000","publicwifi":"U","url":null,"broadband_type_id":6}
{"id":null,"anchorname":"Chestnut Manor","address":"13 Chestnut Street","bldgnbr":"13","predir":null,"streetname":"Chestnut","streettype":"St","suffdir":null,"city":"GRIFFIN","state_code":"GA","zip5":"30223","latitude":"33.2624250000000000","longitude":"-84.277736000000000","publicwifi":"U","url":null,"broadband_type_id":6}
{"id":null,"anchorname":"Dept Of Corrections","address":"223 S Wiley Ave","bldgnbr":"223","predir":"S","streetname":"Wiley","streettype":"Ave","suffdir":null,"city":"DONALSONVILLE","state_code":"GA","zip5":"39845","latitude":"31.0417451410000000","longitude":"-84.882439307000000","publicwifi":"U","url":null,"broadband_type_id":null}
{"id":null,"anchorname":"Donalsonville Probation Office","address":"223 S Wiley Avenue","bldgnbr":"223","predir":"S","streetname":"Wiley","streettype":"Ave","suffdir":null,"city":"DONALSONVILLE","state_code":"GA","zip5":"39845","latitude":"31.0407310000000000","longitude":"-84.882280000000000","publicwifi":"U","url":null,"broadband_type_id":null}
{"id":null,"anchorname":"Loving Touch Ministries","address":"1660 Hallmark Hills Drive","bldgnbr":"1660","predir":null,"streetname":"Hallmark Hills","streettype":"Dr","suffdir":null,"city":"GRIFFIN","state_code":"GA","zip5":"30223","latitude":"33.2777870000000000","longitude":"-84.296678000000000","publicwifi":"U","url":null,"broadband_type_id":6}
{"id":null,"anchorname":"ROOSEVELT ACADEMY","address":"115 E STREET, LAKE WALES, FL 33853","bldgnbr":"115","predir":null,"streetname":"E","streettype":"ST","suffdir":null,"city":"LAKE WALES","state_code":"FL","zip5":"33853","latitude":"27.9106921100000000","longitude":"-81.595009810000000","publicwifi":"Y","url":"0","broadband_type_id":6}
{"id":null,"anchorname":"GAUSE ACADEMY OF LEADERSHIP","address":"1395 W POLK STREET, BARTOW, FL 33830","bldgnbr":"1395","predir":null,"streetname":"POLK","streettype":"ST","suffdir":null,"city":"BARTOW","state_code":"FL","zip5":"33830","latitude":"27.8994623200000000","longitude":"-81.857619260000000","publicwifi":"Y","url":"0","broadband_type_id":6}
{"id":null,"anchorname":"Dept Of Juvenile Justice","address":"200 S Knox Ave","bldgnbr":"200","predir":"S","streetname":"Knox","streettype":"Ave","suffdir":null,"city":"DONALSONVILLE","state_code":"GA","zip5":"31745","latitude":"31.0418733950000000","longitude":"-84.884233938000000","publicwifi":"U","url":null,"broadband_type_id":null}
{"id":null,"anchorname":"Chance","address":"1645 N 2Nd Street Extension","bldgnbr":"1645","predir":"N","streetname":"2Nd","streettype":"St","suffdir":null,"city":"GRIFFIN","state_code":"GA","zip5":"30223","latitude":"33.2832580000000000","longitude":"-84.233149000000000","publicwifi":"U","url":null,"broadband_type_id":null}
{"id":null,"anchorname":"Mainstay","address":"200 A Z Kelsey Ave","bldgnbr":"200","predir":null,"streetname":"A Z Kelsey","streettype":"Ave","suffdir":null,"city":"GRIFFIN","state_code":"GA","zip5":"30223","latitude":"33.2582385100000000","longitude":"-84.260011354000000","publicwifi":"U","url":null,"broadband_type_id":null}
{"id":null,"anchorname":"Dept Of Juvenile Justice","address":"1435 N. Expressway","bldgnbr":"1435","predir":"N","streetname":"Expressway","streettype":null,"suffdir":null,"city":"GRIFFIN","state_code":"GA","zip5":"30224","latitude":"33.2606869610000000","longitude":"-84.263614626000000","publicwifi":"U","url":null,"broadband_type_id":null}
{"id":null,"anchorname":"Seminole Manor Nursing Home","address":"100 Florence Street","bldgnbr":"100","predir":null,"streetname":"Florence","streettype":"St","suffdir":null,"city":"DONALSONVILLE","state_code":"GA","zip5":"39845","latitude":"31.0503560000000000","longitude":"-84.882355000000000","publicwifi":"U","url":null,"broadband_type_id":3}
{"id":null,"anchorname":"Department Of Public Health","address":"904 N Wiley Ave","bldgnbr":"904","predir":"N","streetname":"Wiley","streettype":"Ave","suffdir":null,"city":"DONALSONVILLE","state_code":"GA","zip5":"39845","latitude":"31.0511853750000000","longitude":"-84.880123332000000","publicwifi":"U","url":null,"broadband_type_id":3}
{"id":null,"anchorname":"Donalsonville City Hall","address":"2Nd St","bldgnbr":"N/A","predir":null,"streetname":"2nd","streettype":"St","suffdir":null,"city":"DONALSONVILLE","state_code":"GA","zip5":"39845","latitude":"31.0417790000000000","longitude":"-84.881119000000000","publicwifi":"U","url":null,"broadband_type_id":1}
{"id":null,"anchorname":"Donalsonville Fire Department","address":"220 S Woolfork Avenue","bldgnbr":"220","predir":"S","streetname":"Woolfork","streettype":"Ave","suffdir":null,"city":"DONALSONVILLE","state_code":"GA","zip5":"39845","latitude":"31.0409780000000000","longitude":"-84.881182000000000","publicwifi":"U","url":null,"broadband_type_id":5}
{"id":null,"anchorname":"Donalsonville Police Department","address":"204 S Woolfork Avenue","bldgnbr":"204","predir":"S","streetname":"Woolfork","streettype":"Ave","suffdir":null,"city":"DONALSONVILLE","state_code":"GA","zip5":"39845","latitude":"31.0415800000000000","longitude":"-84.881208000000000","publicwifi":"U","url":null,"broadband_type_id":4}
{"id":null,"anchorname":"Seminole County Courthouse","address":"Second St","bldgnbr":"N/A","predir":null,"streetname":"Second","streettype":"St","suffdir":null,"city":"DONALSONVILLE","state_code":"GA","zip5":"39845","latitude":"31.0418190000000000","longitude":"-84.884354000000000","publicwifi":"U","url":null,"broadband_type_id":1}
{"id":null,"anchorname":"Seminole County Sheriffs Office / Seminole County Jail","address":"208 Court Street","bldgnbr":"208","predir":null,"streetname":"Court","streettype":"St","suffdir":null,"city":"DONALSONVILLE","state_code":"GA","zip5":"39845","latitude":"31.0418590000000000","longitude":"-84.885064000000000","publicwifi":"U","url":null,"broadband_type_id":4}
{"id":null,"anchorname":"Seminole County Public Library","address":"104 W Fourth Street","bldgnbr":"104","predir":"W","streetname":"Fourth","streettype":"St","suffdir":null,"city":"DONALSONVILLE","state_code":"GA","zip5":"39845","latitude":"31.0389770000000000","longitude":"-84.883324000000000","publicwifi":"U","url":null,"broadband_type_id":6}
{"id":null,"anchorname":"Seminole County Elementary School","address":"800 Marianna Hwy","bldgnbr":"800","predir":null,"streetname":"Marianna","streettype":"Hwy","suffdir":null,"city":"DONALSONVILLE","state_code":"GA","zip5":"39845","latitude":"31.0320940000000000","longitude":"-84.880024000000000","publicwifi":"U","url":null,"broadband_type_id":6}
{"id":null,"anchorname":"Sunnyside City Hall","address":"School Road","bldgnbr":"N/A","predir":null,"streetname":"School","streettype":"Rd","suffdir":null,"city":"HAMPTON","state_code":"GA","zip5":"30228","latitude":"33.3404660000000000","longitude":"-84.294426000000000","publicwifi":"U","url":null,"broadband_type_id":1}
{"id":null,"anchorname":"Spalding County Fire Department Station 4","address":"4245 Old Atlanta Road","bldgnbr":"4245","predir":null,"streetname":"Atlanta","streettype":"Rd","suffdir":null,"city":"GRIFFIN","state_code":"GA","zip5":"30223","latitude":"33.3229250000000000","longitude":"-84.286744000000000","publicwifi":"U","url":null,"broadband_type_id":5}
{"id":null,"anchorname":"Beaverbrook Elementary School","address":"251 Birdie Rd","bldgnbr":"251","predir":null,"streetname":"Birdie","streettype":"Rd","suffdir":null,"city":"GRIFFIN","state_code":"GA","zip5":"30223","latitude":"33.3192830000000000","longitude":"-84.294756000000000","publicwifi":"U","url":null,"broadband_type_id":6}
{"id":null,"anchorname":"Spalding County Fire Department Station 3","address":"3865 Jackson Road","bldgnbr":"3865","predir":null,"streetname":"Jackson","streettype":"Rd","suffdir":null,"city":"GRIFFIN","state_code":"GA","zip5":"30223","latitude":"33.2900720000000000","longitude":"-84.176023000000000","publicwifi":"U","url":null,"broadband_type_id":5}
{"id":null,"anchorname":"Johnson Road Personal Care Home","address":"416 Johnson Road","bldgnbr":"416","predir":null,"streetname":"Johnson","streettype":"Rd","suffdir":null,"city":"GRIFFIN","state_code":"GA","zip5":"30223","latitude":"33.3316380000000000","longitude":"-84.190313000000000","publicwifi":"U","url":null,"broadband_type_id":3}
{"id":null,"anchorname":"Jean Gibson Personal Care Home","address":"914 Greer Road","bldgnbr":"914","predir":null,"streetname":"Greer","streettype":"Rd","suffdir":null,"city":"GRIFFIN","state_code":"GA","zip5":"30223","latitude":"33.2795280000000000","longitude":"-84.251811000000000","publicwifi":"U","url":null,"broadband_type_id":3}
{"id":null,"anchorname":"Atkinson Elementary School","address":"307 Atkinson Dr","bldgnbr":"307","predir":null,"streetname":"Atkinson","streettype":"Drive","suffdir":null,"city":"GRIFFIN","state_code":"GA","zip5":"30223","latitude":"33.2706270000000000","longitude":"-84.260234000000000","publicwifi":"U","url":null,"broadband_type_id":6}
{"id":null,"anchorname":"Moore Elementary School","address":"201 Cabin Creek Dr","bldgnbr":"201","predir":null,"streetname":"Cabin Creek","streettype":"Dr","suffdir":null,"city":"GRIFFIN","state_code":"GA","zip5":"30223","latitude":"33.2572550000000000","longitude":"-84.261264000000000","publicwifi":"U","url":null,"broadband_type_id":6}
{"id":null,"anchorname":"Briceland Loving Personal Care Iii","address":"707 E Mcintosh Road","bldgnbr":"707","predir":"E","streetname":"Mcintosh","streettype":"Rd","suffdir":null,"city":"GRIFFIN","state_code":"GA","zip5":"30223","latitude":"33.2806670000000000","longitude":"-84.261317000000000","publicwifi":"U","url":null,"broadband_type_id":3}
{"id":null,"anchorname":"Spalding County Fire Department Station 6","address":"1843 N Hill Street Extension","bldgnbr":"1843","predir":"N","streetname":"Hill","streettype":"St","suffdir":null,"city":"GRIFFIN","state_code":"GA","zip5":"30223","latitude":"33.2829020000000000","longitude":"-84.263168000000000","publicwifi":"U","url":null,"broadband_type_id":5}
{"id":null,"anchorname":"Heritage Healthcare Of Griffin","address":"619 Northside Drive","bldgnbr":"619","predir":null,"streetname":"Northside","streettype":"Dr","suffdir":null,"city":"Griffin","state_code":"GA","zip5":"30223","latitude":"33.2692220000000000","longitude":"-84.264729000000000","publicwifi":"U","url":null,"broadband_type_id":3}
{"id":null,"anchorname":"Cowan Road Middle School","address":"1185 Cowan Rd","bldgnbr":"1185","predir":null,"streetname":"Cowan","streettype":"Rd","suffdir":null,"city":"GRIFFIN","state_code":"GA","zip5":"30223","latitude":"33.2768960000000000","longitude":"-84.305911000000000","publicwifi":"U","url":null,"broadband_type_id":6}
{"id":null,"anchorname":"Cowan Road Elementary School","address":"1233 Cowan Rd","bldgnbr":"1233","predir":null,"streetname":"Cowan","streettype":"Rd","suffdir":null,"city":"GRIFFIN","state_code":"GA","zip5":"30223","latitude":"33.2794290000000000","longitude":"-84.305957000000000","publicwifi":"U","url":null,"broadband_type_id":6}
{"id":null,"anchorname":"Brightmoor Assisted Living And Memory Care Facility","address":"3223 Newnan Road","bldgnbr":"3223","predir":null,"streetname":"Newnan","streettype":"Rd","suffdir":null,"city":"GRIFFIN","state_code":"GA","zip5":"30223","latitude":"33.2426700000000000","longitude":"-84.347681000000000","publicwifi":"U","url":null,"broadband_type_id":3}
{"id":null,"anchorname":"CLAY COUNTY CENTER FOR ADULT \u0026 COMMUNITY EDUCATION","address":"2306 KINGSLEY AVE, ORANGE PARK, FL 32073","bldgnbr":"2306","predir":null,"streetname":"KINGSLEY","streettype":"AVE","suffdir":null,"city":"ORANGE PARK","state_code":"FL","zip5":"32073","latitude":"30.1637866800000000","longitude":"-81.744237180000000","publicwifi":"Y","url":"0","broadband_type_id":6}
{"id":null,"anchorname":"CLAY COUNTY TAX COLLECTOR","address":"275 S LAWRENCE BLVD, KEYSTONE HEIGHTS, FL 32656","bldgnbr":"275","predir":null,"streetname":"LAWRENCE","streettype":"BLVD","suffdir":null,"city":"KEYSTONE HEIGHTS","state_code":"FL","zip5":"32656","latitude":"29.7839109300000000","longitude":"-82.030849750000000","publicwifi":"Y","url":"0","broadband_type_id":1}
{"id":null,"anchorname":"Desir Support Service","address":"120 Delray Circle","bldgnbr":"120","predir":null,"streetname":"Delray","streettype":"Cir","suffdir":null,"city":"GRIFFIN","state_code":"GA","zip5":"30224","latitude":"33.2295720000000000","longitude":"-84.336638000000000","publicwifi":"U","url":null,"broadband_type_id":6}
{"id":null,"anchorname":"Mayas Assistant Living","address":"321 S 12Th Street","bldgnbr":"321","predir":"S","streetname":"12Th","streettype":"St","suffdir":null,"city":"GRIFFIN","state_code":"GA","zip5":"30224","latitude":"33.2451270000000000","longitude":"-84.272300000000000","publicwifi":"U","url":null,"broadband_type_id":6}
{"id":null,"anchorname":"Spalding County Correctional Institution","address":"295 Justice Boulevard","bldgnbr":"295","predir":null,"streetname":"Justice","streettype":"Blvd","suffdir":null,"city":"GRIFFIN","state_code":"GA","zip5":"30212","latitude":"33.2361910000000000","longitude":"-84.293033000000000","publicwifi":"U","url":null,"broadband_type_id":1}
{"id":null,"anchorname":"ALL SAINTS' ACADEMY","address":"5001 SR 540 W, WINTER HAVEN, FL 33880","bldgnbr":"5001","predir":null,"streetname":"STATE ROAD 540","streettype":"0","suffdir":null,"city":"WINTER HAVEN","state_code":"FL","zip5":"33880","latitude":"28.0116063900000000","longitude":"-81.800784820000000","publicwifi":"U","url":"0","broadband_type_id":6}
{"id":null,"anchorname":"Spalding County Juvenile Court","address":"429 E Soloman St","bldgnbr":"429","predir":"E","streetname":"Soloman","streettype":"St","suffdir":null,"city":"GRIFFIN","state_code":"GA","zip5":"30223","latitude":"33.2488940000000000","longitude":"-84.257721000000000","publicwifi":"U","url":null,"broadband_type_id":1}
{"id":null,"anchorname":"Dept Of Human Services","address":"120 Hill Street","bldgnbr":"120","predir":null,"streetname":"Hill","streettype":"St","suffdir":null,"city":"GRIFFIN","state_code":"GA","zip5":"30223","latitude":"33.2485626950000000","longitude":"-84.263683133000000","publicwifi":"U","url":null,"broadband_type_id":6}
{"id":null,"anchorname":"UNION ACADEMY","address":"1795 E WABASH STREET, BARTOW, FL 33830","bldgnbr":"1795","predir":null,"streetname":"WABASH","streettype":"ST","suffdir":null,"city":"BARTOW","state_code":"FL","zip5":"33830","latitude":"27.8927492700000000","longitude":"-81.822220160000000","publicwifi":"Y","url":"0","broadband_type_id":6}
{"id":null,"anchorname":"Georgia State Patrol Troop D Post 1 - Griffin","address":"1313 Arthur K Bolton Parkway","bldgnbr":"1313","predir":null,"streetname":"Arthur K Bolton","streettype":"Pkwy","suffdir":null,"city":"GRIFFIN","state_code":"GA","zip5":"30224","latitude":"33.2336130000000000","longitude":"-84.234937000000000","publicwifi":"U","url":null,"broadband_type_id":4}
{"id":null,"anchorname":"Department Of Public Safety -Letpp Project","address":"1313 Arthur K Bolton Pkwy","bldgnbr":"1313","predir":null,"streetname":"Arthur K Bolton","streettype":"Pkwy","suffdir":null,"city":"GRIFFIN","state_code":"GA","zip5":"30223","latitude":"33.2288596430000000","longitude":"-84.211395091000000","publicwifi":"U","url":null,"broadband_type_id":4}
{"id":null,"anchorname":"Dept Of Drivers Services","address":"1313 Arthur K Bolton Pkwy","bldgnbr":"1313","predir":null,"streetname":"Arthur K Bolton","streettype":"Pkwy","suffdir":null,"city":"GRIFFIN","state_code":"GA","zip5":"30223","latitude":"33.2288596430000000","longitude":"-84.211395091000000","publicwifi":"U","url":null,"broadband_type_id":6}
{"id":null,"anchorname":"Dept Of Public Safety","address":"1313 Arthur K Bolton Pkwy","bldgnbr":"1313","predir":null,"streetname":"Arthur K Bolton","streettype":"Pkwy","suffdir":null,"city":"GRIFFIN","state_code":"GA","zip5":"30223","latitude":"33.2288596430000000","longitude":"-84.211395091000000","publicwifi":"U","url":null,"broadband_type_id":4}
{"id":null,"anchorname":"Grace Academy Center For Independent Study","address":"410 E Taylor St Ste E","bldgnbr":"410","predir":"E","streetname":"Taylor","streettype":"St","suffdir":null,"city":"GRIFFIN","state_code":"GA","zip5":"30223","latitude":"33.2469600410000000","longitude":"-84.258462928000000","publicwifi":"U","url":null,"broadband_type_id":6}
{"id":null,"anchorname":"Joyland Pch","address":"430 W Broad Street","bldgnbr":"430","predir":"W","streetname":"Broad","streettype":"St","suffdir":null,"city":"GRIFFIN","state_code":"GA","zip5":"30223","latitude":"33.2498840000000000","longitude":"-84.268811000000000","publicwifi":"U","url":null,"broadband_type_id":null}
{"id":null,"anchorname":"Dept Of Labor","address":"1514 Hwy 16 W","bldgnbr":"1514","predir":null,"streetname":"16","streettype":null,"suffdir":"W","city":"GRIFFIN","state_code":"GA","zip5":"30224","latitude":"33.2327455190000000","longitude":"-84.236954743000000","publicwifi":"U","url":null,"broadband_type_id":null}
{"id":null,"anchorname":"Musgrove Manor","address":"13 Birnam Woods Road","bldgnbr":"13","predir":null,"streetname":"Birnam Woods","streettype":"Rd","suffdir":null,"city":"GRIFFIN","state_code":"GA","zip5":"30223","latitude":"33.2593850000000000","longitude":"-84.198173000000000","publicwifi":"U","url":null,"broadband_type_id":null}
{"id":null,"anchorname":"Taylor Street Achievement Center","address":"234 East Taylor St","bldgnbr":"234","predir":"E","streetname":"Taylor","streettype":"St","suffdir":null,"city":"GRIFFIN","state_code":"GA","zip5":"30223","latitude":"33.2470220540000000","longitude":"-84.261581202000000","publicwifi":"U","url":null,"broadband_type_id":null}
{"id":null,"anchorname":"Orrs Elementary School","address":"1553 Flynt St","bldgnbr":"1553","predir":null,"streetname":"Flynt","streettype":"St","suffdir":null,"city":"GRIFFIN","state_code":"GA","zip5":"30223","latitude":"33.2500590000000000","longitude":"-84.290729000000000","publicwifi":"U","url":null,"broadband_type_id":6}
{"id":null,"anchorname":"Technical College System Of Georgia","address":"501 Varsity Rd","bldgnbr":"501","predir":null,"streetname":"Varsity","streettype":"Rd","suffdir":null,"city":"GRIFFIN","state_code":"GA","zip5":"30223","latitude":"33.2544029350000000","longitude":"-84.289192710000000","publicwifi":"U","url":null,"broadband_type_id":6}
{"id":null,"anchorname":"Technical College System Of Georgia","address":"501 Varsity Rd","bldgnbr":"501","predir":null,"streetname":"Varsity","streettype":"Rd","suffdir":null,"city":"GRIFFIN","state_code":"GA","zip5":"30223","latitude":"33.2544029350000000","longitude":"-84.289192710000000","publicwifi":"U","url":null,"broadband_type_id":6}
{"id":null,"anchorname":"Spalding County Fire Department Station 5","address":"5756 State Highway 16 W","bldgnbr":"5756","predir":null,"streetname":"16","streettype":null,"suffdir":"W","city":"BROOKS","state_code":"GA","zip5":"30205","latitude":"33.2446130000000000","longitude":"-84.429895000000000","publicwifi":"U","url":null,"broadband_type_id":5}
{"id":null,"anchorname":"Spalding County Fire Department Station 7","address":"765 Vaughn School Road","bldgnbr":"765","predir":null,"streetname":"Vaughn School","streettype":"Road","suffdir":null,"city":"GRIFFIN","state_code":"GA","zip5":"30223","latitude":"33.2835525690000000","longitude":"-84.377968255000000","publicwifi":"U","url":null,"broadband_type_id":5}
{"id":null,"anchorname":"Good Samaritan Personal Care Home","address":"3340 Newnan Road","bldgnbr":"3340","predir":null,"streetname":"Newnan","streettype":"Rd","suffdir":null,"city":"GRIFFIN","state_code":"GA","zip5":"30223","latitude":"33.2405040000000000","longitude":"-84.351913000000000","publicwifi":"U","url":null,"broadband_type_id":3}
{"id":null,"anchorname":"Griffin High School","address":"1617 W Poplar St","bldgnbr":"1617","predir":"W","streetname":"Poplar","streettype":"St","suffdir":null,"city":"GRIFFIN","state_code":"GA","zip5":"30224","latitude":"33.2436650000000000","longitude":"-84.292910000000000","publicwifi":"U","url":null,"broadband_type_id":6}
{"id":null,"anchorname":"Spalding County Sheriffs Department / Spalding County Jail","address":"401 Justice Boulevard","bldgnbr":"401","predir":null,"streetname":"Justice","streettype":"Blvd","suffdir":null,"city":"GRIFFIN","state_code":"GA","zip5":"30212","latitude":"33.2378360000000000","longitude":"-84.292766000000000","publicwifi":"U","url":null,"broadband_type_id":4}
{"id":null,"anchorname":"Spalding County Fire Department Headquarters Station 1","address":"600 Carver Road","bldgnbr":"600","predir":null,"streetname":"Carver","streettype":"Rd","suffdir":null,"city":"GRIFFIN","state_code":"GA","zip5":"30212","latitude":"33.2323090000000000","longitude":"-84.297099000000000","publicwifi":"U","url":null,"broadband_type_id":5}
{"id":null,"anchorname":"Kennedy Road Middle School","address":"280 Kennedy Rd","bldgnbr":"280","predir":null,"streetname":"Kennedy","streettype":"Rd","suffdir":null,"city":"GRIFFIN","state_code":"GA","zip5":"30223","latitude":"33.2659490000000000","longitude":"-84.237474000000000","publicwifi":"U","url":null,"broadband_type_id":6}
{"id":null,"anchorname":"V'S Personal Care Home","address":"1223 Broad Street","bldgnbr":"1223","predir":null,"streetname":"Broad","streettype":"St","suffdir":null,"city":"GRIFFIN","state_code":"GA","zip5":"30223","latitude":"33.2513170000000000","longitude":"-84.283337000000000","publicwifi":"U","url":null,"broadband_type_id":3}
{"id":null,"anchorname":"Jackson Road Elementary School","address":"1233 Jackson Rd","bldgnbr":"1233","predir":null,"streetname":"Jackson","streettype":"Rd","suffdir":null,"city":"GRIFFIN","state_code":"GA","zip5":"30223","latitude":"33.2557040000000000","longitude":"-84.238677000000000","publicwifi":"U","url":null,"broadband_type_id":6}
{"id":null,"anchorname":"Spalding County Health Department","address":"1007 Memorial Drive","bldgnbr":"1007","predir":null,"streetname":"Memorial","streettype":"Dr","suffdir":null,"city":"GRIFFIN","state_code":"GA","zip5":"30223","latitude":"33.2410220000000000","longitude":"-84.247343000000000","publicwifi":"U","url":null,"broadband_type_id":3}
{"id":null,"anchorname":"Griffin City Hall","address":"100 South Hill Street","bldgnbr":"100","predir":"S","streetname":"Hill","streettype":"St","suffdir":null,"city":"GRIFFIN","state_code":"GA","zip5":"30223","latitude":"33.2489649740000000","longitude":"-84.263677887000000","publicwifi":"U","url":null,"broadband_type_id":1}
{"id":null,"anchorname":"Spalding County Courthouse","address":"132 E Solomon St","bldgnbr":"132","predir":"E","streetname":"Solomon","streettype":"St","suffdir":null,"city":"GRIFFIN","state_code":"GA","zip5":"30223","latitude":"33.2485200000000000","longitude":"-84.262581000000000","publicwifi":"U","url":null,"broadband_type_id":1}
{"id":null,"anchorname":"Spalding County Health Dept.","address":"1007 Memorial Dr","bldgnbr":"1007","predir":null,"streetname":"Memorial","streettype":"Dr","suffdir":null,"city":"GRIFFIN","state_code":"GA","zip5":"30223","latitude":"33.2460417380000000","longitude":"-84.253470499000000","publicwifi":"U","url":null,"broadband_type_id":3}
{"id":null,"anchorname":"Rehoboth Road Middle School","address":"1500 Rehoboth Rd","bldgnbr":"1500","predir":null,"streetname":"Rehoboth","streettype":"Road","suffdir":null,"city":"GRIFFIN","state_code":"GA","zip5":"30224","latitude":"33.2181749690000000","longitude":"-84.192803789000000","publicwifi":"U","url":null,"broadband_type_id":6}
{"id":null,"anchorname":"Care Of Angels Personal Care Home","address":"303 Stonewood","bldgnbr":"303","predir":null,"streetname":"Stonewood","streettype":null,"suffdir":null,"city":"GRIFFIN","state_code":"GA","zip5":"30224","latitude":"33.2204380000000000","longitude":"-84.230037000000000","publicwifi":"U","url":null,"broadband_type_id":3}
{"id":null,"anchorname":"Orchard Hill City Hall","address":"Macon Road","bldgnbr":"N/A","predir":null,"streetname":"Macon","streettype":"Rd","suffdir":null,"city":"GRIFFIN","state_code":"GA","zip5":"30224","latitude":"33.1863940000000000","longitude":"-84.211792000000000","publicwifi":"U","url":null,"broadband_type_id":1}
{"id":null,"anchorname":"Cecil Rice Personal Care Home","address":"753 Mangham Road","bldgnbr":"753","predir":null,"streetname":"Mangham","streettype":"Rd","suffdir":null,"city":"ORCHARD HILL","state_code":"GA","zip5":"30266","latitude":"33.2307180000000000","longitude":"-84.161461000000000","publicwifi":"U","url":null,"broadband_type_id":3}
{"id":null,"anchorname":"Spalding County Fire Department Station 2","address":"841 S Mcdonough Road","bldgnbr":"841","predir":"S","streetname":"Mcdonough","streettype":"Rd","suffdir":null,"city":"GRIFFIN","state_code":"GA","zip5":"30224","latitude":"33.2224950000000000","longitude":"-84.190698000000000","publicwifi":"U","url":null,"broadband_type_id":5}
{"id":null,"anchorname":"Flint River Regional Library","address":"800 Memorial Drive","bldgnbr":"800","predir":null,"streetname":"Memorial","streettype":"Dr","suffdir":null,"city":"GRIFFIN","state_code":"GA","zip5":"30223","latitude":"33.2458000000000000","longitude":"-84.253952000000000","publicwifi":"U","url":null,"broadband_type_id":6}
{"id":null,"anchorname":"Griffin-Spalding County Library","address":"800 Memorial Drive","bldgnbr":"800","predir":null,"streetname":"Memorial","streettype":"Dr","suffdir":null,"city":"Griffin","state_code":"GA","zip5":"30223","latitude":"33.2446330000000000","longitude":"-84.252133000000000","publicwifi":"U","url":null,"broadband_type_id":6}
{"id":null,"anchorname":"Woods Senior LivingCommunity","address":"1401 Macon Road","bldgnbr":"1401","predir":null,"streetname":"Macon","streettype":"Rd","suffdir":null,"city":"GRIFFIN","state_code":"GA","zip5":"30224","latitude":"33.2220980000000000","longitude":"-84.239887000000000","publicwifi":"U","url":null,"broadband_type_id":1}
{"id":null,"anchorname":"SONLIGHT CHRISTIAN ACADEMY","address":"120 SUZANNE AVE, ORANGE PARK, FL 32073","bldgnbr":"120","predir":null,"streetname":"SUZANNE","streettype":"AVE","suffdir":null,"city":"ORANGE PARK","state_code":"FL","zip5":"32073","latitude":"30.1508492500000000","longitude":"-81.748268660000000","publicwifi":"U","url":"0","broadband_type_id":6}
{"id":null,"anchorname":"Joyland Phase Ii","address":"418 Meriwether Street","bldgnbr":"418","predir":null,"streetname":"Meriwether","streettype":"St","suffdir":null,"city":"GRIFFIN","state_code":"GA","zip5":"30224","latitude":"33.2452260000000000","longitude":"-84.269252000000000","publicwifi":"U","url":null,"broadband_type_id":null}
{"id":null,"anchorname":"Griffin Manor","address":"207 W College Street","bldgnbr":"207","predir":"W","streetname":"College","streettype":"St","suffdir":null,"city":"GRIFFIN","state_code":"GA","zip5":"30224","latitude":"33.2448490000000000","longitude":"-84.266109000000000","publicwifi":"U","url":null,"broadband_type_id":null}
{"id":null,"anchorname":"Stepping Stones Educational Therapy Center","address":"141 Futral Rd","bldgnbr":"141","predir":null,"streetname":"Futral","streettype":"Road","suffdir":null,"city":"GRIFFIN","state_code":"GA","zip5":"30224","latitude":"33.2243363810000000","longitude":"-84.237538642000000","publicwifi":"U","url":null,"broadband_type_id":6}
{"id":null,"anchorname":"Victorian Manor","address":"121 W College Street","bldgnbr":"121","predir":"W","streetname":"College","streettype":"St","suffdir":null,"city":"GRIFFIN","state_code":"GA","zip5":"30224","latitude":"33.2448210000000000","longitude":"-84.264941000000000","publicwifi":"U","url":null,"broadband_type_id":null}
{"id":null,"anchorname":"Moreland Road Elementary","address":"455 Moreland Rd","bldgnbr":"455","predir":null,"streetname":"Moreland","streettype":"Rd","suffdir":null,"city":"GRIFFIN","state_code":"GA","zip5":"30224","latitude":"33.1969020000000000","longitude":"-84.299986000000000","publicwifi":"U","url":null,"broadband_type_id":6}
{"id":null,"anchorname":"Dept Of Transportation","address":"933 S Hill St","bldgnbr":"933","predir":"S","streetname":"Hill","streettype":"St","suffdir":null,"city":"GRIFFIN","state_code":"GA","zip5":"30224","latitude":"33.2302714240000000","longitude":"-84.265789713000000","publicwifi":"U","url":null,"broadband_type_id":null}
{"id":null,"anchorname":"Stephens County Jail","address":"1727 Scenic Drive","bldgnbr":"1727","predir":null,"streetname":"Scenic","streettype":"Dr","suffdir":null,"city":"TOCCOA","state_code":"GA","zip5":"30598","latitude":"34.5987280000000000","longitude":"-83.317121000000000","publicwifi":"U","url":null,"broadband_type_id":1}
{"id":null,"anchorname":"Stephens County Magistrate","address":"Tugalo St","bldgnbr":"N/A","predir":null,"streetname":"Tugalo","streettype":"St","suffdir":null,"city":"TOCCOA","state_code":"GA","zip5":"30577","latitude":"34.5806200000000000","longitude":"-83.330147000000000","publicwifi":"U","url":null,"broadband_type_id":6}
{"id":null,"anchorname":"Dept Of Drivers Services","address":"62  Doyle St","bldgnbr":"62","predir":null,"streetname":"Doyle","streettype":"St","suffdir":null,"city":"TOCCOA","state_code":"GA","zip5":"30577","latitude":"34.5791643190000000","longitude":"-83.334106851000000","publicwifi":"U","url":null,"broadband_type_id":6}
{"id":null,"anchorname":"Avita Community Partners - Toccoa","address":"1763 Fernside Drive","bldgnbr":"1763","predir":null,"streetname":"Fernside","streettype":"Drive","suffdir":null,"city":"Toccoa","state_code":"GA","zip5":"30577","latitude":"34.5813662860000000","longitude":"-83.288861751000000","publicwifi":"U","url":null,"broadband_type_id":1}
{"id":null,"anchorname":"STATE ATTORNEY OFFICE","address":"255 N BROADWAY AVE, BARTOW, FL 33830","bldgnbr":"255","predir":null,"streetname":"BROADWAY","streettype":"AVE","suffdir":null,"city":"BARTOW","state_code":"FL","zip5":"33830","latitude":"27.8976086900000000","longitude":"-81.843356310000000","publicwifi":"Y","url":"0","broadband_type_id":1}
{"id":null,"anchorname":"Dept Of Juvenile Justice","address":"148 W Tugalo St","bldgnbr":"148","predir":"W","streetname":"Tugalo","streettype":"St","suffdir":null,"city":"TOCCOA","state_code":"GA","zip5":"30577","latitude":"34.5863252410000000","longitude":"-83.303480383000000","publicwifi":"U","url":null,"broadband_type_id":null}
{"id":null,"anchorname":"Dept Of Corrections","address":"115 W Doyle St","bldgnbr":"115","predir":"W","streetname":"Doyle","streettype":"St","suffdir":null,"city":"TOCCOA","state_code":"GA","zip5":"30577","latitude":"34.5792432020000000","longitude":"-83.334958534000000","publicwifi":"U","url":null,"broadband_type_id":null}
{"id":null,"anchorname":"Willow Gardens","address":"16 Crestwood Drive","bldgnbr":"16","predir":null,"streetname":"Crestwood","streettype":"Dr","suffdir":null,"city":"TOCCOA","state_code":"GA","zip5":"30577","latitude":"34.5836740000000000","longitude":"-83.295578000000000","publicwifi":"U","url":null,"broadband_type_id":null}
{"id":null,"anchorname":"Crossroads Program","address":"191 Old Big A School Rd","bldgnbr":"191","predir":null,"streetname":"Big A School","streettype":"Road","suffdir":null,"city":"TOCCOA","state_code":"GA","zip5":"30577","latitude":"34.5655583370000000","longitude":"-83.294547962000000","publicwifi":"U","url":null,"broadband_type_id":null}
{"id":null,"anchorname":"Hands Of Love","address":"33 Hands Of Love Drive","bldgnbr":"33","predir":null,"streetname":"Hands Of Love","streettype":"Dr","suffdir":null,"city":"TOCCOA","state_code":"GA","zip5":"30577","latitude":"34.5594830000000000","longitude":"-83.206499000000000","publicwifi":"U","url":null,"broadband_type_id":null}
{"id":null,"anchorname":"Hands Of Love Ii","address":"55 Hands Of Love Drive","bldgnbr":"55","predir":null,"streetname":"Hands Of Love","streettype":"Dr","suffdir":null,"city":"MARTIN","state_code":"GA","zip5":"30557","latitude":"34.5592210000000000","longitude":"-83.206303000000000","publicwifi":"U","url":null,"broadband_type_id":null}
{"id":null,"anchorname":"Dept Of Labor","address":"37 Foreacre St","bldgnbr":"37","predir":null,"streetname":"Foreacre","streettype":"St","suffdir":null,"city":"TOCCOA","state_code":"GA","zip5":"30577","latitude":"34.5785436920000000","longitude":"-83.330003638000000","publicwifi":"U","url":null,"broadband_type_id":null}
{"id":null,"anchorname":"Picture Of Life","address":"351 S Hill Street","bldgnbr":"351","predir":"S","streetname":"Hill","streettype":"St","suffdir":null,"city":"TOCCOA","state_code":"GA","zip5":"30577","latitude":"34.5722580000000000","longitude":"-83.326247000000000","publicwifi":"U","url":null,"broadband_type_id":null}
{"id":null,"anchorname":"College Manor","address":"205 W College Street","bldgnbr":"205","predir":"W","streetname":"College","streettype":"St","suffdir":null,"city":"GRIFFIN","state_code":"GA","zip5":"30224","latitude":"33.2447140000000000","longitude":"-84.264597000000000","publicwifi":"U","url":null,"broadband_type_id":6}
{"id":null,"anchorname":"Tenet Healthcare Corporation - Spalding Regional Hospital","address":"601 S Eighth Street","bldgnbr":"601","predir":"S","streetname":"Eighth","streettype":"St","suffdir":null,"city":"GRIFFIN","state_code":"GA","zip5":"30224","latitude":"33.2399600000000000","longitude":"-84.265760000000000","publicwifi":"U","url":null,"broadband_type_id":3}
{"id":null,"anchorname":"Renaissance Care And Rehabilitation Center","address":"415 Airport Road","bldgnbr":"415","predir":null,"streetname":"Airport","streettype":"Rd","suffdir":null,"city":"GRIFFIN","state_code":"GA","zip5":"30224","latitude":"33.2240350000000000","longitude":"-84.280312000000000","publicwifi":"U","url":null,"broadband_type_id":3}
{"id":null,"anchorname":"Genesis Health Care","address":"419 Airport Road","bldgnbr":"419","predir":null,"streetname":"Airport","streettype":"Rd","suffdir":null,"city":"GRIFFIN","state_code":"GA","zip5":"30224","latitude":"33.2240190000000000","longitude":"-84.281370000000000","publicwifi":"U","url":null,"broadband_type_id":3}
{"id":null,"anchorname":"Anne Street Elementary School","address":"802 Anne St","bldgnbr":"802","predir":null,"streetname":"Anne","streettype":"St","suffdir":null,"city":"GRIFFIN","state_code":"GA","zip5":"30224","latitude":"33.2358370000000000","longitude":"-84.277972000000000","publicwifi":"U","url":null,"broadband_type_id":6}
{"id":null,"anchorname":"Griffin Fire And Rescue Station 3","address":"101 Crescent Road W","bldgnbr":"101","predir":null,"streetname":"Crescent","streettype":"Rd","suffdir":"W","city":"GRIFFIN","state_code":"GA","zip5":"30224","latitude":"33.2332140000000000","longitude":"-84.265338000000000","publicwifi":"U","url":null,"broadband_type_id":5}
{"id":null,"anchorname":"Crescent Road Elementary School","address":"201 Crescent Rd","bldgnbr":"201","predir":null,"streetname":"Crescent","streettype":"Rd","suffdir":null,"city":"GRIFFIN","state_code":"GA","zip5":"30224","latitude":"33.2329270000000000","longitude":"-84.265082000000000","publicwifi":"U","url":null,"broadband_type_id":6}
{"id":null,"anchorname":"Shiloh Volunteer Fire Department","address":"Natt Maddox Road","bldgnbr":"N/A","predir":null,"streetname":"Natt Maddox","streettype":"Rd","suffdir":null,"city":"TOCCOA","state_code":"GA","zip5":"30577","latitude":"34.6079370000000000","longitude":"-83.305808000000000","publicwifi":"U","url":null,"broadband_type_id":5}
{"id":null,"anchorname":"Toccoa Falls College","address":"325 Chapel Drive","bldgnbr":"325","predir":null,"streetname":"Chapel","streettype":"Dr","suffdir":null,"city":"TOCCOA","state_code":"GA","zip5":"30598","latitude":"34.5950190000000000","longitude":"-83.355462000000000","publicwifi":"U","url":null,"broadband_type_id":6}
{"id":null,"anchorname":"Stephens County Hospital","address":"2003 Falls Road","bldgnbr":"2003","predir":null,"streetname":"Falls","streettype":"Rd","suffdir":null,"city":"TOCCOA","state_code":"GA","zip5":"30577","latitude":"34.5934000000000000","longitude":"-83.358900000000000","publicwifi":"U","url":null,"broadband_type_id":3}
{"id":null,"anchorname":"Toccoa Elementary School","address":"400 N Pond St","bldgnbr":"400","predir":"N","streetname":"Pond","streettype":"St","suffdir":null,"city":"TOCCOA","state_code":"GA","zip5":"30577","latitude":"34.5853890000000000","longitude":"-83.331544000000000","publicwifi":"U","url":null,"broadband_type_id":6}
{"id":null,"anchorname":"Clary Care Center And Wilkinson","address":"249 Hospital Drive","bldgnbr":"249","predir":null,"streetname":"Hospital","streettype":"Dr","suffdir":null,"city":"TOCCOA","state_code":"GA","zip5":"30577","latitude":"34.5946570000000000","longitude":"-83.348817000000000","publicwifi":"U","url":null,"broadband_type_id":3}
{"id":null,"anchorname":"Heritage Healthcare Of Toccoa","address":"633 Falls Road","bldgnbr":"633","predir":null,"streetname":"Falls","streettype":"Rd","suffdir":null,"city":"TOCCOA","state_code":"GA","zip5":"30598","latitude":"34.5870330000000000","longitude":"-83.340324000000000","publicwifi":"U","url":null,"broadband_type_id":3}
{"id":null,"anchorname":"Toccoa Fire Department Station 10","address":"302 Doyle Street W","bldgnbr":"302","predir":null,"streetname":"Doyle","streettype":"St","suffdir":"W","city":"TOCCOA","state_code":"GA","zip5":"30577","latitude":"34.5795270000000000","longitude":"-83.333551000000000","publicwifi":"U","url":null,"broadband_type_id":5}
{"id":null,"anchorname":"Stephens County Health Department","address":"64 N Boulevard","bldgnbr":"64","predir":"N","streetname":"Boulevard","streettype":null,"suffdir":null,"city":"TOCCOA","state_code":"GA","zip5":"30577","latitude":"34.5816240000000000","longitude":"-83.314288000000000","publicwifi":"U","url":null,"broadband_type_id":3}
{"id":null,"anchorname":"Taccoa Fire Department Station 11","address":"Colonial Drive","bldgnbr":"N/A","predir":null,"streetname":"Colonial","streettype":"Dr","suffdir":null,"city":"TOCCOA","state_code":"GA","zip5":"30577","latitude":"34.5670940000000000","longitude":"-83.297006000000000","publicwifi":"U","url":null,"broadband_type_id":5}
{"id":null,"anchorname":"Big Smith Volunteer Fire Department","address":"Brookhaven Road","bldgnbr":"N/A","predir":null,"streetname":"Brookhaven","streettype":"Rd","suffdir":null,"city":"TOCCOA","state_code":"GA","zip5":"30577","latitude":"34.5554360000000000","longitude":"-83.199514000000000","publicwifi":"U","url":null,"broadband_type_id":5}
{"id":null,"anchorname":"Stephens County Sheriffs Office","address":"205 N Alexander Street","bldgnbr":"205","predir":"N","streetname":"Alexander","streettype":"St","suffdir":null,"city":"TOCCOA","state_code":"GA","zip5":"30577","latitude":"34.5797640000000000","longitude":"-83.331988000000000","publicwifi":"U","url":null,"broadband_type_id":4}
{"id":null,"anchorname":"Toccoa City Hall","address":"203 N Alexander St","bldgnbr":"203","predir":"N","streetname":"Alexander","streettype":"St","suffdir":null,"city":"TOCCOA","state_code":"GA","zip5":"30577","latitude":"34.5795210000000000","longitude":"-83.331627000000000","publicwifi":"U","url":null,"broadband_type_id":1}
{"id":null,"anchorname":"Toccoa Police Department","address":"203 N Alexander Street","bldgnbr":"203","predir":"N","streetname":"Alexander","streettype":"St","suffdir":null,"city":"TOCCOA","state_code":"GA","zip5":"30577","latitude":"34.5794940000000000","longitude":"-83.331831000000000","publicwifi":"U","url":null,"broadband_type_id":4}
{"id":null,"anchorname":"Stephens County High School","address":"6438 White Pine Rd","bldgnbr":"6438","predir":null,"streetname":"White Pine","streettype":"Rd","suffdir":null,"city":"TOCCOA","state_code":"GA","zip5":"30577","latitude":"34.5567230000000000","longitude":"-83.289412000000000","publicwifi":"U","url":null,"broadband_type_id":6}
{"id":null,"anchorname":"Carnes Creek Volunteer Fire Department","address":"557 Mize Road","bldgnbr":"557","predir":null,"streetname":"Mize","streettype":"Rd","suffdir":null,"city":"TOCCOA","state_code":"GA","zip5":"30577","latitude":"34.5537190000000000","longitude":"-83.322259000000000","publicwifi":"U","url":null,"broadband_type_id":5}
{"id":null,"anchorname":"CLAY COUNTY CIRCUIT AND COUNTY COURTS - KEYSTONE HEIGHTS","address":"275 S LAWRENCE BLVD, KEYSTONE HEIGHTS, FL 32656","bldgnbr":"275","predir":null,"streetname":"LAWRENCE","streettype":"BLVD","suffdir":null,"city":"KEYSTONE HEIGHTS","state_code":"FL","zip5":"32656","latitude":"29.7833443200000000","longitude":"-82.031032190000000","publicwifi":"U","url":"0","broadband_type_id":1}
{"id":null,"anchorname":"CLAY COUNTY CIRCUIT AND COUNTY COURTS - ARCHIVES","address":"915 WALNUT STREET, GREEN COVE SPRINGS, FL 32043","bldgnbr":"915","predir":null,"streetname":"WALNUT","streettype":"ST","suffdir":null,"city":"GREEN COVE SPRINGS","state_code":"FL","zip5":"32043","latitude":"29.9908780700000000","longitude":"-81.684253500000000","publicwifi":"U","url":"0","broadband_type_id":6}
{"id":null,"anchorname":"Stephens County Board of Education","address":"2332 Mize Road","bldgnbr":"2332","predir":null,"streetname":"Mize","streettype":"Road","suffdir":null,"city":"TOCCOA","state_code":"GA","zip5":"30577","latitude":"34.5282144960000000","longitude":"-83.321988324000000","publicwifi":"U","url":null,"broadband_type_id":6}
{"id":null,"anchorname":"FT MEADE ACADEMY","address":"211 NE 8TH ST, FORT MEADE, FL 33841","bldgnbr":"211","predir":null,"streetname":"8TH","streettype":"ST","suffdir":null,"city":"FORT MEADE","state_code":"FL","zip5":"33841","latitude":"27.7616687300000000","longitude":"-81.798291530000000","publicwifi":"U","url":"0","broadband_type_id":6}
{"id":null,"anchorname":"Dept Of Public Safety","address":"3674 W Currahee St","bldgnbr":"3674","predir":"W","streetname":"Currahee","streettype":"St","suffdir":null,"city":"TOCCOA","state_code":"GA","zip5":"30577","latitude":"34.5400329830000000","longitude":"-83.366389965000000","publicwifi":"U","url":null,"broadband_type_id":4}
{"id":null,"anchorname":"United States Immigration And Customs Enforcement - Stewart Detention Center","address":"146 Cca Road","bldgnbr":"146","predir":null,"streetname":"Cca","streettype":"Rd","suffdir":null,"city":"LUMPKIN","state_code":"GA","zip5":"31815","latitude":"32.0358000000000000","longitude":"-84.771862000000000","publicwifi":"U","url":null,"broadband_type_id":4}
{"id":null,"anchorname":"Stewart County Board of Education","address":"7168 Green Grove Road","bldgnbr":"7168","predir":null,"streetname":"Green Grove","streettype":"Road","suffdir":null,"city":"Lumpkin","state_code":"GA","zip5":"31815","latitude":"32.0314880000000000","longitude":"-84.828397000000000","publicwifi":"U","url":null,"broadband_type_id":6}
