{"id":null,"anchorname":"SSM St. Joseph Health Center","address":"300 First Capitol Drive, St. Charles MO 63301","bldgnbr":"300","predir":null,"streetname":"Unknown","streettype":null,"suffdir":null,"city":"Saint Charles","state_code":"MO","zip5":"63301","latitude":"38.7805394840000000","longitude":"-90.483762245000000","publicwifi":"U","url":"http://www.ssmhealth.com/stjoseph/Pages/home.aspx","broadband_type_id":3}
{"id":null,"anchorname":"St Charles City County Library- Kathryn- Linnemann Branch","address":"2323 Elm St, St. Charles MO 63301-1493","bldgnbr":"2323","predir":null,"streetname":"Elm","streettype":"Street","suffdir":null,"city":"Saint Charles","state_code":"MO","zip5":"63301","latitude":"38.7953802550000000","longitude":"-90.500252035000000","publicwifi":"U","url":"http://www.youranswerplace.org/","broadband_type_id":6}
{"id":null,"anchorname":"Lindenwood University","address":"209 South Kingshighway, St. Charles MO 63301","bldgnbr":"209","predir":"S","streetname":"Kingshighway","streettype":null,"suffdir":null,"city":"Saint Charles","state_code":"MO","zip5":"63301","latitude":"38.7867228860000000","longitude":"-90.501703031000000","publicwifi":"U","url":"http://www.lindenwood.edu/","broadband_type_id":6}
{"id":null,"anchorname":"ST CHARLES WEST HIGH SCHOOL","address":"3601 Droste Rd.","bldgnbr":"3601","predir":null,"streetname":"Droste Rd.","streettype":null,"suffdir":null,"city":"SAINT CHARLES","state_code":"MO","zip5":"63301","latitude":"38.8022948740000000","longitude":"-90.531794384000000","publicwifi":null,"url":null,"broadband_type_id":6}
{"id":null,"anchorname":"George M. Null Elementary School","address":"435 Yale Blvd, St Charles MO 63301-5729","bldgnbr":"435","predir":null,"streetname":"Yale","streettype":"Boulevard","suffdir":null,"city":"Saint Charles","state_code":"MO","zip5":"63301","latitude":"38.7979302910000000","longitude":"-90.516448793000000","publicwifi":"U","url":"http://www.stcharles.k12.mo.us/","broadband_type_id":6}
{"id":null,"anchorname":"Saint Charles Fire Department Station 3","address":"2817 Elm Street, Saint Charles MO 63301","bldgnbr":"2817","predir":null,"streetname":"Elm","streettype":"Street","suffdir":null,"city":"Saint Charles","state_code":"MO","zip5":"63301","latitude":"38.8002301600000000","longitude":"-90.504514767000000","publicwifi":"U","url":"www.stcharlescitymo.gov","broadband_type_id":5}
{"id":null,"anchorname":"St. Charles West High School","address":"3601 Droste Rd, St Charles MO 63301-1125","bldgnbr":"3601","predir":null,"streetname":"Droste","streettype":"Road","suffdir":null,"city":"Saint Charles","state_code":"MO","zip5":"63301","latitude":"38.8011794450000000","longitude":"-90.532438929000000","publicwifi":"U","url":"http://www.stcharles.k12.mo.us/scwest/default.htm","broadband_type_id":6}
{"id":null,"anchorname":"Jefferson Middle School","address":"2660 Zumbehl Rd, St Charles MO 63301-1134","bldgnbr":"2660","predir":null,"streetname":"Zumbehl","streettype":"Road","suffdir":null,"city":"Saint Charles","state_code":"MO","zip5":"63301","latitude":"38.7984531530000000","longitude":"-90.532400598000000","publicwifi":"U","url":"http://www.stcharles.k12.mo.us/","broadband_type_id":6}
{"id":null,"anchorname":"Jefferson Middle School","address":"713 Rogers Street, Columbia MO 65201-4413","bldgnbr":"713","predir":null,"streetname":"Rogers","streettype":"Street","suffdir":null,"city":"Columbia","state_code":"MO","zip5":"65201","latitude":"38.9572159640000000","longitude":"-92.328780118000000","publicwifi":"Y","url":"http://service.columbia.k12.mo.us/jjhs","broadband_type_id":6}
{"id":null,"anchorname":"Monroe Elementary School- St. Charles R-6 School District","address":"2670 Zumbehl Rd, St Charles MO 63301-1134","bldgnbr":"2670","predir":null,"streetname":"Zumbehl","streettype":"Road","suffdir":null,"city":"Saint Charles","state_code":"MO","zip5":"63301","latitude":"38.7999919890000000","longitude":"-90.532952690000000","publicwifi":"U","url":"http://www.stcharles.k12.mo.us/","broadband_type_id":6}
{"id":null,"anchorname":"Lewis And Clark Career Center","address":"2400 Zumbehl Rd, St Charles MO 63301-1131","bldgnbr":"2400","predir":null,"streetname":"Zumbehl","streettype":"Road","suffdir":null,"city":"Saint Charles","state_code":"MO","zip5":"63301","latitude":"38.7940176940000000","longitude":"-90.534836765000000","publicwifi":"U","url":"http://www.stcharles.k12.mo.us/","broadband_type_id":3}
{"id":null,"anchorname":"Central County Fire And Rescue Station 5","address":"2934 Ehlmann Road, Saint Charles MO 63301","bldgnbr":"2934","predir":null,"streetname":"Ehlman","streettype":"Road","suffdir":null,"city":"Saint Charles","state_code":"MO","zip5":"63301","latitude":"38.8067631000000000","longitude":"-90.545575413000000","publicwifi":"U","url":"www.centralcountyfire.org/","broadband_type_id":5}
{"id":null,"anchorname":"CHURCH OF CHRIST","address":"266 POOL ST BIDDEFORD ME 04005","bldgnbr":"266","predir":null,"streetname":"POOL","streettype":"ST","suffdir":null,"city":"BIDDEFORD","state_code":"ME","zip5":"04005","latitude":"43.4839489780000000","longitude":"-70.436732723000000","publicwifi":"U","url":null,"broadband_type_id":6}
{"id":null,"anchorname":"KENNEBUNK CENTER FOR DENTISTRY; YORK-002","address":"5 WEBHANNET PL, KENNEBUNK","bldgnbr":"5","predir":null,"streetname":"WEBHANNET","streettype":"PL","suffdir":null,"city":"KENNEBUNK","state_code":"ME","zip5":"4043","latitude":"43.3775501210000000","longitude":"-70.548771215000000","publicwifi":"U","url":null,"broadband_type_id":6}
{"id":null,"anchorname":"HOPE LUTHERAN CHURCH","address":"1975 Old HWY 94 S.","bldgnbr":"1975","predir":null,"streetname":"Old HWY 94 S.","streettype":null,"suffdir":null,"city":"SAINT CHARLES","state_code":"MO","zip5":"63303","latitude":"38.7623100000000000","longitude":"-90.529950000000000","publicwifi":null,"url":null,"broadband_type_id":null}
{"id":null,"anchorname":"CORNERSTONE FOURSQUARE CHURCH","address":"2646  Country Club Rd.","bldgnbr":"2646","predir":null,"streetname":"Country Club Rd.","streettype":null,"suffdir":null,"city":"SAINT CHARLES","state_code":"MO","zip5":"63303","latitude":"38.7782083370000000","longitude":"-90.543183814000000","publicwifi":null,"url":null,"broadband_type_id":null}
{"id":null,"anchorname":"Early Childhood Family Education Center","address":"2555 Hackmann Rd, St Charles MO 63303-5452","bldgnbr":"2555","predir":null,"streetname":"Hackmann","streettype":"Road","suffdir":null,"city":"Saint Charles","state_code":"MO","zip5":"63303","latitude":"38.7617222790000000","longitude":"-90.558887290000000","publicwifi":"U","url":"http://www.fergflor.org/fergflor/site/default.asp","broadband_type_id":6}
{"id":null,"anchorname":"St. Charles River Church","address":"810 Westwood Industrial Park Dr.","bldgnbr":"810","predir":null,"streetname":"Westwood Industrial Park Dr.","streettype":null,"suffdir":null,"city":"SAINT CHARLES","state_code":"MO","zip5":"63304","latitude":"38.7226200000000000","longitude":"-90.668020000000000","publicwifi":null,"url":null,"broadband_type_id":6}
{"id":null,"anchorname":"Harvester Christian Church","address":"2950 Kings Crossing","bldgnbr":"2950","predir":null,"streetname":"Kings Crossing","streettype":null,"suffdir":null,"city":"SAINT CHARLES","state_code":"MO","zip5":"63303","latitude":"38.7501095540000000","longitude":"-90.561128901000000","publicwifi":null,"url":null,"broadband_type_id":6}
{"id":null,"anchorname":"Heritage Landing","address":"1400 Gettysburg Landing, St Charles MO 63303-6178","bldgnbr":"1400","predir":null,"streetname":"Gettysburg Landing","streettype":null,"suffdir":null,"city":"Saint Charles","state_code":"MO","zip5":"63303","latitude":"38.7509321650000000","longitude":"-90.551375321000000","publicwifi":"U","url":"http://www.fhsdschools.org/","broadband_type_id":1}
{"id":null,"anchorname":"Troop C Headquarters - Weldon Spring","address":"891 Technology Dr W, Weldon Spring, MO 63304","bldgnbr":"891","predir":null,"streetname":"Technology","streettype":"Drive","suffdir":null,"city":"Weldon Spring","state_code":"MO","zip5":"63304","latitude":"38.7128853710000000","longitude":"-90.687074361000000","publicwifi":"U","url":"http://www.mshp.dps.missouri.gov/MSHPWeb/PatrolDivisions/TroopHeadquarters/TroopC/index.html","broadband_type_id":null}
{"id":null,"anchorname":"Saint Joseph Catholic Church-cotteville","address":"1355 Motherhead Rd.","bldgnbr":"1355","predir":null,"streetname":"Motherhead Rd.","streettype":null,"suffdir":null,"city":"SAINT CHARLES","state_code":"MO","zip5":"63304","latitude":"38.7435785630000000","longitude":"-90.652369806000000","publicwifi":null,"url":null,"broadband_type_id":null}
{"id":null,"anchorname":"Saint Charles Police Dept","address":"1781 Zumbehl Rd, St Charles MO 63303","bldgnbr":"1781","predir":null,"streetname":"Zumbehl","streettype":"Road","suffdir":null,"city":"Saint Charles","state_code":"MO","zip5":"63303","latitude":"38.7748023630000000","longitude":"-90.527812734000000","publicwifi":"U","url":"http://www.stcharlescitymo.gov/departments/police/tabid/258/default.aspx","broadband_type_id":4}
{"id":null,"anchorname":"Harris Elementary School","address":"2800 Old Muegge Rd, St Charles MO 63303-3033","bldgnbr":"2800","predir":null,"streetname":"Old Muegge","streettype":"Road","suffdir":null,"city":"Saint Charles","state_code":"MO","zip5":"63303","latitude":"38.7890300040000000","longitude":"-90.560331537000000","publicwifi":"U","url":"http://www.stcharles.k12.mo.us/","broadband_type_id":6}
{"id":null,"anchorname":"Harvest Ridge Elementary School","address":"1220 Harvest Ridge Dr, St Charles MO 63303-5972","bldgnbr":"1220","predir":null,"streetname":"Harvest Ridge","streettype":"Drive","suffdir":null,"city":"Saint Charles","state_code":"MO","zip5":"63303","latitude":"38.7517204190000000","longitude":"-90.524595050000000","publicwifi":"U","url":"http://www.fhsdschools.org/","broadband_type_id":6}
{"id":null,"anchorname":"Saint Charles Fire Department Station 2","address":"1550 South Main Street, Saint Charles MO 63303","bldgnbr":"1550","predir":"S","streetname":"Main","streettype":"Street","suffdir":null,"city":"Saint Charles","state_code":"MO","zip5":"63303","latitude":"38.7642783560000000","longitude":"-90.493034747000000","publicwifi":"U","url":"www.stcharlescitymo.gov","broadband_type_id":5}
{"id":null,"anchorname":"Centerpointe Hospital","address":"5931 Highway 94 South, St. Charles MO 63304","bldgnbr":"5931","predir":null,"streetname":"Highway 94","streettype":"Highway","suffdir":"S","city":"Saint Charles","state_code":"MO","zip5":"63304","latitude":"38.7151272630000000","longitude":"-90.672057828000000","publicwifi":"U","url":"http://centerpointehospital.com/","broadband_type_id":3}
{"id":null,"anchorname":"Bryan Middle School","address":"605 Independence Rd, St Charles MO 63304-7861","bldgnbr":"605","predir":null,"streetname":"Independence","streettype":"Road","suffdir":null,"city":"Saint Charles","state_code":"MO","zip5":"63304","latitude":"38.7106968750000000","longitude":"-90.665775227000000","publicwifi":"U","url":"http://cms.fhsdschools.org/Default.aspx?alias=cms.fhsdschools.org/bryan","broadband_type_id":6}
{"id":null,"anchorname":"Independence Elementary School","address":"4800 Meadows Pkwy, St Charles MO 63304-2227","bldgnbr":"4800","predir":null,"streetname":"Meadows","streettype":"Parkway","suffdir":null,"city":"Saint Charles","state_code":"MO","zip5":"63304","latitude":"38.7070318770000000","longitude":"-90.666590526000000","publicwifi":"U","url":"http://independence.fhsd.k12.mo.us/","broadband_type_id":6}
{"id":null,"anchorname":"Weldon Spring City Hall","address":"5401 Independence Road, Weldon Spring, MO 63304","bldgnbr":"5401","predir":null,"streetname":"Independence","streettype":"Road","suffdir":null,"city":"Weldon Spring","state_code":"MO","zip5":"63304","latitude":"38.7172514750000000","longitude":"-90.647622106000000","publicwifi":"U","url":"http://www.weldonspring.org/","broadband_type_id":1}
{"id":null,"anchorname":"Cottleville Community Fire Protection District Station 1 - Headquarters","address":"1385 Motherhead Road, Cottleville MO 63304","bldgnbr":"1385","predir":null,"streetname":"Motherhead","streettype":"Road","suffdir":null,"city":"Cottleville","state_code":"MO","zip5":"63304","latitude":"38.7444951750000000","longitude":"-90.652080732000000","publicwifi":"N","url":"http://www.cottlevillefpd.org/","broadband_type_id":5}
{"id":null,"anchorname":"Cottleville Community Fire Protection District Station 4","address":"4340 Towers Road, Saint Charles MO 63304","bldgnbr":"4340","predir":null,"streetname":"Towers","streettype":"Road","suffdir":null,"city":"Saint Charles","state_code":"MO","zip5":"63304","latitude":"38.7212972210000000","longitude":"-90.615252402000000","publicwifi":"U","url":"http://www.cottlevillefpd.org/","broadband_type_id":5}
{"id":null,"anchorname":"St Charles City- Kisker Road County Library","address":"1000 Kisker Rd, St. Charles MO 63304-8726","bldgnbr":"1000","predir":null,"streetname":"Kisker","streettype":"Road","suffdir":null,"city":"Saint Charles","state_code":"MO","zip5":"63304","latitude":"38.7262210180000000","longitude":"-90.617827774000000","publicwifi":"U","url":"http://www.youranswerplace.org/","broadband_type_id":6}
{"id":null,"anchorname":"Francis Howell Middle School","address":"825 O'fallon Rd, St Charles MO 63304-8150","bldgnbr":"825","predir":null,"streetname":"O'fallon","streettype":"Road","suffdir":null,"city":"Saint Charles","state_code":"MO","zip5":"63304","latitude":"38.7198284290000000","longitude":"-90.676797154000000","publicwifi":"U","url":"http://www.fhsdschools.org/","broadband_type_id":6}
{"id":null,"anchorname":"Progress West Healthcare Center","address":"2 Progress Point Pkwy, O'fallon MO 63366","bldgnbr":"2","predir":null,"streetname":"Progress Point","streettype":"Parkway","suffdir":null,"city":"O'fallon","state_code":"MO","zip5":"63366","latitude":"38.7154551410000000","longitude":"-90.698942052000000","publicwifi":"U","url":"https://www.bjc.org/pwhc07_home.aspx","broadband_type_id":3}
{"id":null,"anchorname":"Cottleville Community Fire Protection District Station 3","address":"6310 Weldon Springs Road, Saint Charles MO 63304","bldgnbr":"6310","predir":null,"streetname":"Weldon Springs","streettype":"Road","suffdir":null,"city":"Saint Charles","state_code":"MO","zip5":"63304","latitude":"38.7145757050000000","longitude":"-90.689077106000000","publicwifi":"U","url":"http://www.cottlevillefpd.org/","broadband_type_id":5}
{"id":null,"anchorname":"Pheasant Point Elementary School","address":"3450 Pheasant Meadow Dr, O'fallon MO 63368-7324","bldgnbr":"3450","predir":null,"streetname":"Pheasant Meadow","streettype":"Drive","suffdir":null,"city":"O'fallon","state_code":"MO","zip5":"63368","latitude":"38.7467558020000000","longitude":"-90.696323708000000","publicwifi":"U","url":"http://www.fz.k12.mo.us/Pages/Default.aspx","broadband_type_id":6}
{"id":null,"anchorname":"Barnwell Middle School","address":"1035 Jungs Station Rd, St Charles MO 63303-6098","bldgnbr":"1035","predir":null,"streetname":"Jungs Station","streettype":"Road","suffdir":null,"city":"Saint Charles","state_code":"MO","zip5":"63303","latitude":"38.7421903000000000","longitude":"-90.563928125000000","publicwifi":"U","url":"http://barnwell.fhsd.k12.mo.us/","broadband_type_id":6}
{"id":null,"anchorname":"Becky-David Elementary School","address":"1155 Jungs Station Rd, St Charles MO 63303-6099","bldgnbr":"1155","predir":null,"streetname":"Jungs Station","streettype":"Road","suffdir":null,"city":"Saint Charles","state_code":"MO","zip5":"63303","latitude":"38.7445612920000000","longitude":"-90.563505743000000","publicwifi":"U","url":"http://www.fhsdschools.org/","broadband_type_id":6}
{"id":null,"anchorname":"Central County Fire And Rescue Station 6","address":"1151 Jungs Station Road, Saint Charles MO 63303","bldgnbr":"1151","predir":null,"streetname":"Jungs Station","streettype":"Road","suffdir":null,"city":"Saint Charles","state_code":"MO","zip5":"63303","latitude":"38.7429307430000000","longitude":"-90.562710065000000","publicwifi":"U","url":"http://www.centralcountyfire.org/","broadband_type_id":5}
{"id":null,"anchorname":"Cottleville Community Fire Protection District Station 2","address":"4065 South Old Highway 94, Saint Charles MO 63304","bldgnbr":"4065","predir":"S","streetname":"Old Highway 94","streettype":"Highway","suffdir":null,"city":"Saint Charles","state_code":"MO","zip5":"63304","latitude":"38.7442118940000000","longitude":"-90.595622937000000","publicwifi":"U","url":"http://www.cottlevillefpd.org/","broadband_type_id":5}
{"id":null,"anchorname":"BETHANY BAPTIST CHURCH","address":"62 OAK RIDGE RD BIDDEFORD ME 04005","bldgnbr":"62","predir":null,"streetname":"OAK RIDGE","streettype":"RD","suffdir":null,"city":"BIDDEFORD","state_code":"ME","zip5":"04005","latitude":"43.4354213900000000","longitude":"-70.428724631000000","publicwifi":"U","url":null,"broadband_type_id":6}
{"id":null,"anchorname":"DR. JAMES MURRAY DDS, PA; KENNEBUNK-002","address":"91 PORTLAND RD, KENNEBUNK","bldgnbr":"91","predir":null,"streetname":"PORTLAND","streettype":"RD","suffdir":null,"city":"KENNEBUNK","state_code":"ME","zip5":"4043","latitude":"43.4019226780000000","longitude":"-70.527034323000000","publicwifi":"U","url":null,"broadband_type_id":6}
{"id":null,"anchorname":"St. Charles Habilitation Center - Resource Center","address":"22 Marr Ln, Saint Charles, MO 63303","bldgnbr":"22","predir":null,"streetname":"Marr","streettype":"Lane","suffdir":null,"city":"Saint Charles","state_code":"MO","zip5":"63303","latitude":"38.7553133790000000","longitude":"-90.559050260000000","publicwifi":"U","url":"http://dmh.mo.gov/dd/facilities/habcenters.htm","broadband_type_id":6}
{"id":null,"anchorname":"UNITED METHODIST CHURCH OF THE SHEPHERD","address":"1601 Woodstone Dr.","bldgnbr":"1601","predir":null,"streetname":"Woodstone Dr.","streettype":null,"suffdir":null,"city":"SAINT CHARLES","state_code":"MO","zip5":"63304","latitude":"38.7572687560000000","longitude":"-90.597452952000000","publicwifi":null,"url":null,"broadband_type_id":6}
{"id":null,"anchorname":"CHRIST CHURCH","address":"6930 Mexico Rd.","bldgnbr":"6930","predir":null,"streetname":"Mexico Rd.","streettype":null,"suffdir":null,"city":"SAINT PETERS","state_code":"MO","zip5":"63376","latitude":"38.7869325880000000","longitude":"-90.653987051000000","publicwifi":null,"url":null,"broadband_type_id":6}
{"id":null,"anchorname":"FIRST BAPTIST CHURCH OF ST PETERS","address":"3533 Mid Rivers Mall Dr.","bldgnbr":"3533","predir":null,"streetname":"Mid Rivers Mall Dr.","streettype":null,"suffdir":null,"city":"SAINT PETERS","state_code":"MO","zip5":"63376","latitude":"38.7668362300000000","longitude":"-90.631646381000000","publicwifi":null,"url":null,"broadband_type_id":6}
{"id":null,"anchorname":"WILLOTT ROAD COMMUNITY CHURCH","address":"1610 Willott Rd.","bldgnbr":"1610","predir":null,"streetname":"Willott Rd.","streettype":null,"suffdir":null,"city":"SAINT PETERS","state_code":"MO","zip5":"63376","latitude":"38.7761159740000000","longitude":"-90.598905951000000","publicwifi":null,"url":null,"broadband_type_id":1}
{"id":null,"anchorname":"Saints Joachim And Ann Catholic Church","address":"4116 McClay Rd.","bldgnbr":"4116","predir":null,"streetname":"McClay Rd.","streettype":null,"suffdir":null,"city":"SAINT CHARLES","state_code":"MO","zip5":"63304","latitude":"38.7572636840000000","longitude":"-90.597272044000000","publicwifi":null,"url":null,"broadband_type_id":null}
{"id":null,"anchorname":"John Weldon Elementary School","address":"7370 Weldon Spring Rd, Dardenne Prairie MO 63368-0000","bldgnbr":"7370","predir":null,"streetname":"Weldon Spring","streettype":"Road","suffdir":null,"city":"Dardenne Prairie","state_code":"MO","zip5":"63368","latitude":"38.7260998780000000","longitude":"-90.720969407000000","publicwifi":"U","url":"http://www.fhsdschools.org/","broadband_type_id":6}
{"id":null,"anchorname":"Ft. Zuwmalt West Middle School","address":"150 Waterford Crossing, O'fallon MO 63368-7135","bldgnbr":"150","predir":null,"streetname":"Waterford","streettype":null,"suffdir":null,"city":"O'fallon","state_code":"MO","zip5":"63368","latitude":"38.7451522040000000","longitude":"-90.702880189000000","publicwifi":"U","url":null,"broadband_type_id":6}
{"id":null,"anchorname":"St Charles City-County Library- Library Express At Winghaven","address":"7435 Village Center Dr, O'fallon MO 63366-4768","bldgnbr":"7435","predir":null,"streetname":"Village Center","streettype":"Drive","suffdir":null,"city":"O'fallon","state_code":"MO","zip5":"63366","latitude":"38.7431704250000000","longitude":"-90.734980257000000","publicwifi":"U","url":"http://www.youranswerplace.org/","broadband_type_id":6}
{"id":null,"anchorname":"Twin Chimneys Elementary School","address":"7396 Twin Chimneys Blvd, O'fallon MO 63368-8212","bldgnbr":"7396","predir":null,"streetname":"Twin Chimneys","streettype":"Boulevard","suffdir":null,"city":"O'fallon","state_code":"MO","zip5":"63368","latitude":"38.7632911350000000","longitude":"-90.731216271000000","publicwifi":"U","url":"http://www.fz.k12.mo.us/Pages/Default.aspx","broadband_type_id":6}
{"id":null,"anchorname":"O'Fallon Fire Protection District Station 5","address":"7140 South Outer Road 364, O'fallon MO 63368","bldgnbr":"7140","predir":"S","streetname":"Outer Road 364","streettype":"Road","suffdir":null,"city":"O'fallon","state_code":"MO","zip5":"63366","latitude":"38.7606272070000000","longitude":"-90.721213880000000","publicwifi":"U","url":"http://www.ofallonfire.org/ofpd/index.php","broadband_type_id":5}
{"id":null,"anchorname":"Hawthorn Elementary School- Fort Zumwalt R-2 School District","address":"166 Boone Hills Dr, St Peters MO 63376-2431","bldgnbr":"166","predir":null,"streetname":"Boone Hills","streettype":"Drive","suffdir":null,"city":"Saint Peters","state_code":"MO","zip5":"63376","latitude":"38.7866594450000000","longitude":"-90.595476331000000","publicwifi":"U","url":"http://www.fz.k12.mo.us/Pages/Default.aspx","broadband_type_id":6}
{"id":null,"anchorname":"Fort Zumwalt South High School","address":"8050 Mexico Rd.","bldgnbr":"8050","predir":null,"streetname":"Mexico Rd.","streettype":null,"suffdir":null,"city":"ST PETERS","state_code":"MO","zip5":"63376","latitude":"38.7895293000000000","longitude":"-90.603438900000000","publicwifi":null,"url":null,"broadband_type_id":6}
{"id":null,"anchorname":"St Charles City-County Library-Spencer Road Branch","address":"427 Spencer Rd, St. Peters MO 63376-2420","bldgnbr":"427","predir":null,"streetname":"Spencer","streettype":"Road","suffdir":null,"city":"Saint Peters","state_code":"MO","zip5":"63376","latitude":"38.7845637190000000","longitude":"-90.601303606000000","publicwifi":"U","url":"http://www.youranswerplace.org/","broadband_type_id":6}
{"id":null,"anchorname":"St Charles City County Library","address":"77 Boone Hills Dr, St. Peters MO 63376-2410","bldgnbr":"77","predir":null,"streetname":"Boone Hills","streettype":"Drive","suffdir":null,"city":"Saint Peters","state_code":"MO","zip5":"63376","latitude":"38.7844139360000000","longitude":"-90.601282829000000","publicwifi":"U","url":"http://www.youranswerplace.org/","broadband_type_id":6}
{"id":null,"anchorname":"St. Peters City Hall","address":"1 Saint Peters Centre Blvd, St. Peters, Mo","bldgnbr":"1","predir":null,"streetname":"Saint Peters Center","streettype":"Boulevard","suffdir":null,"city":"Saint Peters","state_code":"MO","zip5":"63376","latitude":"38.7916071610000000","longitude":"-90.595919185000000","publicwifi":"U","url":"http://www.stpetersmo.net/","broadband_type_id":1}
{"id":null,"anchorname":"Ft. Zumwalt East High School","address":"600 1st Executive Ave, St Peters MO 63376-2578","bldgnbr":"600","predir":null,"streetname":"1st Executive","streettype":"Avenue","suffdir":null,"city":"Saint Peters","state_code":"MO","zip5":"63376","latitude":"38.7885430810000000","longitude":"-90.585458706000000","publicwifi":"U","url":"http://www.fz.k12.mo.us/Pages/Default.aspx","broadband_type_id":6}
{"id":null,"anchorname":"HAWTHORNE ELEMENTARY SCHOOL","address":"166 Boone Hills Dr.","bldgnbr":"166","predir":null,"streetname":"Boone Hills Dr.","streettype":null,"suffdir":null,"city":"SAINT PETERS","state_code":"MO","zip5":"63376","latitude":"38.7872449780000000","longitude":"-90.582179543000000","publicwifi":null,"url":null,"broadband_type_id":6}
{"id":null,"anchorname":"FRANCIS HOWELL NORTH HIGH SCHOOL","address":"2549 Hackman Rd.`","bldgnbr":"2549","predir":null,"streetname":"Hackman Rd.`","streettype":null,"suffdir":null,"city":"SAINT CHARLES","state_code":"MO","zip5":"63303","latitude":"38.7640871740000000","longitude":"-90.559452470000000","publicwifi":null,"url":null,"broadband_type_id":6}
{"id":null,"anchorname":"St Charles City-County Library- Mcclay Branch","address":"2760 Mcclay Rd, St. Charles MO 63303-5427","bldgnbr":"2760","predir":null,"streetname":"Mcclay","streettype":"Road","suffdir":null,"city":"Saint Charles","state_code":"MO","zip5":"63303","latitude":"38.7579214920000000","longitude":"-90.551132877000000","publicwifi":"U","url":"http://www.youranswerplace.org/","broadband_type_id":6}
{"id":null,"anchorname":"Central County Fire And Rescue Station 4","address":"1259 Cave Springs Boulevard, Saint Peters MO 63376","bldgnbr":"1259","predir":null,"streetname":"Cave Springs","streettype":"Boulevard","suffdir":null,"city":"Saint Peters","state_code":"MO","zip5":"63376","latitude":"38.7892908560000000","longitude":"-90.571333978000000","publicwifi":"U","url":"www.centralcountyfire.org/","broadband_type_id":5}
{"id":null,"anchorname":"Francis Howell North High School","address":"2549 Hackmann  Rd, St Charles MO 63303-5471","bldgnbr":"2549","predir":null,"streetname":"Hackmann","streettype":"Road","suffdir":null,"city":"Saint Charles","state_code":"MO","zip5":"63303","latitude":"38.7618807260000000","longitude":"-90.559402449000000","publicwifi":"U","url":"http://www.fergflor.org/fergflor/site/default.asp","broadband_type_id":6}
{"id":null,"anchorname":"Henderson Elementary School","address":"2501 Hackmann Rd, St Charles MO 63303-5485","bldgnbr":"2501","predir":null,"streetname":"Hackmann","streettype":"Road","suffdir":null,"city":"Saint Charles","state_code":"MO","zip5":"63303","latitude":"38.7652774170000000","longitude":"-90.565613486000000","publicwifi":"U","url":"ttp://www.fergflor.org/fergflor/site/default.asp","broadband_type_id":6}
{"id":null,"anchorname":"Dr. Bernard J. Dubray Middle School","address":"100 Dubray Dr, St Peters MO 63376-2170","bldgnbr":"100","predir":null,"streetname":"Dubray","streettype":"Drive","suffdir":null,"city":"Saint Peters","state_code":"MO","zip5":"63376","latitude":"38.7816870480000000","longitude":"-90.620899835000000","publicwifi":"U","url":null,"broadband_type_id":6}
{"id":null,"anchorname":"Mid Rivers Elementary School","address":"7479 Mexico Rd, St Peters MO 63376-1304","bldgnbr":"7479","predir":null,"streetname":"Mexico","streettype":"Road","suffdir":null,"city":"Saint Peters","state_code":"MO","zip5":"63376","latitude":"38.7877779530000000","longitude":"-90.639485674000000","publicwifi":"U","url":"http://www.fz.k12.mo.us/Pages/Default.aspx","broadband_type_id":6}
{"id":null,"anchorname":"ST CHARLES COMMUNITY COLLEGE","address":"4601 Mid Rivers Mall Dr.","bldgnbr":"4601","predir":null,"streetname":"Mid Rivers Mall Dr.","streettype":null,"suffdir":null,"city":"SAINT PETERS","state_code":"MO","zip5":"63376","latitude":"38.7591166020000000","longitude":"-90.636880473000000","publicwifi":null,"url":null,"broadband_type_id":6}
{"id":null,"anchorname":"St Charles Community College","address":"4601 Mid Rivers Mall Drive, St. Peters MO 63376","bldgnbr":"4601","predir":null,"streetname":"Mid Rivers Mall","streettype":"Drive","suffdir":null,"city":"Saint Peters","state_code":"MO","zip5":"63376","latitude":"38.7594920690000000","longitude":"-90.639319318000000","publicwifi":"U","url":"http://www.stchas.edu/","broadband_type_id":6}
{"id":null,"anchorname":"Cottleville City Hall","address":"5490 5th St, Saint Charles, MO 63304","bldgnbr":"5490","predir":null,"streetname":"5th","streettype":"Street","suffdir":null,"city":"Cottleville","state_code":"MO","zip5":"63304","latitude":"38.7492526840000000","longitude":"-90.651735181000000","publicwifi":"U","url":"http://www.cityofcottleville.com/","broadband_type_id":1}
{"id":null,"anchorname":"Francis Howell Central High School","address":"5199 HWY N","bldgnbr":"5199","predir":null,"streetname":"HWY N","streettype":null,"suffdir":null,"city":"SAINT CHARLES","state_code":"MO","zip5":"63304","latitude":"38.7474246800000000","longitude":"-90.645788688000000","publicwifi":null,"url":null,"broadband_type_id":6}
{"id":null,"anchorname":"Francis Howell Central High School","address":"5199 Hwy N, St Charles MO 63304-7122","bldgnbr":"5199","predir":null,"streetname":"Highway N","streettype":"Highway","suffdir":null,"city":"Saint Charles","state_code":"MO","zip5":"63304","latitude":"38.7474655900000000","longitude":"-90.645356970000000","publicwifi":"U","url":"http://www.fhsdschools.org/","broadband_type_id":6}
{"id":null,"anchorname":"ALLERGY \u0026 ASTHMA ASSOCIATES OF MAINE; KENNEBUNK-003","address":"7 SHAPE DR, KENNEBUNK","bldgnbr":"7","predir":null,"streetname":"SHAPE","streettype":"DR","suffdir":null,"city":"KENNEBUNK","state_code":"ME","zip5":"4043","latitude":"43.3942464100000000","longitude":"-70.527627488000000","publicwifi":"U","url":null,"broadband_type_id":6}
{"id":null,"anchorname":"CORNERSTONE UNITED METHODIST CHURCH","address":"1151 Tom Ginnever","bldgnbr":"1151","predir":null,"streetname":"Tom Ginnever","streettype":null,"suffdir":null,"city":"O FALLON","state_code":"MO","zip5":"63366","latitude":"38.8213968560000000","longitude":"-90.668873597000000","publicwifi":null,"url":null,"broadband_type_id":6}
{"id":null,"anchorname":"O'fallon Christian Church","address":"9380 Veterans Memorial Pkwy.","bldgnbr":"9380","predir":null,"streetname":"Veterans Memorial Pkwy.","streettype":null,"suffdir":null,"city":"O FALLON","state_code":"MO","zip5":"63366","latitude":"38.8023544230000000","longitude":"-90.717917219000000","publicwifi":null,"url":null,"broadband_type_id":6}
{"id":null,"anchorname":"GRACE COMMUNITY CHAPEL","address":"7661 Mexico Rd.","bldgnbr":"7661","predir":null,"streetname":"Mexico Rd.","streettype":null,"suffdir":null,"city":"SAINT PETERS","state_code":"MO","zip5":"63376","latitude":"38.7873150360000000","longitude":"-90.665691382000000","publicwifi":null,"url":null,"broadband_type_id":1}
{"id":null,"anchorname":"Saint Peters Assembly Of God","address":"7450 Mexico Rd.","bldgnbr":"7450","predir":null,"streetname":"Mexico Rd.","streettype":null,"suffdir":null,"city":"SAINT PETERS","state_code":"MO","zip5":"63376","latitude":"38.7872838840000000","longitude":"-90.665012334000000","publicwifi":null,"url":null,"broadband_type_id":null}
{"id":null,"anchorname":"ST BARNABAS THE APOSTLE CHURCH","address":"1407 N. Main St.","bldgnbr":"1407","predir":null,"streetname":"N. Main St.","streettype":null,"suffdir":null,"city":"O FALLON","state_code":"MO","zip5":"63366","latitude":"38.8308834930000000","longitude":"-90.699459119000000","publicwifi":null,"url":null,"broadband_type_id":null}
{"id":null,"anchorname":"HOLY CROSS LUTHERAN CHURCH","address":"8945 Veterans Memorial Pkwy.","bldgnbr":"8945","predir":null,"streetname":"Veterans Memorial Pkwy.","streettype":null,"suffdir":null,"city":"O FALLON","state_code":"MO","zip5":"63366","latitude":"38.7991560650000000","longitude":"-90.708760475000000","publicwifi":null,"url":null,"broadband_type_id":null}
{"id":null,"anchorname":"Hollenbeck Middle School","address":"4555 Central School Rd, St Charles MO 63304-7198","bldgnbr":"4555","predir":null,"streetname":"Central School","streettype":"Road","suffdir":null,"city":"Saint Charles","state_code":"MO","zip5":"63304","latitude":"38.7438443510000000","longitude":"-90.614173209000000","publicwifi":"U","url":"http://hollenbeck.fhsd.k12.mo.us/","broadband_type_id":6}
{"id":null,"anchorname":"Central Elementary School- Francis Howell R-3 School District","address":"4525 Central School Rd, St Charles MO 63304-7199","bldgnbr":"4525","predir":null,"streetname":"Central School","streettype":"Road","suffdir":null,"city":"Saint Charles","state_code":"MO","zip5":"63304","latitude":"38.7447908890000000","longitude":"-90.612213519000000","publicwifi":"U","url":"http://central.fhsd.k12.mo.us/Site/Welcome.html","broadband_type_id":6}
{"id":null,"anchorname":"Early Childhood Family Education Center- Francis Howell R-3 School District","address":"4535 Central School Rd, St Charles MO 63304-7113","bldgnbr":"4535","predir":null,"streetname":"Central School","streettype":"Road","suffdir":null,"city":"Saint Charles","state_code":"MO","zip5":"63304","latitude":"38.7449798990000000","longitude":"-90.613966419000000","publicwifi":"U","url":"http://www.fhsdschools.org/","broadband_type_id":6}
{"id":null,"anchorname":"HOLLENBECK MIDDLE SCHOOL","address":"4555 Central School Rd.","bldgnbr":"4555","predir":null,"streetname":"Central School Rd.","streettype":null,"suffdir":null,"city":"SAINT CHARLES","state_code":"MO","zip5":"63304","latitude":"38.7429221570000000","longitude":"-90.616157594000000","publicwifi":null,"url":null,"broadband_type_id":6}
{"id":null,"anchorname":"Fairmount Elementary School- Francis Howell R-3 School District","address":"1725 Thoele Rd, St Peters MO 63376-3299","bldgnbr":"1725","predir":null,"streetname":"Thoele","streettype":"Road","suffdir":null,"city":"Saint Peters","state_code":"MO","zip5":"63376","latitude":"38.7638666770000000","longitude":"-90.598395796000000","publicwifi":"U","url":"http://www.fhsdschools.org/","broadband_type_id":6}
{"id":null,"anchorname":"FAIRMONT ELEMENTARY SCHOOL","address":"1725 Thoele Rd.","bldgnbr":"1725","predir":null,"streetname":"Thoele Rd.","streettype":null,"suffdir":null,"city":"SAINT PETERS","state_code":"MO","zip5":"63376","latitude":"38.7633137650000000","longitude":"-90.597593766000000","publicwifi":null,"url":null,"broadband_type_id":6}
{"id":null,"anchorname":"Central County Fire And Rescue Station 3","address":"511 Willott Road, Saint Peters MO 63376","bldgnbr":"511","predir":null,"streetname":"Willott","streettype":"Road","suffdir":null,"city":"Saint Peters","state_code":"MO","zip5":"63376","latitude":"38.7749015400000000","longitude":"-90.615258315000000","publicwifi":"U","url":"www.centralcountyfire.org/","broadband_type_id":5}
{"id":null,"anchorname":"Ft. Zumwalt South High School","address":"8050 Mexico Rd, St Peters MO 63376-1119","bldgnbr":"8050","predir":null,"streetname":"Mexico","streettype":"Road","suffdir":null,"city":"Saint Peters","state_code":"MO","zip5":"63376","latitude":"38.7885892660000000","longitude":"-90.669114953000000","publicwifi":"U","url":"http://www.fz.k12.mo.us/Pages/Default.aspx","broadband_type_id":6}
{"id":null,"anchorname":"Central County Fire And Rescue Station 1","address":"1 Timberbrook Drive, Saint Peters MO 63376","bldgnbr":"1","predir":null,"streetname":"Timberbrook","streettype":"Drive","suffdir":null,"city":"Saint Peters","state_code":"MO","zip5":"63376","latitude":"38.7962629960000000","longitude":"-90.655918060000000","publicwifi":"U","url":"www.centralcountyfire.org/","broadband_type_id":5}
{"id":null,"anchorname":"Central County Fire And Rescue Station 2","address":"111 Main Street, Saint Peters MO 63376","bldgnbr":"111","predir":null,"streetname":"Main","streettype":"Street","suffdir":null,"city":"Saint Peters","state_code":"MO","zip5":"63376","latitude":"38.8024708990000000","longitude":"-90.626255040000000","publicwifi":"U","url":"www.centralcountyfire.org/","broadband_type_id":5}
{"id":null,"anchorname":"Westhoff Elementary School","address":"900 Homefield Blvd, O'fallon MO 63366-4482","bldgnbr":"900","predir":null,"streetname":"Homefield","streettype":"Boulevard","suffdir":null,"city":"O'fallon","state_code":"MO","zip5":"63366","latitude":"38.8261814610000000","longitude":"-90.685991433000000","publicwifi":"U","url":"http://www.fz.k12.mo.us/Pages/Default.aspx","broadband_type_id":6}
{"id":null,"anchorname":"Saint Charles County Sheriffs Department","address":"101 Sheriff Dierker Court, O'fallon MO 63366","bldgnbr":"101","predir":null,"streetname":"Sheriff Dierker","streettype":"Court","suffdir":null,"city":"O'fallon","state_code":"MO","zip5":"63366","latitude":"38.8221014540000000","longitude":"-90.666600501000000","publicwifi":"U","url":"http://sheriff.sccmo.org/sheriff/","broadband_type_id":4}
{"id":null,"anchorname":"FORT ZUMWALT NORTH HIGH SCHOOL","address":"1230 Tom Ginnever","bldgnbr":"1230","predir":null,"streetname":"Tom Ginnever","streettype":null,"suffdir":null,"city":"O FALLON","state_code":"MO","zip5":"63366","latitude":"38.8213564250000000","longitude":"-90.666730787000000","publicwifi":null,"url":null,"broadband_type_id":6}
{"id":null,"anchorname":"O'Fallon Fire Protection District Station 1 - Headquarters","address":"119 East Elm Street, O'fallon MO 63366","bldgnbr":"119","predir":"E","streetname":"Elm","streettype":"Street","suffdir":null,"city":"O'fallon","state_code":"MO","zip5":"63366","latitude":"38.8100678690000000","longitude":"-90.698574355000000","publicwifi":"U","url":"http://www.ofallonfire.org/ofpd/index.php","broadband_type_id":5}
{"id":null,"anchorname":"Ft. Zumwalt North Middle School","address":"210 Virgil St, O'fallon MO 63366-2644","bldgnbr":"210","predir":null,"streetname":"Virgil","streettype":"Street","suffdir":null,"city":"O'fallon","state_code":"MO","zip5":"63366","latitude":"38.8036211020000000","longitude":"-90.697428889000000","publicwifi":"U","url":"http://www.fz.k12.mo.us/Pages/Default.aspx","broadband_type_id":6}
{"id":null,"anchorname":"Ft. Zumwalt North High School","address":"1230 Tom Ginnever Blvd, O'fallon MO 63366-4406","bldgnbr":"1230","predir":null,"streetname":"Tom Ginnever","streettype":"Boulevard","suffdir":null,"city":"O'fallon","state_code":"MO","zip5":"63366","latitude":"38.8199896470000000","longitude":"-90.667780152000000","publicwifi":"U","url":"http://www.fz.k12.mo.us/Pages/Default.aspx","broadband_type_id":6}
{"id":null,"anchorname":"Joseph L. Mudd Elementary School","address":"610 Prince Ruppert, O'fallon MO 63366-1802","bldgnbr":"610","predir":null,"streetname":"Prince Rupert","streettype":null,"suffdir":null,"city":"O'fallon","state_code":"MO","zip5":"63366","latitude":"38.8141300220000000","longitude":"-90.689378763000000","publicwifi":"U","url":"http://www.fz.k12.mo.us/Pages/Default.aspx","broadband_type_id":6}
{"id":null,"anchorname":"Forest Park Elementary School","address":"501 Sunflower, O'fallon MO 63366-1851","bldgnbr":"501","predir":null,"streetname":"Sunflower","streettype":null,"suffdir":null,"city":"O'fallon","state_code":"MO","zip5":"63366","latitude":"38.8150030190000000","longitude":"-90.687281174000000","publicwifi":"U","url":"http://www.fz.k12.mo.us/Pages/Default.aspx","broadband_type_id":6}
{"id":null,"anchorname":"O'Fallon Police Department","address":"100 N Main Street, O'fallon MO 63366","bldgnbr":"100","predir":"N","streetname":"Main","streettype":"Street","suffdir":null,"city":"O'fallon","state_code":"MO","zip5":"63366","latitude":"38.8114293190000000","longitude":"-90.698454809000000","publicwifi":"U","url":"http://www.ofallon.mo.us/PD/","broadband_type_id":4}
{"id":null,"anchorname":"O'Fallon City Hall","address":"100 North Main Street, O'fallon, MO 63366-2200","bldgnbr":"100","predir":"N","streetname":"Main","streettype":"Street","suffdir":null,"city":"O'fallon","state_code":"MO","zip5":"63366","latitude":"38.8114122320000000","longitude":"-90.698531856000000","publicwifi":"U","url":"http://www.ofallon.mo.us/index.htm","broadband_type_id":1}
{"id":null,"anchorname":"Rock Creek Elementary School","address":"8970 Mexico Rd, O'fallon MO 63366-7505","bldgnbr":"8970","predir":null,"streetname":"Mexico","streettype":"Road","suffdir":null,"city":"O'fallon","state_code":"MO","zip5":"63366","latitude":"38.7896365410000000","longitude":"-90.717279312000000","publicwifi":"U","url":"http://www.fz.k12.mo.us/Pages/Default.aspx","broadband_type_id":6}
{"id":null,"anchorname":"FORT ZUMWALT WEST HIGH SCHOOL","address":"1250 Turtle Creek Dr.","bldgnbr":"1250","predir":null,"streetname":"Turtle Creek Dr.","streettype":null,"suffdir":null,"city":"O FALLON","state_code":"MO","zip5":"63366","latitude":"38.7912481460000000","longitude":"-90.726585667000000","publicwifi":null,"url":null,"broadband_type_id":6}
{"id":null,"anchorname":"Ft. Zumwalt West High School","address":"1251 Turtle Creek Dr, O'fallon MO 63366-5948","bldgnbr":"1251","predir":null,"streetname":"Turtle Creek","streettype":"Drive","suffdir":null,"city":"O'fallon","state_code":"MO","zip5":"63366","latitude":"38.7898269000000000","longitude":"-90.729962871000000","publicwifi":"U","url":"http://www.fz.k12.mo.us/Pages/Default.aspx","broadband_type_id":6}
{"id":null,"anchorname":"Boonslick State School","address":"321 Knaust Road, St. Peters, MO 63376-1715","bldgnbr":"321","predir":null,"streetname":"Knaust","streettype":"Road","suffdir":null,"city":"Saint Peters","state_code":"MO","zip5":"63376","latitude":"38.7767502230000000","longitude":"-90.677273753000000","publicwifi":"U","url":null,"broadband_type_id":6}
{"id":null,"anchorname":"Progress South Elementary School","address":"201 Knaust Rd, St Peters MO 63376-1717","bldgnbr":"201","predir":null,"streetname":"Knaust","streettype":"Road","suffdir":null,"city":"Saint Peters","state_code":"MO","zip5":"63376","latitude":"38.7783844730000000","longitude":"-90.676758702000000","publicwifi":"U","url":"http://www.fz.k12.mo.us/Pages/Default.aspx","broadband_type_id":6}
{"id":null,"anchorname":"YORK COUNTY COMMUNITY ACTION CORP; YORK COUNTY SHELTER-001","address":"147 SHAKER HILL RD, ALFRED","bldgnbr":"147","predir":null,"streetname":"SHAKER HILL","streettype":"RD","suffdir":null,"city":"ALFRED","state_code":"ME","zip5":"4002","latitude":"43.5026522720000000","longitude":"-70.714955144000000","publicwifi":"U","url":null,"broadband_type_id":1}
{"id":null,"anchorname":"AT YOUR HOME MOBILE DENTAL HYGIENIST, LLC- 245 HUBBARD RD  HOME OFFICE","address":"245 Hubbard Rd BERWICK ME 03901","bldgnbr":"245","predir":null,"streetname":"Hubbard","streettype":"Rd","suffdir":null,"city":"BERWICK","state_code":"ME","zip5":"03901","latitude":"43.3071399760000000","longitude":"-70.900889948000000","publicwifi":"U","url":null,"broadband_type_id":6}
{"id":null,"anchorname":"SPRING HARBOR COMMUNITY SERVICES","address":"1 DONICA RD YORK ME 03909","bldgnbr":"1","predir":null,"streetname":"DONICA","streettype":"RD","suffdir":null,"city":"YORK","state_code":"ME","zip5":"03909","latitude":"43.1576188060000000","longitude":"-70.649914212000000","publicwifi":"U","url":null,"broadband_type_id":6}
{"id":null,"anchorname":"RIVERS LIMOUSINE SERVICES","address":"26 BRICKYARD CT YORK ME 03909","bldgnbr":"26","predir":null,"streetname":"BRICKYARD","streettype":"CT","suffdir":null,"city":"YORK","state_code":"ME","zip5":"03909","latitude":"43.1482800010000000","longitude":"-70.678590000000000","publicwifi":"U","url":null,"broadband_type_id":6}
{"id":null,"anchorname":"Episcopal Church Of The Transifiguration","address":"1860 Lake St. Louis Blvd.","bldgnbr":"1860","predir":null,"streetname":"Lake St. Louis Blvd.","streettype":null,"suffdir":null,"city":"LAKE SAINT LOUIS","state_code":"MO","zip5":"63367","latitude":"38.7846144470000000","longitude":"-90.777674140000000","publicwifi":null,"url":null,"broadband_type_id":6}
{"id":null,"anchorname":"ASSUMPTION CHURCH","address":"403 N. Main St.","bldgnbr":"403","predir":null,"streetname":"N. Main St.","streettype":null,"suffdir":null,"city":"O FALLON","state_code":"MO","zip5":"63366","latitude":"38.8129253390000000","longitude":"-90.700886093000000","publicwifi":null,"url":null,"broadband_type_id":null}
{"id":null,"anchorname":"LIVING LORD LUTHERAN CHURCH","address":"500 Cedar Circle Dr.","bldgnbr":"500","predir":null,"streetname":"Cedar Circle Dr.","streettype":null,"suffdir":null,"city":"LAKE SAINT LOUIS","state_code":"MO","zip5":"63367","latitude":"38.7931111820000000","longitude":"-90.811171490000000","publicwifi":null,"url":null,"broadband_type_id":null}
{"id":null,"anchorname":"CHAPEL OF THE LAKE","address":"11000 Veterans Memorial Pkwy.","bldgnbr":"11000","predir":null,"streetname":"Veterans Memorial Pkwy.","streettype":null,"suffdir":null,"city":"LAKE SAINT LOUIS","state_code":"MO","zip5":"63367","latitude":"38.8040300000000000","longitude":"-90.781680000000000","publicwifi":null,"url":null,"broadband_type_id":null}
{"id":null,"anchorname":"IMMACULATE CONCEPTION","address":"2083 Hanley Rd.","bldgnbr":"2083","predir":null,"streetname":"Hanley Rd.","streettype":null,"suffdir":null,"city":"O FALLON","state_code":"MO","zip5":"63366","latitude":"38.7666300000000000","longitude":"-90.756230000000000","publicwifi":null,"url":null,"broadband_type_id":null}
{"id":null,"anchorname":"Saint Paul Knights Of Columbus","address":"1270 Church Rd.","bldgnbr":"1270","predir":null,"streetname":"Church Rd.","streettype":null,"suffdir":null,"city":"O FALLON","state_code":"MO","zip5":"63366","latitude":"38.8616776640000000","longitude":"-90.745752247000000","publicwifi":null,"url":null,"broadband_type_id":null}
{"id":null,"anchorname":"Dardenne Elementary School","address":"2621 Hwy K, O'fallon MO 63368-7865","bldgnbr":"2621","predir":null,"streetname":"Highway K","streettype":"Highway","suffdir":null,"city":"O'fallon","state_code":"MO","zip5":"63368","latitude":"38.7720256220000000","longitude":"-90.701238739000000","publicwifi":"U","url":"http://www.fz.k12.mo.us/Pages/Default.aspx","broadband_type_id":6}
{"id":null,"anchorname":"O'Fallon Fire Protection District Station 3","address":"600 Laura Hill Road, Saint Peters MO 63376","bldgnbr":"600","predir":null,"streetname":"Laura Hill","streettype":"Road","suffdir":null,"city":"Saint Peters","state_code":"MO","zip5":"63367","latitude":"38.7805483730000000","longitude":"-90.697765677000000","publicwifi":"U","url":"http://www.ofallonfire.org/ofpd/index.php","broadband_type_id":5}
{"id":null,"anchorname":"St Charles City-County Library- Middendorf-Kredell Branch","address":"2750 Hwy K, O'fallon MO 63366-7859","bldgnbr":"2750","predir":null,"streetname":"Highway K","streettype":"Highway","suffdir":null,"city":"O'fallon","state_code":"MO","zip5":"63366","latitude":"38.7678208780000000","longitude":"-90.699307656000000","publicwifi":"U","url":"http://www.youranswerplace.org/","broadband_type_id":6}
{"id":null,"anchorname":"Ft. Zumwalt South Middle School","address":"300 Knaust Rd, St Peters MO 63376-1716","bldgnbr":"300","predir":null,"streetname":"Knaust","streettype":"Road","suffdir":null,"city":"Saint Peters","state_code":"MO","zip5":"63376","latitude":"38.7783137400000000","longitude":"-90.679092603000000","publicwifi":"U","url":"http://www.fz.k12.mo.us/Pages/Default.aspx","broadband_type_id":6}
{"id":null,"anchorname":"Emge Elementary School","address":"250 Fallon Pkwy, O'fallon MO 63368-7325","bldgnbr":"250","predir":null,"streetname":"Fallon","streettype":"Parkway","suffdir":null,"city":"O'fallon","state_code":"MO","zip5":"63368","latitude":"38.7643994570000000","longitude":"-90.696249622000000","publicwifi":"U","url":"http://www.fz.k12.mo.us/Pages/Default.aspx","broadband_type_id":6}
{"id":null,"anchorname":"Warren Elementary School","address":"141 Weiss Rd, St Peters MO 63376-7741","bldgnbr":"141","predir":null,"streetname":"Weiss","streettype":"Road","suffdir":null,"city":"Saint Peters","state_code":"MO","zip5":"63376","latitude":"38.7599950590000000","longitude":"-90.655476704000000","publicwifi":"U","url":"http://www.fhsdschools.org/","broadband_type_id":6}
{"id":null,"anchorname":"Mount Hope Elementary School","address":"1099 Mt Hope Ln, O'fallon MO 63366-1000","bldgnbr":"1099","predir":null,"streetname":"Mount Hope","streettype":"Lane","suffdir":null,"city":"O'fallon","state_code":"MO","zip5":"63366","latitude":"38.8390718990000000","longitude":"-90.733845021000000","publicwifi":"U","url":"http://www.fz.k12.mo.us/Pages/Default.aspx","broadband_type_id":6}
{"id":null,"anchorname":"Ft. Zumwalt Hope High School","address":"307 W Pitman, O'fallon MO 63366-2822","bldgnbr":"307","predir":"W","streetname":"Pitman","streettype":null,"suffdir":null,"city":"O'fallon","state_code":"MO","zip5":"63366","latitude":"38.8073228330000000","longitude":"-90.703534397000000","publicwifi":"U","url":"http://www.fz.k12.mo.us/Pages/Default.aspx","broadband_type_id":6}
{"id":null,"anchorname":"Saint Dominic High School","address":"31 St. Dominic Dr.","bldgnbr":"31","predir":null,"streetname":"St. Dominic Dr.","streettype":null,"suffdir":null,"city":"O FALLON","state_code":"MO","zip5":"63366","latitude":"38.8041320950000000","longitude":"-90.721587995000000","publicwifi":null,"url":null,"broadband_type_id":6}
{"id":null,"anchorname":"SSM St. Joseph Hospital West","address":"100 Medical Plaza, Lake St. Louis MO 63367","bldgnbr":"100","predir":null,"streetname":"Medlcal","streettype":"Plaza","suffdir":null,"city":"Lake Saint Louis","state_code":"MO","zip5":"63367","latitude":"38.8027474550000000","longitude":"-90.775836913000000","publicwifi":"U","url":"http://www.ssmhealth.com/hospitalwest/Pages/Home.aspx","broadband_type_id":3}
{"id":null,"anchorname":"St Charles City County Library- Corporate Parkway Branch","address":"1200 Corporate Pkwy, Wentzville MO 63385-4828","bldgnbr":"1200","predir":null,"streetname":"Corporate","streettype":"Parkway","suffdir":null,"city":"Wentzville","state_code":"MO","zip5":"63385","latitude":"38.8001706100000000","longitude":"-90.818080696000000","publicwifi":"U","url":"http://www.youranswerplace.org/","broadband_type_id":6}
{"id":null,"anchorname":"Dardenne Prairie City Hall","address":"2032 Hanley Rd, O Fallon, MO 63368","bldgnbr":"2032","predir":null,"streetname":"Hanley","streettype":"Road","suffdir":null,"city":"Dardenne Prairie","state_code":"MO","zip5":"63368","latitude":"38.7690645160000000","longitude":"-90.755662094000000","publicwifi":"U","url":"http://www.dardenneprairie.org/","broadband_type_id":1}
{"id":null,"anchorname":"Prairie View Elementary School- Wentzville R-4 School District","address":"1550 Feise Rd, O'fallon MO 63368-7346","bldgnbr":"N/A","predir":null,"streetname":"Feise","streettype":"Road","suffdir":null,"city":"N/A","state_code":"MO","zip5":"63368","latitude":"38.7725439780000000","longitude":"-90.759215927000000","publicwifi":"U","url":"http://www.wentzville.k12.mo.us/index.php","broadband_type_id":6}
{"id":null,"anchorname":"Duello Elementary School","address":"1814 Duello Rd, Lake St Louis MO 63367-4400","bldgnbr":"1814","predir":null,"streetname":"Duello","streettype":"Road","suffdir":null,"city":"Lake Saint Louis","state_code":"MO","zip5":"63367","latitude":"38.7765138290000000","longitude":"-90.825297843000000","publicwifi":"U","url":"http://www.wentzville.k12.mo.us/index.php","broadband_type_id":6}
{"id":null,"anchorname":"Lake St. Louis City Hall","address":"200 Civic Center Drive, Lake St. Louis, MO 63367-1307","bldgnbr":"200","predir":null,"streetname":"Civic Center","streettype":"Drive","suffdir":null,"city":"Lake Saint Louis","state_code":"MO","zip5":"63367","latitude":"38.7850209110000000","longitude":"-90.793519952000000","publicwifi":"U","url":"http://www.lakesaintlouis.com/","broadband_type_id":1}
{"id":null,"anchorname":"Lake Saint Louis Police Department","address":"200 Civic Center Dr, Lake St Louis MO 63367","bldgnbr":"200","predir":null,"streetname":"Civic Center","streettype":"Drive","suffdir":null,"city":"Lake Saint Louis","state_code":"MO","zip5":"63367","latitude":"38.7850724480000000","longitude":"-90.793235834000000","publicwifi":"U","url":"http://lakestlouis.govoffice.com/index.asp?Type=NONE\u0026SEC={480A293B-1A45-4465-9D8D-DC2C9C9A90EA}","broadband_type_id":4}
{"id":null,"anchorname":"Lake Saint Louis Fire Protection District House 1","address":"2533 Lake Saint Louis Boulevard, Lake Saint Louis MO 63367","bldgnbr":"2533","predir":null,"streetname":"Lake St Louis","streettype":"Boulevard","suffdir":null,"city":"Lake Saint Louis","state_code":"MO","zip5":"63367","latitude":"38.7846887690000000","longitude":"-90.779453175000000","publicwifi":"N","url":"http://www.lslfire.com/","broadband_type_id":5}
{"id":null,"anchorname":"Green Tree Elementary School","address":"1000 S Fox Hound Dr, Lake St Louis MO 63367-2561","bldgnbr":"1000","predir":"S","streetname":"Fox Hound","streettype":"Drive","suffdir":null,"city":"Lake Saint Louis","state_code":"MO","zip5":"63367","latitude":"38.7804753100000000","longitude":"-90.780241758000000","publicwifi":"U","url":"http://www.wentzville.k12.mo.us/index.php","broadband_type_id":6}
{"id":null,"anchorname":"Wentzville Fire Protection District Station 2","address":"2135 Mette Road, Wentzville MO 63385","bldgnbr":"2135","predir":null,"streetname":"Mette","streettype":"Road","suffdir":null,"city":"Wentzville","state_code":"MO","zip5":"63385","latitude":"38.8569357360000000","longitude":"-90.860946814000000","publicwifi":"U","url":"www.wentzvillefire.org","broadband_type_id":5}
{"id":null,"anchorname":"O'Fallon Fire Protection District Station 2","address":"2300 Saint Paul Road, Ofallon MO 63366","bldgnbr":"2300","predir":null,"streetname":"Saint Paul","streettype":"Road","suffdir":null,"city":"O'fallon","state_code":"MO","zip5":"63366","latitude":"38.8618858140000000","longitude":"-90.741770266000000","publicwifi":"U","url":"http://www.ofallonfire.org/ofpd/index.php","broadband_type_id":5}
{"id":null,"anchorname":"O'Fallon Fire Protection District Station 2","address":"2300 Saint Paul Road, Ofallon MO 63366","bldgnbr":"2300","predir":null,"streetname":"Saint Paul","streettype":"Road","suffdir":null,"city":"O'fallon","state_code":"MO","zip5":"63366","latitude":"38.8618858140000000","longitude":"-90.741770266000000","publicwifi":"U","url":"http://www.ofallonfire.org/ofpd/index.php","broadband_type_id":5}
{"id":null,"anchorname":"St. Paul City Hall","address":"2301 Saint Paul Road, Saint Paul, MO 63366","bldgnbr":"2301","predir":null,"streetname":"Saint Paul","streettype":"Road","suffdir":null,"city":"Saint Paul","state_code":"MO","zip5":"63366","latitude":"38.8618631450000000","longitude":"-90.741838427000000","publicwifi":"U","url":"http://www.cityofstpaulmissouri.com/","broadband_type_id":1}
{"id":null,"anchorname":"ORTHOPAEDIC PHYSICAL THERAPY ASSOCIATES- SANFORD","address":"1068 Main St SANFORD ME 04073","bldgnbr":"1068","predir":null,"streetname":"Main","streettype":"St","suffdir":null,"city":"SANFORD","state_code":"ME","zip5":"04073","latitude":"43.4285967610000000","longitude":"-70.767589246000000","publicwifi":"U","url":null,"broadband_type_id":6}
{"id":null,"anchorname":"FIRST IMPRESSIONS DENTAL LLP; FIRST IMPRESSIONS DENTAL LLP-003","address":"15 W ELM ST, SANFORD","bldgnbr":"15","predir":"W","streetname":"ELM","streettype":"ST","suffdir":null,"city":"SANFORD","state_code":"ME","zip5":"4073","latitude":"43.4354505470000000","longitude":"-70.774212879000000","publicwifi":"U","url":null,"broadband_type_id":6}
{"id":null,"anchorname":"U A W LOCAL 2250","address":"1395 E. Pearce Blvd.","bldgnbr":"1395","predir":null,"streetname":"E. Pearce Blvd.","streettype":null,"suffdir":null,"city":"WENTZVILLE","state_code":"MO","zip5":"63385","latitude":"38.8152610000000000","longitude":"-90.837232000000000","publicwifi":null,"url":null,"broadband_type_id":null}
{"id":null,"anchorname":"FAITH UNITED CHURCH OF CHRIST","address":"106 Kent Dr.","bldgnbr":"106","predir":null,"streetname":"Kent Dr.","streettype":null,"suffdir":null,"city":"WENTZVILLE","state_code":"MO","zip5":"63385","latitude":"38.8104443550000000","longitude":"-90.862577508000000","publicwifi":null,"url":null,"broadband_type_id":6}
{"id":null,"anchorname":"Wentzville United Methodist Church","address":"725 Wall St.","bldgnbr":"725","predir":null,"streetname":"Wall St.","streettype":null,"suffdir":null,"city":"WENTZVILLE","state_code":"MO","zip5":"63385","latitude":"38.8179647020000000","longitude":"-90.850249730000000","publicwifi":null,"url":null,"broadband_type_id":6}
{"id":null,"anchorname":"FIRST BAPTIST CHURCH OF WENTZVILLE","address":"653 Luetkenhaus Blvd.","bldgnbr":"653","predir":null,"streetname":"Luetkenhaus Blvd.","streettype":null,"suffdir":null,"city":"WENTZVILLE","state_code":"MO","zip5":"63385","latitude":"38.8114400000000000","longitude":"-90.852910700000000","publicwifi":null,"url":null,"broadband_type_id":6}
{"id":null,"anchorname":"IMMACULATE HEART OF MARY CHURCH","address":"26 W. HWY D","bldgnbr":"26","predir":null,"streetname":"W. HWY D","streettype":null,"suffdir":null,"city":"NEW MELLE","state_code":"MO","zip5":"63365","latitude":"38.7096515610000000","longitude":"-90.880514345000000","publicwifi":null,"url":null,"broadband_type_id":3}
{"id":null,"anchorname":"Immanuel Lutheran Church","address":"304 County Road 516, New Wells MO 63732","bldgnbr":"304","predir":null,"streetname":"County Road 516, New Wells MO 63732","streettype":null,"suffdir":null,"city":"ALTENBURG","state_code":"MO","zip5":"63732","latitude":"37.5564454210000000","longitude":"-89.624528924000000","publicwifi":"U","url":null,"broadband_type_id":null}
{"id":null,"anchorname":"Immanuel Lutheran Church","address":"317 Pearce Blvd.","bldgnbr":"317","predir":null,"streetname":"Pearce Blvd.","streettype":null,"suffdir":null,"city":"WENTZVILLE","state_code":"MO","zip5":"63385","latitude":"38.8114100000000000","longitude":"-90.855970000000000","publicwifi":null,"url":null,"broadband_type_id":null}
{"id":null,"anchorname":"St. Theodore's Catholic Church And School","address":"5059 HWY P","bldgnbr":"5059","predir":null,"streetname":"HWY P","streettype":null,"suffdir":null,"city":"WENTZVILLE","state_code":"MO","zip5":"63385","latitude":"38.8548966870000000","longitude":"-90.863507163000000","publicwifi":null,"url":null,"broadband_type_id":6}
{"id":null,"anchorname":"Foristell Police Department","address":"10 State Highway T, Foristell MO 63348","bldgnbr":"10","predir":null,"streetname":"State Hwy T","streettype":"State Highway","suffdir":null,"city":"Foristell","state_code":"MO","zip5":"63348","latitude":"38.8145103340000000","longitude":"-90.955743912000000","publicwifi":"U","url":"http://www.cityofforistell.org/police_department.html","broadband_type_id":4}
{"id":null,"anchorname":"Foristell City Hall","address":"121 Mulberry Street, Foristell, MO 63348-1483","bldgnbr":"121","predir":null,"streetname":"Mullberry","streettype":"Street","suffdir":null,"city":"Saint Charles","state_code":"MO","zip5":"63348","latitude":"38.8145726440000000","longitude":"-90.955716924000000","publicwifi":"U","url":"http://www.cityofforistell.org/","broadband_type_id":1}
{"id":null,"anchorname":"Wentzville Fire Protection District Station 3","address":"3 State Highway T, Foristell MO 63348","bldgnbr":"3","predir":null,"streetname":"T","streettype":"State Highway","suffdir":null,"city":"Foristell","state_code":"MO","zip5":"63348","latitude":"38.8148662630000000","longitude":"-90.955487560000000","publicwifi":"U","url":"www.wentzvillefire.org","broadband_type_id":5}
{"id":null,"anchorname":"Peine Ridge Elementary School","address":"1107 Peine Rd, Wentzville MO 63385-2605","bldgnbr":"1107","predir":null,"streetname":"Peine","streettype":"Road","suffdir":null,"city":"Wentzville","state_code":"MO","zip5":"63385","latitude":"38.8367225760000000","longitude":"-90.893865237000000","publicwifi":"U","url":"http://www.wentzville.k12.mo.us/index.php","broadband_type_id":6}
{"id":null,"anchorname":"Timberland High School","address":"559 E Hwy N, Wentzville MO 63385-5906","bldgnbr":"559","predir":"E","streetname":"Highway N","streettype":"Highway","suffdir":null,"city":"Wentzville","state_code":"MO","zip5":"63385","latitude":"38.7737467850000000","longitude":"-90.844932289000000","publicwifi":"U","url":"http://www.wentzville.k12.mo.us/index.php","broadband_type_id":6}
{"id":null,"anchorname":"TIMBERLAND HIGH SCHOOL","address":"559 E. HWY N","bldgnbr":"559","predir":null,"streetname":"E. HWY N","streettype":null,"suffdir":null,"city":"WENTZVILLE","state_code":"MO","zip5":"63385","latitude":"38.7671222140000000","longitude":"-90.846581576000000","publicwifi":null,"url":null,"broadband_type_id":6}
{"id":null,"anchorname":"Boone Trail Elementary School","address":"555 E Hwy N, Wentzville MO 63385-5906","bldgnbr":"555","predir":"E","streetname":"Highway N","streettype":"Highway","suffdir":null,"city":"Wentzville","state_code":"MO","zip5":"63385","latitude":"38.7685765410000000","longitude":"-90.847015027000000","publicwifi":"U","url":"http://www.wentzville.k12.mo.us/index.php","broadband_type_id":6}
{"id":null,"anchorname":"SSM St. Joseph Health Center- Wentzville","address":"500 Medical Drive, Wentzville MO 63385","bldgnbr":"500","predir":null,"streetname":"Medical","streettype":"Drive","suffdir":null,"city":"Wentzville","state_code":"MO","zip5":"63385","latitude":"38.8221602280000000","longitude":"-90.880689663000000","publicwifi":"U","url":"http://www.ssmhealth.com/sjwz/Pages/home.aspx","broadband_type_id":3}
{"id":null,"anchorname":"St Charles City-county Library-Library Express At Discovery Village","address":"378 Shadow Pines Dr, Wentzville MO 63385-3745","bldgnbr":"378","predir":null,"streetname":"Shadow Pines","streettype":"Drive","suffdir":null,"city":"Wentzville","state_code":"MO","zip5":"63385","latitude":"38.8049798630000000","longitude":"-90.897123978000000","publicwifi":"U","url":"http://www.youranswerplace.org/","broadband_type_id":6}
{"id":null,"anchorname":"Wentzville Police Department","address":"1019 Schroeder Creek Blvd, Wentzville MO 63385","bldgnbr":"1019","predir":null,"streetname":"Schroeder Creek","streettype":"Boulevard","suffdir":null,"city":"Wentzville","state_code":"MO","zip5":"63385","latitude":"38.8228899370000000","longitude":"-90.868356863000000","publicwifi":"U","url":"http://www.wentzvillemo.org/police-department.aspx","broadband_type_id":4}
{"id":null,"anchorname":"WENTZVILLE MIDDLE SCHOOL","address":"405 Campus Dr.","bldgnbr":"405","predir":null,"streetname":"Campus Dr.","streettype":null,"suffdir":null,"city":"WENTZVILLE","state_code":"MO","zip5":"63385","latitude":"38.8134482980000000","longitude":"-90.867273878000000","publicwifi":null,"url":null,"broadband_type_id":6}
{"id":null,"anchorname":"HOLT HIGH SCHOOL","address":"600 Campus Dr.","bldgnbr":"600","predir":null,"streetname":"Campus Dr.","streettype":null,"suffdir":null,"city":"WENTZVILLE","state_code":"MO","zip5":"63385","latitude":"38.8142446270000000","longitude":"-90.867279212000000","publicwifi":null,"url":null,"broadband_type_id":6}
{"id":null,"anchorname":"Wentzville Middle School","address":"405 Campus Dr, Wentzville MO 63385-3436","bldgnbr":"405","predir":null,"streetname":"Campus","streettype":"Drive","suffdir":null,"city":"Wentzville","state_code":"MO","zip5":"63385","latitude":"38.8126039560000000","longitude":"-90.868266798000000","publicwifi":"U","url":"http://www.wentzville.k12.mo.us/index.php","broadband_type_id":6}
{"id":null,"anchorname":"Emil E. Holt Senior High School","address":"600 Campus Dr, Wentzville MO 63385-3433","bldgnbr":"600","predir":null,"streetname":"Campus","streettype":"Drive","suffdir":null,"city":"Wentzville","state_code":"MO","zip5":"63385","latitude":"38.8164008640000000","longitude":"-90.866735533000000","publicwifi":"U","url":"http://www.wentzville.k12.mo.us/index.php","broadband_type_id":6}
{"id":null,"anchorname":"Wentzville South Middle School","address":"561 E. HWY N","bldgnbr":"561","predir":null,"streetname":"E. HWY N","streettype":null,"suffdir":null,"city":"WENTZVILLE","state_code":"MO","zip5":"63385","latitude":"38.8110100000000000","longitude":"-90.852920000000000","publicwifi":null,"url":null,"broadband_type_id":6}
{"id":null,"anchorname":"Wentzville South Middle School","address":"561 E Hwy N, Wentzville MO 63385-3497","bldgnbr":"561","predir":"E","streetname":"Highway N","streettype":"Highway","suffdir":null,"city":"Wentzville","state_code":"MO","zip5":"63385","latitude":"38.7690139640000000","longitude":"-90.844313696000000","publicwifi":"U","url":"http://www.wentzville.k12.mo.us/","broadband_type_id":6}
{"id":null,"anchorname":"Heritage Intermediate School","address":"601 Carr St, Wentzville MO 63385-1151","bldgnbr":"601","predir":null,"streetname":"Carr","streettype":"Street","suffdir":null,"city":"Wentzville","state_code":"MO","zip5":"63385","latitude":"38.8155151410000000","longitude":"-90.853066269000000","publicwifi":"U","url":"http://www.wentzville.k12.mo.us/index.php","broadband_type_id":6}
{"id":null,"anchorname":"Wentzville Fire Protection District Station 1","address":"209 West Pearce Boulevard, Wentzville MO 63385","bldgnbr":"209","predir":"W","streetname":"Pearce","streettype":"Boulevard","suffdir":null,"city":"Wentzville","state_code":"MO","zip5":"63385","latitude":"38.8118266660000000","longitude":"-90.855830820000000","publicwifi":"U","url":"www.wentzvillefire.org","broadband_type_id":5}
{"id":null,"anchorname":"Wentzville City Hall","address":"310 West Pearce Boulevard, Wentzville, MO 63385-1422","bldgnbr":"310","predir":"W","streetname":"West Pearce","streettype":"Boulevard","suffdir":null,"city":"Wentzville","state_code":"MO","zip5":"63385","latitude":"38.8107897300000000","longitude":"-90.856690460000000","publicwifi":"U","url":"http://www.wentzvillemo.org/","broadband_type_id":1}
{"id":null,"anchorname":"New Melle Police Department","address":"145 Almeling Street, New Melle MO 63385","bldgnbr":"145","predir":null,"streetname":"Almeling","streettype":"Street","suffdir":null,"city":"New Melle","state_code":"MO","zip5":"63365","latitude":"38.7090361510000000","longitude":"-90.881252066000000","publicwifi":"U","url":"http://www.newmellepolice.org/news.htm","broadband_type_id":4}
{"id":null,"anchorname":"New Melle City Hall","address":"145 Almeling Street, New Melle, MO 63365","bldgnbr":"145","predir":null,"streetname":"Almeling","streettype":"Street","suffdir":null,"city":"New Melle","state_code":"MO","zip5":"63365","latitude":"38.7090121160000000","longitude":"-90.881265700000000","publicwifi":"U","url":"http://www.newmelle.org/","broadband_type_id":1}
{"id":null,"anchorname":"New Melle Fire Protection District Station 3","address":"1 Nottingham Road, Lake Sherwood MO 63357","bldgnbr":"1","predir":null,"streetname":"Nottingham","streettype":"Road","suffdir":null,"city":"Lake Sherwood","state_code":"MO","zip5":"63357","latitude":"38.6746474540000000","longitude":"-90.963118319000000","publicwifi":"U","url":"http://newmellefire.org/","broadband_type_id":5}
{"id":null,"anchorname":"Augusta Community Fire Company Station 2","address":"3099 State Highway 94, Defiance MO 63341","bldgnbr":"3099","predir":null,"streetname":"State Hwy 94","streettype":"State Highway","suffdir":null,"city":"Defiance","state_code":"MO","zip5":"63341","latitude":"38.6273939280000000","longitude":"-90.782968061000000","publicwifi":"U","url":null,"broadband_type_id":5}
{"id":null,"anchorname":"HUMAN SERVICES, DEPT OF","address":"890 MAIN ST SANFORD ME 04073","bldgnbr":"890","predir":null,"streetname":"MAIN","streettype":"ST","suffdir":null,"city":"SANFORD","state_code":"ME","zip5":"04073","latitude":"43.4399991130000000","longitude":"-70.776391311000000","publicwifi":"U","url":null,"broadband_type_id":6}
{"id":null,"anchorname":"YORK COUNTY COMMUNITY ACTION CORPORATION; 32 PATRIOTS LN-001","address":"32 PATRIOTS LN, SANFORD","bldgnbr":"32","predir":null,"streetname":"PATRIOTS","streettype":"LN","suffdir":null,"city":"SANFORD","state_code":"ME","zip5":"4073","latitude":"43.4121773610000000","longitude":"-70.731862108000000","publicwifi":"U","url":null,"broadband_type_id":1}
{"id":null,"anchorname":"Missouri Department Of Conservation - Saint Louis Regional Office","address":"2360 State Highway D, Saint Charles MO 63304","bldgnbr":"2360","predir":null,"streetname":"State Hwy D","streettype":"State Highway","suffdir":null,"city":"Saint Charles","state_code":"MO","zip5":"63304","latitude":"38.7049228880000000","longitude":"-90.739949460000000","publicwifi":"U","url":"http://mdc.mo.gov/regions/st-louis","broadband_type_id":6}
{"id":null,"anchorname":"Saint Paul Lutheran Church","address":"150 W. HWY D PO Box 70","bldgnbr":"150","predir":null,"streetname":"W. HWY D PO Box 70","streettype":null,"suffdir":null,"city":"NEW MELLE","state_code":"MO","zip5":"63365","latitude":"38.7093180820000000","longitude":"-90.885100163000000","publicwifi":null,"url":null,"broadband_type_id":null}
{"id":null,"anchorname":"Augusta City Hall","address":"Po Box 42, Augusta, MO 63332-0042","bldgnbr":"N/A","predir":null,"streetname":"Unknown","streettype":null,"suffdir":null,"city":"Augusta","state_code":"MO","zip5":"63332","latitude":"38.5731428840000000","longitude":"-90.883069699000000","publicwifi":"U","url":null,"broadband_type_id":1}
{"id":null,"anchorname":"Augusta Community Fire Company Station 1","address":"230 Green Street, Augusta MO 63332","bldgnbr":"230","predir":null,"streetname":"Green","streettype":"Street","suffdir":null,"city":"Augusta","state_code":"MO","zip5":"63332","latitude":"38.5731319630000000","longitude":"-90.883095040000000","publicwifi":"U","url":null,"broadband_type_id":5}
{"id":null,"anchorname":"Saint Charles County Sheriff - Augusta Local Patrol","address":"230 Green Street, Augusta MO 63332","bldgnbr":"230","predir":null,"streetname":"Green","streettype":"Street","suffdir":null,"city":"Augusta","state_code":"MO","zip5":"63332","latitude":"38.5731368170000000","longitude":"-90.883114267000000","publicwifi":"U","url":"http://sheriff.sccmo.org/sheriff/","broadband_type_id":4}
{"id":null,"anchorname":"St Charles City-south County Library","address":"5577 Walnut St, Augusta MO 63332-0128","bldgnbr":"5577","predir":null,"streetname":"Walnut","streettype":"Street","suffdir":null,"city":"Augusta","state_code":"MO","zip5":"63332","latitude":"38.5734164560000000","longitude":"-90.883135762000000","publicwifi":"U","url":"http://www.youranswerplace.org/","broadband_type_id":6}
{"id":null,"anchorname":"Wentzville Fire Protection District Station 4","address":"8200 Orf Road, O'fallon MO 63367","bldgnbr":"8200","predir":null,"streetname":"Orf","streettype":"Road","suffdir":null,"city":"O'fallon","state_code":"MO","zip5":"63367","latitude":"38.7659733340000000","longitude":"-90.778679969000000","publicwifi":"U","url":"www.wentzvillefire.org","broadband_type_id":5}
{"id":null,"anchorname":"Frontier Middle School","address":"9233 Hwy Dd, O'fallon MO 63368-6515","bldgnbr":"9233","predir":null,"streetname":"Highway Dd","streettype":"Highway","suffdir":null,"city":"O'fallon","state_code":"MO","zip5":"63368","latitude":"38.7452938530000000","longitude":"-90.787674616000000","publicwifi":"U","url":"http://www.wentzville.k12.mo.us/","broadband_type_id":6}
{"id":null,"anchorname":"Frontier Middle School","address":"9233 HWY DD","bldgnbr":"9233","predir":null,"streetname":"HWY DD","streettype":null,"suffdir":null,"city":"WENTZVILLE","state_code":"MO","zip5":"63385","latitude":"38.7354400000000000","longitude":"-90.802750000000000","publicwifi":null,"url":null,"broadband_type_id":6}
{"id":null,"anchorname":"Daniel Boone Elementary School","address":"201 W Hwy D, Wentzville MO 63385-6208","bldgnbr":"201","predir":"W","streetname":"Highway D","streettype":"Highway","suffdir":null,"city":"Wentzville","state_code":"MO","zip5":"63385","latitude":"38.7100880100000000","longitude":"-90.885352907000000","publicwifi":"U","url":"http://danielboone.fhsd.k12.mo.us/","broadband_type_id":6}
{"id":null,"anchorname":"Daniel Boone Elementary School","address":"302 Kuhl Ave, Warrenton MO 63383-2116","bldgnbr":"302","predir":null,"streetname":"Kuhl","streettype":"Avenue","suffdir":null,"city":"Warrenton","state_code":"MO","zip5":"63383","latitude":"38.8076381260000000","longitude":"-91.137867729000000","publicwifi":"N","url":"http://www.warrencor3.org/vnews/display.v/SEC/Daniel%20Boone%20Elementary","broadband_type_id":6}
{"id":null,"anchorname":"New Melle Fire Protection District Station 1","address":"3705 Mill Street, New Melle MO 63365","bldgnbr":"3705","predir":null,"streetname":"Mill","streettype":"Street","suffdir":null,"city":"New Melle","state_code":"MO","zip5":"63365","latitude":"38.7119710340000000","longitude":"-90.878877572000000","publicwifi":"U","url":"www.newmellefire.org","broadband_type_id":5}
{"id":null,"anchorname":"New Melle Fire Protection District Station 2","address":"3719 State Highway D, Defiance MO 63341","bldgnbr":"3719","predir":null,"streetname":"State Hwy D","streettype":"State Highway","suffdir":null,"city":"Defiance","state_code":"MO","zip5":"63341","latitude":"38.6947725220000000","longitude":"-90.804591609000000","publicwifi":"U","url":"http://newmellefire.org/","broadband_type_id":5}
{"id":null,"anchorname":"Barnes-Jewish St. Peters Hospital","address":"10 Hospital Drive, St. Peters MO 63376","bldgnbr":"10","predir":null,"streetname":"Hospital","streettype":"Drive","suffdir":null,"city":"Saint Peters","state_code":"MO","zip5":"63376","latitude":"38.7937804460000000","longitude":"-90.579490225000000","publicwifi":"U","url":"http://www.bjsph.org/","broadband_type_id":3}
{"id":null,"anchorname":"Saint Peters Police Department","address":"1020 Kimberly Lane, St. Peters MO 63376","bldgnbr":"1020","predir":null,"streetname":"Kimberly","streettype":"Lane","suffdir":null,"city":"Saint Peters","state_code":"MO","zip5":"63376","latitude":"38.7923229710000000","longitude":"-90.613964043000000","publicwifi":"U","url":"http://www.stpetersmo.net/police-department.aspx","broadband_type_id":4}
{"id":null,"anchorname":"Lewis And Clark Elementary School- Fort Zumwalt R-2 School District","address":"460 Mcmenamy Rd, St Peters MO 63376-1510","bldgnbr":"460","predir":null,"streetname":"Mcmenamy","streettype":"Road","suffdir":null,"city":"Saint Peters","state_code":"MO","zip5":"63376","latitude":"38.7913823510000000","longitude":"-90.621297763000000","publicwifi":"U","url":null,"broadband_type_id":6}
{"id":null,"anchorname":"St. Peters Elementary School","address":"400 Mcmenamy Rd, St Peters MO 63366-1510","bldgnbr":"400","predir":null,"streetname":"Mcmenamy","streettype":"Road","suffdir":null,"city":"Saint Peters","state_code":"MO","zip5":"63376","latitude":"38.7925242520000000","longitude":"-90.622508923000000","publicwifi":"U","url":"http://www.fz.k12.mo.us/Pages/Default.aspx","broadband_type_id":6}
{"id":null,"anchorname":"Francis Howell High School","address":"7001 Hwy 94 South, St Charles MO 63304-2217","bldgnbr":"7001","predir":null,"streetname":"Highway 94","streettype":"Highway","suffdir":"S","city":"Saint Charles","state_code":"MO","zip5":"63304","latitude":"38.7019262320000000","longitude":"-90.715242140000000","publicwifi":"U","url":"http://fhh.fhsd.k12.mo.us/","broadband_type_id":6}
{"id":null,"anchorname":"Francis Howell High School","address":"7001 S. HWY 94","bldgnbr":"7001","predir":null,"streetname":"S. HWY 94","streettype":null,"suffdir":null,"city":"SAINT CHARLES","state_code":"MO","zip5":"63304","latitude":"38.6714646230000000","longitude":"-90.732154704000000","publicwifi":null,"url":null,"broadband_type_id":6}
{"id":null,"anchorname":"Francis Howell Union High School","address":"1405 Hwy D, St Charles MO 63304-2228","bldgnbr":"1405","predir":null,"streetname":"Hgihway D","streettype":"Highway","suffdir":null,"city":"Saint Charles","state_code":"MO","zip5":"63304","latitude":"38.7033737720000000","longitude":"-90.715774577000000","publicwifi":"U","url":"http://fhu.fhsd.k12.mo.us/","broadband_type_id":6}
{"id":null,"anchorname":"Appleton City Public Library","address":"105 W 4th St, Appleton City MO 64724-9999","bldgnbr":"105","predir":"W","streetname":"4th","streettype":"Street","suffdir":null,"city":"Appleton City","state_code":"MO","zip5":"64724","latitude":"38.1907622560000000","longitude":"-94.027715407000000","publicwifi":"N","url":null,"broadband_type_id":6}
{"id":null,"anchorname":"Appleton City High School","address":"408 W 4th, Appleton City MO 64724-0126","bldgnbr":"408","predir":"W","streetname":"4th","streettype":null,"suffdir":null,"city":"Appleton City","state_code":"MO","zip5":"64724","latitude":"38.1902928680000000","longitude":"-94.034056138000000","publicwifi":"Y","url":"http://appletoncity.k12.mo.us/","broadband_type_id":6}
{"id":null,"anchorname":"Appleton City Elementary School","address":"408 W 4th, Appleton City MO 64724-0126","bldgnbr":"408","predir":"W","streetname":"4th","streettype":null,"suffdir":null,"city":"Appleton City","state_code":"MO","zip5":"64724","latitude":"38.1902986120000000","longitude":"-94.033915623000000","publicwifi":"Y","url":"http://appletoncity.k12.mo.us/","broadband_type_id":6}
{"id":null,"anchorname":"Appleton City City Hall","address":"114 E 4th St, Appleton City, MO 64724","bldgnbr":"114","predir":"E","streetname":"4th","streettype":"Street","suffdir":null,"city":"Appleton City","state_code":"MO","zip5":"64724","latitude":"38.1901556950000000","longitude":"-94.026813196000000","publicwifi":"N","url":null,"broadband_type_id":1}
{"id":null,"anchorname":"Appleton City Police Department","address":"114 E Fourth St, Appleton City MO 64724","bldgnbr":"114","predir":"E","streetname":"4th","streettype":"Street","suffdir":null,"city":"Appleton City","state_code":"MO","zip5":"64724","latitude":"38.1901339250000000","longitude":"-94.026758446000000","publicwifi":"N","url":"http://acpdmo.tripod.com/","broadband_type_id":4}
{"id":null,"anchorname":"Appleton City Fire Department","address":"305 North Chestnut Street, Appleton City MO 64724","bldgnbr":"305","predir":"N","streetname":"Chestnut","streettype":"Street","suffdir":null,"city":"Appleton City","state_code":"MO","zip5":"64724","latitude":"38.1896948130000000","longitude":"-94.026770461000000","publicwifi":"U","url":null,"broadband_type_id":5}
{"id":null,"anchorname":"Lowry City City Hall","address":"406 West 4th Street, Lowry City, MO 64763","bldgnbr":"406","predir":"W","streetname":"4th","streettype":"Street","suffdir":null,"city":"Lowry City","state_code":"MO","zip5":"64763","latitude":"38.1399123100000000","longitude":"-93.730451541000000","publicwifi":"N","url":"http://lowrycitymo.com/","broadband_type_id":1}
{"id":null,"anchorname":"Lowry City Police Department","address":"406 West 4th Street, Lowry City MO 64763","bldgnbr":"406","predir":"W","streetname":"4th","streettype":"Street","suffdir":null,"city":"Lowry City","state_code":"MO","zip5":"64763","latitude":"38.1399592530000000","longitude":"-93.730393720000000","publicwifi":"N","url":null,"broadband_type_id":4}
{"id":null,"anchorname":"Taberville Community Volunteer Fire Department","address":"1185 Southwest State Highway H, Rockville MO 64780","bldgnbr":"1185","predir":"SW","streetname":"State Hwy H","streettype":"State Highway","suffdir":null,"city":"Rockville","state_code":"MO","zip5":"64780","latitude":"38.0122345130000000","longitude":"-93.994948836000000","publicwifi":"U","url":null,"broadband_type_id":5}
{"id":null,"anchorname":"Roscoe Elementary School","address":"3535 Sw 300 Rd, Roscoe MO 64781-0128","bldgnbr":"3535","predir":"SW","streetname":"300 Road","streettype":"Road","suffdir":null,"city":"Roscoe","state_code":"MO","zip5":"64781","latitude":"37.9766681300000000","longitude":"-93.814252607000000","publicwifi":"U","url":null,"broadband_type_id":6}
{"id":null,"anchorname":"PROGRESSIONS LLC; HOME SITE-001","address":"58 LOWER BARLEY ST, LEBANON","bldgnbr":"58","predir":null,"streetname":"LOWER BARLEY","streettype":"ST","suffdir":null,"city":"LEBANON","state_code":"ME","zip5":"4027","latitude":"43.3528037040000000","longitude":"-70.932837925000000","publicwifi":"U","url":null,"broadband_type_id":6}
{"id":null,"anchorname":"ASSOCIATES IN YORK ORTHOPAEDIC","address":"114 SANFORD RD WELLS ME 04090","bldgnbr":"114","predir":null,"streetname":"SANFORD","streettype":"RD","suffdir":null,"city":"WELLS","state_code":"ME","zip5":"04090","latitude":"43.3228662780000000","longitude":"-70.586247773000000","publicwifi":"U","url":null,"broadband_type_id":6}
{"id":null,"anchorname":"ALLEGANY COUNTY GIRLS' GROUP HOME","address":"10700 LESLIE LN SE CUMBERLAND MD 21502","bldgnbr":"10700","predir":null,"streetname":"LESLIE","streettype":"LN","suffdir":null,"city":"CUMBERLAND","state_code":"MD","zip5":"21502","latitude":"39.6504480000000000","longitude":"-78.736535000000000","publicwifi":"U","url":"HTTP://WWW.OAG.STATE.MD.US/JJMU/FACILITIES/FAC_AGG.HTM","broadband_type_id":1}
{"id":null,"anchorname":"Felix Valle House Historic Site","address":"198 Merchant St., Ste. Genevieve, MO 63670","bldgnbr":"198","predir":null,"streetname":"Merchant","streettype":"Street","suffdir":null,"city":"Sainte Genevieve","state_code":"MO","zip5":"63670","latitude":"37.9798660610000000","longitude":"-90.044672828000000","publicwifi":"N","url":"www.mostateparks.com/patk/felix-valle-house-state-historic-site","broadband_type_id":6}
{"id":null,"anchorname":"Ste. Genevieve County MU Extension Center","address":"255 Market St, Ste. Genevieve, MO 63670","bldgnbr":"255","predir":null,"streetname":"Market","streettype":"St","suffdir":null,"city":"Genevieve","state_code":"MO","zip5":"63670","latitude":"37.9790068840000000","longitude":"-90.045353569000000","publicwifi":"N","url":"http://extension.missouri.edu/stegenevieve","broadband_type_id":1}
{"id":null,"anchorname":"Ste. Genevieve County Circuit Court","address":"55 South 3rd Street, Ste. Genevieve MO 63670","bldgnbr":"55","predir":"S","streetname":"3rd","streettype":"Street","suffdir":null,"city":"Sainte Genevieve","state_code":"MO","zip5":"63670","latitude":"37.9790641180000000","longitude":"-90.046450238000000","publicwifi":"N","url":"www.stegencounty.org","broadband_type_id":1}
{"id":null,"anchorname":"Saint Anns Church","address":"30455 W. Dam Access Rd.","bldgnbr":"30455","predir":null,"streetname":"W. Dam Access Rd.","streettype":null,"suffdir":null,"city":"WARSAW","state_code":"MO","zip5":"65355","latitude":"38.0478800000000000","longitude":"-93.694104000000000","publicwifi":null,"url":null,"broadband_type_id":null}
{"id":null,"anchorname":"Collins Fire Department","address":"1013 Main St.","bldgnbr":"1013","predir":null,"streetname":"Main St.","streettype":null,"suffdir":null,"city":"COLLINS","state_code":"MO","zip5":"64738","latitude":"37.8882580000000000","longitude":"-93.622899000000000","publicwifi":null,"url":null,"broadband_type_id":5}
{"id":null,"anchorname":"Collins Fire Department","address":"1013 Main Street, Collins MO 64738","bldgnbr":"1310","predir":null,"streetname":"Main","streettype":"Street","suffdir":null,"city":"Collins","state_code":"MO","zip5":"64738","latitude":"37.8886285100000000","longitude":"-93.622903870000000","publicwifi":"U","url":null,"broadband_type_id":5}
{"id":null,"anchorname":"Iconium Fire Protection District Station 3","address":"State Highway Hh, Lowry City MO 64763","bldgnbr":"N/A","predir":null,"streetname":"State Hwy Hh","streettype":"State Highway","suffdir":null,"city":"Lowry City","state_code":"MO","zip5":"64763","latitude":"38.1359001320000000","longitude":"-93.614004452000000","publicwifi":"U","url":null,"broadband_type_id":5}
{"id":null,"anchorname":"Iconium Fire Protection District Station 1","address":"12715 Northeast State Highway C, Osceola MO 64776","bldgnbr":"12715","predir":"NE","streetname":"State Hwy C","streettype":"State Highway","suffdir":null,"city":"Osceola","state_code":"MO","zip5":"64776","latitude":"38.1056497700000000","longitude":"-93.543390616000000","publicwifi":"U","url":null,"broadband_type_id":5}
{"id":null,"anchorname":"St. Clair County Health Center","address":"530 Arduser Drive, Osceola MO 64776","bldgnbr":"530","predir":null,"streetname":"Arduser","streettype":"Drive","suffdir":null,"city":"Osceola","state_code":"MO","zip5":"64776","latitude":"38.0516351330000000","longitude":"-93.689064205000000","publicwifi":"U","url":"http://stclaircountyhealth.net/","broadband_type_id":3}
{"id":null,"anchorname":"Sac-osage Hospital","address":"700 Giesler Road, Osceola, MO 64776","bldgnbr":"700","predir":null,"streetname":"Giesler","streettype":"Road","suffdir":null,"city":"Osceola","state_code":"MO","zip5":"64776","latitude":"38.0518082740000000","longitude":"-93.689279891000000","publicwifi":"Y","url":"sac-osagehospitle.com","broadband_type_id":3}
{"id":null,"anchorname":"St Clair County Library","address":"115 Chestnut St, Osceola MO 64776-0575","bldgnbr":"115","predir":null,"streetname":"Chestnut","streettype":"Street","suffdir":null,"city":"Osceola","state_code":"MO","zip5":"64776","latitude":"38.0479709190000000","longitude":"-93.704251849000000","publicwifi":"Y","url":"http://mostclair.lib.mo.us/","broadband_type_id":6}
{"id":null,"anchorname":"St. Clair County Courthouse","address":"652 2nd Street, Osceola MO 64776","bldgnbr":"652","predir":null,"streetname":"2nd","streettype":"Street","suffdir":null,"city":"Osceola","state_code":"MO","zip5":"64776","latitude":"38.0470530170000000","longitude":"-93.703111040000000","publicwifi":"N","url":"http://stclaircountymissouri.com/default.aspx","broadband_type_id":1}
{"id":null,"anchorname":"Sac-osage Fire Protection District","address":"150 Northeast State Highway Ww, Osceola MO 64776","bldgnbr":"150","predir":"NE","streetname":"State Hwy Ww","streettype":"State Highway","suffdir":null,"city":"Osceola","state_code":"MO","zip5":"64776","latitude":"38.0229569000000000","longitude":"-93.696463178000000","publicwifi":"U","url":null,"broadband_type_id":5}
{"id":null,"anchorname":"Osceola Elementary School","address":"76 Se Hwy Ww, Osceola MO 64776-6239","bldgnbr":"76","predir":"SE","streetname":"Hgihway Ww","streettype":"Highway","suffdir":null,"city":"Osceola","state_code":"MO","zip5":"64776","latitude":"38.0240113690000000","longitude":"-93.697485702000000","publicwifi":"N","url":"http://www.osceola.k12.mo.us/","broadband_type_id":6}
{"id":null,"anchorname":"Osceola Junior-Senior High School","address":"76 Se Hwy Ww, Osceola MO 64776-6239","bldgnbr":"76","predir":"SE","streetname":"Highway Ww","streettype":"Highway","suffdir":null,"city":"Osceola","state_code":"MO","zip5":"64776","latitude":"38.0236697250000000","longitude":"-93.697680661000000","publicwifi":"N","url":"http://www.osceola.k12.mo.us/","broadband_type_id":6}
{"id":null,"anchorname":"Kinsey Volunteer Fire Department","address":"7821 State Route Dd, Bloomsdale MO 63627","bldgnbr":"7821","predir":null,"streetname":"State Rte Dd","streettype":"Route","suffdir":null,"city":"Bloomsdale","state_code":"MO","zip5":"63670","latitude":"38.0388164110000000","longitude":"-90.309284451000000","publicwifi":"N","url":null,"broadband_type_id":5}
{"id":null,"anchorname":"Bloomsdale Elementary School","address":"6279 Us Hwy 61, Bloomsdale MO 63627-8904","bldgnbr":"6279","predir":null,"streetname":"Us Highway 61","streettype":"Highway","suffdir":null,"city":"Bloomsdale","state_code":"MO","zip5":"63670","latitude":"38.0337834920000000","longitude":"-90.244717786000000","publicwifi":"Y","url":"http://www.stegen.k12.mo.us/","broadband_type_id":6}
{"id":null,"anchorname":"Bloomsdale Volunteer Fire Department","address":"521 United States Highway 61, Bloomsdale MO 63627","bldgnbr":"521","predir":null,"streetname":"Us Highway 61","streettype":"Highway","suffdir":null,"city":"Bloomsdale","state_code":"MO","zip5":"63670","latitude":"38.0112103900000000","longitude":"-90.222310592000000","publicwifi":"N","url":null,"broadband_type_id":5}
{"id":null,"anchorname":"Bloomsdale City Hall","address":"80 Mill Hill Road, Bloomsdale, MO 63627","bldgnbr":"80","predir":null,"streetname":"Mill Hill","streettype":"Road","suffdir":null,"city":"Bloomsdale","state_code":"MO","zip5":"63670","latitude":"38.0082694590000000","longitude":"-90.217746410000000","publicwifi":"N","url":null,"broadband_type_id":1}
{"id":null,"anchorname":"Ste. Genevieve County Courthouse","address":"55 South 3rd Street, Ste. Genevieve MO 63670","bldgnbr":"55","predir":"S","streetname":"3rd","streettype":"Street","suffdir":null,"city":"Sainte Genevieve","state_code":"MO","zip5":"63670","latitude":"37.9790974300000000","longitude":"-90.046452142000000","publicwifi":"N","url":"www.stegencounty.org","broadband_type_id":1}
{"id":null,"anchorname":"Ste. Genevieve R-ii School District","address":"375 N. 5th St., Ste. Genevieve MO 63670","bldgnbr":"375","predir":null,"streetname":"N. 5th St., Ste. Genevieve MO 63670","streettype":null,"suffdir":null,"city":"SAINTE GENEVIEVE","state_code":"MO","zip5":"63670","latitude":"37.9829965420000000","longitude":"-90.050745767000000","publicwifi":"Y","url":"http://www.stegen.k12.mo.us/","broadband_type_id":6}
{"id":null,"anchorname":"Ste. Genevieve Senior High School","address":"715 Washington St, Ste Genevieve MO 63670-1246","bldgnbr":"715","predir":null,"streetname":"Washington","streettype":"Street","suffdir":null,"city":"Sainte Genevieve","state_code":"MO","zip5":"63670","latitude":"37.9824417380000000","longitude":"-90.052378535000000","publicwifi":"Y","url":"http://www.stegen.k12.mo.us/","broadband_type_id":6}
{"id":null,"anchorname":"Ste. Genevieve Elementary School","address":"725 Washington St, Ste Genevieve MO 63670-1247","bldgnbr":"725","predir":null,"streetname":"Washington","streettype":"Street","suffdir":null,"city":"Sainte Genevieve","state_code":"MO","zip5":"63670","latitude":"37.9817437350000000","longitude":"-90.053162022000000","publicwifi":"Y","url":"http://www.stegen.k12.mo.us/","broadband_type_id":6}
{"id":null,"anchorname":"Ste. Genevieve Middle School","address":"211 N Fifth St, Ste Genevieve MO 63670-1248","bldgnbr":"211","predir":"N","streetname":"5th","streettype":"Street","suffdir":null,"city":"Sainte Genevieve","state_code":"MO","zip5":"63670","latitude":"37.9820772000000000","longitude":"-90.050637827000000","publicwifi":"Y","url":"http://www.stegen.k12.mo.us/","broadband_type_id":6}
{"id":null,"anchorname":"Ste Genevieve R-2 School District-elementary - DUPLICATE 163","address":"725 Washington St.","bldgnbr":"725","predir":null,"streetname":"Washington St.","streettype":null,"suffdir":null,"city":"SAINTE GENEVIEVE","state_code":"MO","zip5":"63670","latitude":"37.9815189680000000","longitude":"-90.052868030000000","publicwifi":"Y","url":"www.stegen.k12.mo.us","broadband_type_id":6}
{"id":null,"anchorname":"Ste Genevieve Police Department","address":"165 S Fourth Street, Ste Genevieve MO 63670","bldgnbr":"165","predir":null,"streetname":"4th","streettype":"Street","suffdir":null,"city":"Sainte Genevieve","state_code":"MO","zip5":"63670","latitude":"37.9781556510000000","longitude":"-90.047818561000000","publicwifi":"N","url":"www.stegenevieve.org","broadband_type_id":4}
{"id":null,"anchorname":"Ste. Genevieve City Hall","address":"165 South 4th Street, Ste. Genevieve, MO 63670-1605","bldgnbr":"165","predir":"S","streetname":"4th","streettype":"Street","suffdir":null,"city":"Sainte Genevieve","state_code":"MO","zip5":"63670","latitude":"37.9781580550000000","longitude":"-90.047619129000000","publicwifi":"N","url":"http://www.stegenevieve.org","broadband_type_id":1}
{"id":null,"anchorname":"NOBLE ADULT \u0026 COMMUNITY EDUCATION","address":"383 SOMERSWORTH RD NORTH BERWICK ME 03906","bldgnbr":"383","predir":null,"streetname":"SOMERSWORTH","streettype":"RD","suffdir":null,"city":"NORTH BERWICK","state_code":"ME","zip5":"03906","latitude":"43.2986400010000000","longitude":"-70.777680000000000","publicwifi":"U","url":null,"broadband_type_id":6}
{"id":null,"anchorname":"Sainte Genevieve County Jail","address":"5 Basler Drive, Sainte Genevieve MO 63670","bldgnbr":"5","predir":null,"streetname":"Basler","streettype":"Drive","suffdir":null,"city":"Sainte Genevieve","state_code":"MO","zip5":"63670","latitude":"37.9660082960000000","longitude":"-90.055764300000000","publicwifi":"U","url":"http://sgcso.com/index.php","broadband_type_id":1}
{"id":null,"anchorname":"Our Lady Help Of Christian Church","address":"13370 US HWY 32, Ste. Genevieve MO 63670-8304","bldgnbr":"13370","predir":null,"streetname":"US HWY 32, Ste. Genevieve MO 63670-8304","streettype":null,"suffdir":null,"city":"SAINTE GENEVIEVE","state_code":"MO","zip5":"63670","latitude":"37.8945082930000000","longitude":"-90.212239450000000","publicwifi":"U","url":null,"broadband_type_id":6}
{"id":null,"anchorname":"Holy Cross Evangelical Lutheran Church","address":"200 Market St., Ste. Genevieve MO 63670","bldgnbr":"200","predir":null,"streetname":"Market St., Ste. Genevieve MO 63670","streettype":null,"suffdir":null,"city":"SAINTE GENEVIEVE","state_code":"MO","zip5":"63670","latitude":"37.9787470280000000","longitude":"-90.044566178000000","publicwifi":"N","url":null,"broadband_type_id":null}
{"id":null,"anchorname":"Vfw Ste Genevieve","address":"852 Memorial Dr., Ste. Genevieve MO 63670","bldgnbr":"852","predir":null,"streetname":"Memorial Dr., Ste. Genevieve MO 63670","streettype":null,"suffdir":null,"city":"SAINTE GENEVIEVE","state_code":"MO","zip5":"63670","latitude":"37.9749233800000000","longitude":"-90.101560422000000","publicwifi":"U","url":null,"broadband_type_id":null}
{"id":null,"anchorname":"Hazelwood Group Home - Hazelwood Group Home","address":"545 Fee Fee Hills Drive, Hazelwood MO 63042","bldgnbr":"545","predir":null,"streetname":"Fee Fee Hills","streettype":"Drive","suffdir":null,"city":"Hazelwood","state_code":"MO","zip5":"63042","latitude":"38.0105555560000000","longitude":"-90.372777777000000","publicwifi":"U","url":null,"broadband_type_id":null}
{"id":null,"anchorname":"Eastern Reception Diagnostic And Correctional Center","address":"2727 State Highway K, Bonne Terre MO 63628","bldgnbr":"2727","predir":null,"streetname":"State Hwy K","streettype":null,"suffdir":null,"city":"Bonne Terre","state_code":"MO","zip5":"63628","latitude":"37.9242636390000000","longitude":"-90.514313607000000","publicwifi":"U","url":null,"broadband_type_id":null}
{"id":null,"anchorname":"Sainte GenevieveFire Department","address":"550 Pine Dr., Sainte Genevieve MO 63670","bldgnbr":"550","predir":null,"streetname":"Pine","streettype":"Drive","suffdir":null,"city":"Sainte Genevieve","state_code":"MO","zip5":"63670","latitude":"37.9697813340000000","longitude":"-90.052802397000000","publicwifi":"N","url":"http://www.stegenevieve.org/Fire.htm","broadband_type_id":5}
{"id":null,"anchorname":"Ozark Regional Library- Ste. Genevieve","address":"21388 State Highway 32, Ste. Genevieve MO 63670-0386","bldgnbr":"21388","predir":null,"streetname":"State Hwy 32","streettype":"State Highway","suffdir":null,"city":"Sainte Genevieve","state_code":"MO","zip5":"63670","latitude":"37.9543196590000000","longitude":"-90.067988069000000","publicwifi":"Y","url":"http://ozarkregionallibrary.lib.mo.us/","broadband_type_id":6}
{"id":null,"anchorname":"Ste. Genevieve County Health Department","address":"115 Basler Dr, Ste. Genevieve MO 63670","bldgnbr":"115","predir":null,"streetname":"Basler","streettype":"Drive","suffdir":null,"city":"Sainte Genevieve","state_code":"MO","zip5":"63670","latitude":"37.9640528820000000","longitude":"-90.055103998000000","publicwifi":"N","url":"http://stegencohealth.org/","broadband_type_id":3}
{"id":null,"anchorname":"Sainte Genevieve County Sheriffs Department","address":"5 Basler Drive, Sainte Genevieve MO 63670","bldgnbr":"5","predir":null,"streetname":"Basler","streettype":"Drive","suffdir":null,"city":"Sainte Genevieve","state_code":"MO","zip5":"63670","latitude":"37.9660246120000000","longitude":"-90.055672554000000","publicwifi":"U","url":"http://sgcso.com/index.php","broadband_type_id":4}
{"id":null,"anchorname":"Zell Volunteer Fire Department","address":"11274 Zell Road, Sainte Genevieve MO 63670","bldgnbr":"11274","predir":null,"streetname":"Zell","streettype":"Road","suffdir":null,"city":"Sainte Genevieve","state_code":"MO","zip5":"63670","latitude":"37.9515411570000000","longitude":"-90.142526241000000","publicwifi":"U","url":null,"broadband_type_id":5}
{"id":null,"anchorname":"Lake Forest Volunteer Fire Department","address":"13100 Lakewood Drive, Sainte Genevieve MO 63670","bldgnbr":"13100","predir":null,"streetname":"Lakewood","streettype":"Drive","suffdir":null,"city":"Sainte Genevieve","state_code":"MO","zip5":"63670","latitude":"37.9485938840000000","longitude":"-90.215388018000000","publicwifi":"N","url":null,"broadband_type_id":5}
{"id":null,"anchorname":"Weingarten Volunteer Fire Department","address":"13491 United States Highway 32, Sainte Genevieve MO 63670","bldgnbr":"13491","predir":null,"streetname":"Us Highway 32","streettype":"Highway","suffdir":null,"city":"Sainte Genevieve","state_code":"MO","zip5":"63670","latitude":"37.8983896920000000","longitude":"-90.213885900000000","publicwifi":"N","url":null,"broadband_type_id":5}
{"id":null,"anchorname":"Ozora Community Fire Protection Association","address":"17919 State Highway N, St Mary MO 63673","bldgnbr":"17919","predir":null,"streetname":"State Hwy N","streettype":"State Highway","suffdir":null,"city":"Saint Mary","state_code":"MO","zip5":"63673","latitude":"37.8617387920000000","longitude":"-90.035312845000000","publicwifi":"U","url":null,"broadband_type_id":5}
{"id":null,"anchorname":"Saint Mary Volunteer Fire Department","address":"17409 Bartles Industrial Drive, Saint Mary MO 63673","bldgnbr":"17409","predir":null,"streetname":"Bartles Industrial","streettype":"Drive","suffdir":null,"city":"Saint Mary","state_code":"MO","zip5":"63673","latitude":"37.8657280450000000","longitude":"-89.951202252000000","publicwifi":"N","url":"http://saintmarymo.com/","broadband_type_id":5}
{"id":null,"anchorname":"St. Mary City Hall","address":"782 3rd Street, St. Mary, MO 63673-9324","bldgnbr":"782","predir":null,"streetname":"3rd","streettype":"Street","suffdir":null,"city":"Saint Mary","state_code":"MO","zip5":"63673","latitude":"37.8767992040000000","longitude":"-89.946961503000000","publicwifi":"N","url":"http://saintmarymo.com/","broadband_type_id":1}
{"id":null,"anchorname":"St Mary Police Department","address":"782 Third St, St. Mary MO 63673","bldgnbr":"782","predir":null,"streetname":"3rd","streettype":"Street","suffdir":null,"city":"Saint Mary","state_code":"MO","zip5":"63673","latitude":"37.8767895950000000","longitude":"-89.946946313000000","publicwifi":"N","url":null,"broadband_type_id":4}
{"id":null,"anchorname":"Saint Francois State Park Rangers","address":"8920 United States Highway 67, Bonne Terre MO 63628","bldgnbr":"8920","predir":null,"streetname":"Us Hwy 67","streettype":null,"suffdir":null,"city":"Bonne Terre","state_code":"MO","zip5":"63628","latitude":"37.9687449420000000","longitude":"-90.538453502000000","publicwifi":"N","url":"http://mostateparks.com/park/st-francois-state-park","broadband_type_id":2}
{"id":null,"anchorname":"Goose Creek Lake Fire Department Station 2","address":"9103 Beach Drive, French Village MO 63036","bldgnbr":"9103","predir":null,"streetname":"Beach","streettype":"Drive","suffdir":null,"city":"French Village","state_code":"MO","zip5":"63036","latitude":"37.9760899460000000","longitude":"-90.343989132000000","publicwifi":"N","url":null,"broadband_type_id":5}
{"id":null,"anchorname":"North County Senior High School","address":"7151 Raider Rd, Bonne Terre MO 63628-3766","bldgnbr":"7151","predir":null,"streetname":"Raider","streettype":"Road","suffdir":null,"city":"Bonne Terre","state_code":"MO","zip5":"63628","latitude":"37.9079934770000000","longitude":"-90.524452157000000","publicwifi":"N","url":"http://www.ncsd.k12.mo.us/homepage-hs","broadband_type_id":6}
