{"id":null,"anchorname":"Skyridge Elementary","address":"800 Perkins Way","bldgnbr":"800","predir":null,"streetname":"Perkins Way","streettype":null,"suffdir":null,"city":"Auburn","state_code":"CA","zip5":"95603","latitude":"38.8733270000000000","longitude":"-121.07342000000000","publicwifi":"U","url":null,"broadband_type_id":6}
{"id":null,"anchorname":"Ophir Elementary","address":"1373 Lozanos Road","bldgnbr":"1373","predir":null,"streetname":"Lozanos Road","streettype":null,"suffdir":null,"city":"Newcastle","state_code":"CA","zip5":"95658","latitude":"38.8961480000000000","longitude":"-121.12522000000000","publicwifi":"U","url":null,"broadband_type_id":6}
{"id":null,"anchorname":"Newcastle Virtual Learning Academy","address":"450 Main Street","bldgnbr":"450","predir":null,"streetname":"Main Street","streettype":null,"suffdir":null,"city":"Newcastle","state_code":"CA","zip5":"95658","latitude":"38.8747920000000000","longitude":"-121.13404000000000","publicwifi":"U","url":null,"broadband_type_id":6}
{"id":null,"anchorname":"Newcastle Elementary","address":"8951 Valley View Drive","bldgnbr":"8951","predir":null,"streetname":"Valley View","streettype":null,"suffdir":null,"city":"Newcastle","state_code":"CA","zip5":"95658","latitude":"38.8712960000000000","longitude":"-121.13632000000000","publicwifi":"U","url":null,"broadband_type_id":6}
{"id":null,"anchorname":"Sierra Vista","address":"645 Kentucky Greens Way","bldgnbr":"645","predir":null,"streetname":"Kentucky Greens Way","streettype":null,"suffdir":null,"city":"Newcastle","state_code":"CA","zip5":"95658","latitude":"38.8715300000000000","longitude":"-121.13915000000000","publicwifi":"U","url":"www.placercoe.k12.ca.us","broadband_type_id":6}
{"id":null,"anchorname":"Harvest Ridge Cooperative Charter/Placer Academy","address":"9050 Old State Highway","bldgnbr":"9050","predir":null,"streetname":"Old State Highway","streettype":null,"suffdir":null,"city":"Newcastle","state_code":"CA","zip5":"95658","latitude":"38.8740760000000000","longitude":"-121.13578000000000","publicwifi":"U","url":"www.harvestridgeschool.org","broadband_type_id":6}
{"id":null,"anchorname":"Placer Elementary","address":"8650 Horseshoe Bar Road","bldgnbr":"8650","predir":null,"streetname":"Horseshoe Bar","streettype":null,"suffdir":null,"city":"Loomis","state_code":"CA","zip5":"95650","latitude":"38.8093840000000000","longitude":"-121.14358000000000","publicwifi":"U","url":null,"broadband_type_id":6}
{"id":null,"anchorname":"Loomis Basin Charter","address":"5438 Laird Road","bldgnbr":"5438","predir":null,"streetname":"Laird Road","streettype":null,"suffdir":null,"city":"Loomis","state_code":"CA","zip5":"95650","latitude":"38.7896420000000000","longitude":"-121.17012000000000","publicwifi":"U","url":"http://loomischarter.org","broadband_type_id":6}
{"id":null,"anchorname":"Lilliput Children's Services(4080 Cavitt Stallman So. Rd.,Granite Bay)","address":"4080 Cavitt Stallman South Rd.,Suite 200","bldgnbr":"4080","predir":null,"streetname":"Cavitt Stallman South","streettype":null,"suffdir":null,"city":"Granite Bay","state_code":"CA","zip5":"95746","latitude":"38.7457810000000000","longitude":"-121.22351900000000","publicwifi":"U","url":null,"broadband_type_id":6}
{"id":null,"anchorname":"Greenhills Elementary","address":"8200 Greenhills Way","bldgnbr":"8200","predir":null,"streetname":"Greenhills Way","streettype":null,"suffdir":null,"city":"Granite Bay","state_code":"CA","zip5":"95746","latitude":"38.7487150000000000","longitude":"-121.21555000000000","publicwifi":"U","url":null,"broadband_type_id":6}
{"id":null,"anchorname":"Big Creek Elementary","address":"55190 Point Road","bldgnbr":"55190","predir":null,"streetname":"Point Road","streettype":null,"suffdir":null,"city":"Big Creek","state_code":"CA","zip5":"93605","latitude":"37.2041000000000000","longitude":"-119.24840000000000","publicwifi":"U","url":"www.fcoe.k12.ca.us/?n345","broadband_type_id":6}
{"id":null,"anchorname":"HONAKER ELEMENTARY","address":"50 HONAKER ELEMENTARY DRIVE","bldgnbr":"50","predir":"N/A","streetname":"HONAKER ELEMENTARY","streettype":"DRIVE","suffdir":"N/A","city":"HONAKER","state_code":"VA","zip5":"24260","latitude":"37.0193072350000000","longitude":"-81.946698987000000","publicwifi":"U","url":"N/A","broadband_type_id":6}
{"id":null,"anchorname":"DEPARTMENT OF REHABILITATIVE SERVICES","address":"17978 UNITED STATES HIGHWAY 58","bldgnbr":"17978","predir":"N/A","streetname":"UNITED STATES HIGHWAY 58","streettype":"HIGHWAY","suffdir":"N/A","city":"CASTLEWOOD","state_code":"VA","zip5":"24224","latitude":"36.8927930000000000","longitude":"-82.304486000000000","publicwifi":"U","url":"N/A","broadband_type_id":6}
{"id":null,"anchorname":"Eureka Union","address":"5455 Eureka Road","bldgnbr":"5455","predir":null,"streetname":"Eureka Road","streettype":null,"suffdir":null,"city":"Granite Bay","state_code":"CA","zip5":"95746","latitude":"38.7362880000000000","longitude":"-121.19911000000000","publicwifi":"U","url":"www.eureka-usd.k12.ca.us","broadband_type_id":null}
{"id":null,"anchorname":"Oakhills Elementary","address":"9233 Twin School Road","bldgnbr":"9233","predir":null,"streetname":"Twin School","streettype":null,"suffdir":null,"city":"Granite Bay","state_code":"CA","zip5":"95746","latitude":"38.7306880000000000","longitude":"-121.20735000000000","publicwifi":"U","url":null,"broadband_type_id":6}
{"id":null,"anchorname":"Granite Bay Montessori","address":"9330 Sierra College Boulevard","bldgnbr":"9330","predir":null,"streetname":"Sierra College","streettype":null,"suffdir":null,"city":"Roseville","state_code":"CA","zip5":"95661","latitude":"38.7291991860000000","longitude":"-121.22723995800000","publicwifi":"U","url":null,"broadband_type_id":6}
{"id":null,"anchorname":"Keaton Raphael Memorial for Neuroblastoma Inc.","address":"2260 Douglas Blvd., Suite #150","bldgnbr":"2260","predir":null,"streetname":"Douglas Blvd.","streettype":null,"suffdir":null,"city":"Roseville","state_code":"CA","zip5":"95661","latitude":"38.7441550000000000","longitude":"-121.24489400000000","publicwifi":"U","url":null,"broadband_type_id":null}
{"id":null,"anchorname":"George Sargeant Elementary","address":"1200 Ridgecrest Way","bldgnbr":"1200","predir":null,"streetname":"Ridgecrest Way","streettype":null,"suffdir":null,"city":"Roseville","state_code":"CA","zip5":"95661","latitude":"38.7295300000000000","longitude":"-121.23766000000000","publicwifi":"U","url":null,"broadband_type_id":6}
{"id":null,"anchorname":"Planned Parenthood Mar Monte, Inc.","address":"729 Sunrise Ave","bldgnbr":"729","predir":null,"streetname":"Sunrise Ave","streettype":null,"suffdir":null,"city":"Roseville","state_code":"CA","zip5":"95661","latitude":"38.7344190000000000","longitude":"-121.27039200000000","publicwifi":"U","url":null,"broadband_type_id":null}
{"id":null,"anchorname":"BRISTOL HOSPICE - SACRAMENTO, LLC","address":"2140 Professional Dr","bldgnbr":"2140","predir":null,"streetname":"Professional Dr","streettype":null,"suffdir":null,"city":"Roseville","state_code":"CA","zip5":"95661","latitude":"38.7423560000000000","longitude":"-121.24817500000000","publicwifi":"U","url":null,"broadband_type_id":6}
{"id":null,"anchorname":"Maidu Elementary","address":"1950 Johnson Ranch Drive","bldgnbr":"1950","predir":null,"streetname":"Johnson Ranch","streettype":null,"suffdir":null,"city":"Roseville","state_code":"CA","zip5":"95661","latitude":"38.7390500000000000","longitude":"-121.24555000000000","publicwifi":"U","url":null,"broadband_type_id":6}
{"id":null,"anchorname":"Excelsior Elementary","address":"2701 Eureka Road","bldgnbr":"2701","predir":null,"streetname":"Eureka Road","streettype":null,"suffdir":null,"city":"Roseville","state_code":"CA","zip5":"95661","latitude":"38.7367080000000000","longitude":"-121.22982000000000","publicwifi":"U","url":null,"broadband_type_id":6}
{"id":null,"anchorname":"PLANNED PARENTHOOD - ROSEVILLE","address":"729 Sunrise Ave","bldgnbr":"729","predir":null,"streetname":"Sunrise Ave","streettype":null,"suffdir":null,"city":"Roseville","state_code":"CA","zip5":"95661","latitude":"38.7324600000000000","longitude":"-121.27187000000000","publicwifi":"U","url":null,"broadband_type_id":null}
{"id":null,"anchorname":"Sierra Mental Wellness Group","address":"333 Sunrise Avenue, #701","bldgnbr":"333","predir":null,"streetname":"Sunrise Avenue #701","streettype":null,"suffdir":null,"city":"Roseville","state_code":"CA","zip5":"95661","latitude":"38.7422740000000000","longitude":"-121.27124700000000","publicwifi":"U","url":null,"broadband_type_id":6}
{"id":null,"anchorname":"Warren T. Eich Middle","address":"1509 Sierra Gardens Drive","bldgnbr":"1509","predir":null,"streetname":"Sierra Gardens","streettype":null,"suffdir":null,"city":"Roseville","state_code":"CA","zip5":"95661","latitude":"38.7373480000000000","longitude":"-121.26126000000000","publicwifi":"U","url":null,"broadband_type_id":6}
{"id":null,"anchorname":"Community Recovery Resources(406 Sunrise Ave.)","address":"406 Sunrise Ave., Suite 310A","bldgnbr":"406","predir":null,"streetname":"Sunrise Ave.","streettype":null,"suffdir":null,"city":"Roseville","state_code":"CA","zip5":"95661","latitude":"38.7401080000000000","longitude":"-121.27203100000000","publicwifi":"U","url":null,"broadband_type_id":6}
{"id":null,"anchorname":"Community Recovery Resources (730 Sunrise Ave.)","address":"730 Sunrise Ave., Suite 250","bldgnbr":"730","predir":null,"streetname":"Sunrise Ave.","streettype":null,"suffdir":null,"city":"Roseville","state_code":"CA","zip5":"95661","latitude":"38.7334890000000000","longitude":"-121.27260900000000","publicwifi":"U","url":null,"broadband_type_id":6}
{"id":null,"anchorname":"Goodwill IndustriesSac.Valley No.NV(970 Sunrise Ave.)","address":"970 Sunrise Avenue, Suite 125","bldgnbr":"970","predir":null,"streetname":"Sunrise Avenue","streettype":null,"suffdir":null,"city":"Roseville","state_code":"CA","zip5":"95661","latitude":"38.7304860000000000","longitude":"-121.27207700000000","publicwifi":"U","url":null,"broadband_type_id":6}
{"id":null,"anchorname":"Oakmont High","address":"1710 Cirby Way","bldgnbr":"1710","predir":null,"streetname":"Cirby Way","streettype":null,"suffdir":null,"city":"Roseville","state_code":"CA","zip5":"95661","latitude":"38.7295190000000000","longitude":"-121.26118000000000","publicwifi":"U","url":null,"broadband_type_id":6}
{"id":null,"anchorname":"Roseville Joint Union High","address":"1750 Cirby Way","bldgnbr":"1750","predir":null,"streetname":"Cirby Way","streettype":null,"suffdir":null,"city":"Roseville","state_code":"CA","zip5":"95661","latitude":"38.7295280000000000","longitude":"-121.25873000000000","publicwifi":"U","url":"www.rjuhsd.us","broadband_type_id":6}
{"id":null,"anchorname":"Crestmont Elementary","address":"1501 Sheridan Avenue","bldgnbr":"1501","predir":null,"streetname":"Sheridan Avenue","streettype":null,"suffdir":null,"city":"Roseville","state_code":"CA","zip5":"95661","latitude":"38.7219340000000000","longitude":"-121.25421000000000","publicwifi":"U","url":"www.rcsdk8.org","broadband_type_id":6}
{"id":null,"anchorname":"GREEN VALLEY HOSPICE, INC.","address":"3009 Douglas Blvd","bldgnbr":"3009","predir":null,"streetname":"Douglas Blvd","streettype":null,"suffdir":null,"city":"Roseville","state_code":"CA","zip5":"95661","latitude":"38.7441360000000000","longitude":"-121.23278000000000","publicwifi":"U","url":null,"broadband_type_id":null}
{"id":null,"anchorname":"Goodwill IndustriesSacto.ValleyNo.NV(9213SierraCollege)","address":"9213 Sierra College Blvd., Suite 120","bldgnbr":"9213","predir":null,"streetname":"Sierra College","streettype":null,"suffdir":null,"city":"Roseville","state_code":"CA","zip5":"95661","latitude":"38.7349490000000000","longitude":"-121.22573400000000","publicwifi":"U","url":null,"broadband_type_id":6}
{"id":null,"anchorname":"MAIDU LIBRARY","address":"1530 MAIDU DRIVE","bldgnbr":"1530","predir":null,"streetname":"MAIDU DRIVE","streettype":null,"suffdir":null,"city":"ROSEVILLE","state_code":"CA","zip5":"95661","latitude":"38.7353170000000000","longitude":"-121.25254400000000","publicwifi":"U","url":null,"broadband_type_id":6}
{"id":null,"anchorname":"OAK RIDGE HEALTHCARE CENTER","address":"310 Oak Ridge Dr","bldgnbr":"310","predir":null,"streetname":"Oak Ridge","streettype":null,"suffdir":null,"city":"Roseville","state_code":"CA","zip5":"95661","latitude":"38.7418920000000000","longitude":"-121.26990600000000","publicwifi":"U","url":null,"broadband_type_id":3}
{"id":null,"anchorname":"PINE CREEK CARE CENTER","address":"1139 Cirby Way","bldgnbr":"1139","predir":null,"streetname":"Cirby Way","streettype":null,"suffdir":null,"city":"Roseville","state_code":"CA","zip5":"95661","latitude":"38.7296370000000000","longitude":"-121.27592300000000","publicwifi":"U","url":null,"broadband_type_id":3}
{"id":null,"anchorname":"ROSEVILLE CARE CENTER","address":"1161 Cirby Way","bldgnbr":"1161","predir":null,"streetname":"Cirby Way","streettype":null,"suffdir":null,"city":"Roseville","state_code":"CA","zip5":"95661","latitude":"38.7295900000000000","longitude":"-121.27395000000000","publicwifi":"U","url":null,"broadband_type_id":3}
{"id":null,"anchorname":"Merryhill School - Roseville","address":"1115 Orlando Avenue","bldgnbr":"1115","predir":null,"streetname":"Orlando Avenue","streettype":null,"suffdir":null,"city":"Roseville","state_code":"CA","zip5":"95661","latitude":"38.7253891300000000","longitude":"-121.28781863900000","publicwifi":"U","url":null,"broadband_type_id":6}
{"id":null,"anchorname":"SUTTER VISITING NURSE ASSOCIATION AND HOSPICE","address":"1836 Sierra Gardens Dr","bldgnbr":"1836","predir":null,"streetname":"Sierra Gardens","streettype":null,"suffdir":null,"city":"Roseville","state_code":"CA","zip5":"95661","latitude":"38.7474100000000000","longitude":"-121.26134100000000","publicwifi":"U","url":null,"broadband_type_id":3}
{"id":null,"anchorname":"SUTTER VISITING NURSE ASSOCIATION AND HOSPICE - ROSEVILLE","address":"1836 Sierra Gardens Dr","bldgnbr":"1836","predir":null,"streetname":"Sierra Gardens","streettype":null,"suffdir":null,"city":"Roseville","state_code":"CA","zip5":"95661","latitude":"38.7474810000000000","longitude":"-121.25977800000000","publicwifi":"U","url":null,"broadband_type_id":3}
{"id":null,"anchorname":"GENTIVA HEALTH SERVICES - CERTIFIED","address":"2281 Lava Ridge Ct","bldgnbr":"2281","predir":null,"streetname":"Lava Ridge","streettype":null,"suffdir":null,"city":"Roseville","state_code":"CA","zip5":"95661","latitude":"38.7466810000000000","longitude":"-121.24640500000000","publicwifi":"U","url":null,"broadband_type_id":3}
{"id":null,"anchorname":"MAXIM HEALTHCARE SERVICES, INC - ROSEVILLE","address":"151 N Sunrise Ave","bldgnbr":"151","predir":null,"streetname":"N Sunrise","streettype":null,"suffdir":null,"city":"Roseville","state_code":"CA","zip5":"95661","latitude":"38.7473350000000000","longitude":"-121.26558200000000","publicwifi":"U","url":null,"broadband_type_id":3}
{"id":null,"anchorname":"TENDER LOVING CARE - BRANCH","address":"2990 Lava Ridge Ct","bldgnbr":"2990","predir":null,"streetname":"Lava Ridge","streettype":null,"suffdir":null,"city":"Roseville","state_code":"CA","zip5":"95661","latitude":"38.7464920000000000","longitude":"-121.24290600000000","publicwifi":"U","url":null,"broadband_type_id":3}
{"id":null,"anchorname":"KAISER FOUNDATION HOSPITAL HOME HEALTH - ROSEVILLE - BRANCH","address":"1680 E Roseville Pkwy","bldgnbr":"1680","predir":null,"streetname":"E Roseville Pkwy","streettype":null,"suffdir":null,"city":"Roseville","state_code":"CA","zip5":"95661","latitude":"38.7452480000000000","longitude":"-121.23604400000000","publicwifi":"U","url":null,"broadband_type_id":3}
{"id":null,"anchorname":"KAISER FOUNDATION HOSPITAL HOSPICE - ROSEVILLE - BRANCH","address":"1680 E Roseville Pkwy","bldgnbr":"1680","predir":null,"streetname":"E Roseville Pkwy","streettype":null,"suffdir":null,"city":"Roseville","state_code":"CA","zip5":"95661","latitude":"38.7452480000000000","longitude":"-121.23604400000000","publicwifi":"U","url":null,"broadband_type_id":3}
{"id":null,"anchorname":"KAISER FND HOSP - ROSEVILLE","address":"1600 Eureka Rd","bldgnbr":"1600","predir":null,"streetname":"Eureka Rd","streettype":null,"suffdir":null,"city":"Roseville","state_code":"CA","zip5":"95661","latitude":"38.7463600000000000","longitude":"-121.25107000000000","publicwifi":"U","url":null,"broadband_type_id":6}
{"id":null,"anchorname":"Goodwill Industries of Sacramento Valley No. Nevada(1617 Douglas Blvd.)","address":"1617 Douglas Blvd.","bldgnbr":"1617","predir":null,"streetname":"Douglas Blvd.","streettype":null,"suffdir":null,"city":"Roseville","state_code":"CA","zip5":"95661","latitude":"38.7450810000000000","longitude":"-121.26418800000000","publicwifi":"U","url":null,"broadband_type_id":6}
{"id":null,"anchorname":"Olympus Junior High","address":"2625 La Croix Drive","bldgnbr":"2625","predir":null,"streetname":"La Croix","streettype":null,"suffdir":null,"city":"Roseville","state_code":"CA","zip5":"95661","latitude":"38.7486900000000000","longitude":"-121.23015000000000","publicwifi":"U","url":null,"broadband_type_id":6}
{"id":null,"anchorname":"Black Mountain Adult","address":"33461 Lodge Road","bldgnbr":"33461","predir":null,"streetname":"Lodge Road","streettype":null,"suffdir":null,"city":"Tollhouse","state_code":"CA","zip5":"93667","latitude":"37.0367390000000000","longitude":"-119.45296600000000","publicwifi":"U","url":"www.sierra.k12.ca.us","broadband_type_id":2}
{"id":null,"anchorname":"St. Rose Elementary","address":"633 Vine Avenue","bldgnbr":"633","predir":null,"streetname":"Vine Avenue","streettype":null,"suffdir":null,"city":"Roseville","state_code":"CA","zip5":"95678","latitude":"38.7377442550000000","longitude":"-121.28454783400000","publicwifi":"U","url":null,"broadband_type_id":6}
{"id":null,"anchorname":"George Cirby Elementary","address":"814 Darling Way","bldgnbr":"814","predir":null,"streetname":"Darling Way","streettype":null,"suffdir":null,"city":"Roseville","state_code":"CA","zip5":"95678","latitude":"38.7366490000000000","longitude":"-121.27958000000000","publicwifi":"U","url":null,"broadband_type_id":6}
{"id":null,"anchorname":"DEPARTMENT OF MOTOR VEHICLES","address":"137 HIGHLANDS DRIVE","bldgnbr":"137","predir":"N/A","streetname":"HIGHLANDS","streettype":"DRIVE","suffdir":"N/A","city":"LEBANON","state_code":"VA","zip5":"24266","latitude":"36.9038900000000000","longitude":"-82.070252000000000","publicwifi":"U","url":"N/A","broadband_type_id":6}
{"id":null,"anchorname":"RAI - HARDING BLVD. - ROSEVILLE","address":"218 Harding Blvd","bldgnbr":"218","predir":null,"streetname":"Harding Blvd","streettype":null,"suffdir":null,"city":"Roseville","state_code":"CA","zip5":"95678","latitude":"38.7492420000000000","longitude":"-121.26965600000000","publicwifi":"U","url":null,"broadband_type_id":null}
{"id":null,"anchorname":"American Montessori Elementary","address":"143 Clinton Avenue","bldgnbr":"143","predir":null,"streetname":"Clinton Avenue","streettype":null,"suffdir":null,"city":"Roseville","state_code":"CA","zip5":"95678","latitude":"38.7423824060000000","longitude":"-121.28889713400000","publicwifi":"U","url":null,"broadband_type_id":6}
{"id":null,"anchorname":"Placer Women's Center, Inc.","address":"408 Folsom Road","bldgnbr":"408","predir":null,"streetname":"Folsom Road","streettype":null,"suffdir":null,"city":"Roseville","state_code":"CA","zip5":"95678","latitude":"38.7451320000000000","longitude":"-121.27705700000000","publicwifi":"U","url":null,"broadband_type_id":null}
{"id":null,"anchorname":"SANDY HOOK ELEMENTARY","address":"162 STICKLEY LOOP","bldgnbr":"162","predir":"N/A","streetname":"STICKLEY","streettype":"LOOP","suffdir":"N/A","city":"STRASBURG","state_code":"VA","zip5":"22657","latitude":"38.9817706230000000","longitude":"-78.372031017000000","publicwifi":"U","url":"N/A","broadband_type_id":6}
{"id":null,"anchorname":"RICH VALLEY ELEMENTARY","address":"196 LONG HOLLOW ROAD","bldgnbr":"196","predir":"N/A","streetname":"LONG HOLLOW","streettype":"ROAD","suffdir":"N/A","city":"SALTVILLE","state_code":"VA","zip5":"24370","latitude":"36.9279361960000000","longitude":"-81.626848236000000","publicwifi":"U","url":"N/A","broadband_type_id":6}
{"id":null,"anchorname":"Salvation Army (Lincoln Street, Roseville, CA)","address":"100 Lincoln Street","bldgnbr":"100","predir":null,"streetname":"Lincoln Street","streettype":null,"suffdir":null,"city":"Roseville","state_code":"CA","zip5":"95678","latitude":"38.7495860000000000","longitude":"-121.28204000000000","publicwifi":"U","url":null,"broadband_type_id":null}
{"id":null,"anchorname":"Project GO, Inc.","address":"801 Vernon Street","bldgnbr":"801","predir":null,"streetname":"Vernon Street","streettype":null,"suffdir":null,"city":"Roseville","state_code":"CA","zip5":"95678","latitude":"38.7441020000000000","longitude":"-121.28979300000000","publicwifi":"U","url":null,"broadband_type_id":null}
{"id":null,"anchorname":"Roseville Community","address":"50 Corporation Yard Road","bldgnbr":"50","predir":null,"streetname":"Corporation Yard","streettype":null,"suffdir":null,"city":"Roseville","state_code":"CA","zip5":"95678","latitude":"38.7590921050000000","longitude":"-121.29278388300000","publicwifi":"U","url":null,"broadband_type_id":1}
{"id":null,"anchorname":"Gateway Residential Programs (Vernon St., #1, Roseville, CA)","address":"1780 Vernon Street, Suite #1","bldgnbr":"1780","predir":null,"streetname":"Vernon Street","streettype":null,"suffdir":null,"city":"Roseville","state_code":"CA","zip5":"95678","latitude":"38.7327950000000000","longitude":"-121.30048400000000","publicwifi":"U","url":null,"broadband_type_id":6}
{"id":null,"anchorname":"Roseville Home Start Inc.","address":"410 Riverside Avenue","bldgnbr":"410","predir":null,"streetname":"Riverside Avenue","streettype":null,"suffdir":null,"city":"Roseville","state_code":"CA","zip5":"95678","latitude":"38.7395430000000000","longitude":"-121.29130200000000","publicwifi":"U","url":null,"broadband_type_id":null}
{"id":null,"anchorname":"The Gathering Inn","address":"201 Berkeley Avenue","bldgnbr":"201","predir":null,"streetname":"Berkeley Avenue","streettype":null,"suffdir":null,"city":"Roseville","state_code":"CA","zip5":"95678","latitude":"38.7514720000000000","longitude":"-121.28891200000000","publicwifi":"U","url":null,"broadband_type_id":null}
{"id":null,"anchorname":"Roseville Adult","address":"200 Branstetter Street","bldgnbr":"200","predir":null,"streetname":"Branstetter Street","streettype":null,"suffdir":null,"city":"Roseville","state_code":"CA","zip5":"95678","latitude":"38.7523600000000000","longitude":"-121.28001100000000","publicwifi":"U","url":null,"broadband_type_id":null}
{"id":null,"anchorname":"Gates of Learning Center","address":"1780 Vernon Street, Suite 5","bldgnbr":"1780","predir":null,"streetname":"Vernon Street","streettype":null,"suffdir":null,"city":"Roseville","state_code":"CA","zip5":"95678","latitude":"38.7326809700000000","longitude":"-121.29973990000000","publicwifi":"U","url":null,"broadband_type_id":6}
{"id":null,"anchorname":"Creekview Ranch Middle","address":"8779 Cook Riolo Road","bldgnbr":"8779","predir":null,"streetname":"Cook Riolo","streettype":null,"suffdir":null,"city":"Roseville","state_code":"CA","zip5":"95747","latitude":"38.7399150000000000","longitude":"-121.33688000000000","publicwifi":"U","url":"www.drycreek.k12.ca.us","broadband_type_id":6}
{"id":null,"anchorname":"TELECARE PLACER COUNTY PSYCHIATRIC HEALTH FACILITY","address":"101 Cirby Hills Dr","bldgnbr":"101","predir":null,"streetname":"Cirby Hills","streettype":null,"suffdir":null,"city":"Roseville","state_code":"CA","zip5":"95678","latitude":"38.7298360000000000","longitude":"-121.28761200000000","publicwifi":"U","url":null,"broadband_type_id":3}
{"id":null,"anchorname":"Heald College-Roseville","address":"Seven Sierra Gate Plaza","bldgnbr":"Seven","predir":null,"streetname":"Sierra Gate Plaza","streettype":null,"suffdir":null,"city":"Roseville","state_code":"CA","zip5":"95678","latitude":"38.7545870000000000","longitude":"-121.26477900000000","publicwifi":"U","url":"www.heald.edu","broadband_type_id":6}
{"id":null,"anchorname":"BRIGHTSTAR HEALTHCARE","address":"210 Estates Dr","bldgnbr":"210","predir":null,"streetname":"Estates Dr","streettype":null,"suffdir":null,"city":"Roseville","state_code":"CA","zip5":"95678","latitude":"38.7476880000000000","longitude":"-121.27438300000000","publicwifi":"U","url":null,"broadband_type_id":3}
{"id":null,"anchorname":"DOWNTOWN LIBRARY","address":"225 Taylor St.","bldgnbr":"225","predir":null,"streetname":"Taylor St.","streettype":null,"suffdir":null,"city":"Roseville","state_code":"CA","zip5":"95678","latitude":"38.7457570000000000","longitude":"-121.28462100000000","publicwifi":"U","url":null,"broadband_type_id":6}
{"id":null,"anchorname":"GERIACARE HOME HEALTH, INC","address":"9067 Foothills Blvd","bldgnbr":"9067","predir":null,"streetname":"Foothills Blvd","streettype":null,"suffdir":null,"city":"Roseville","state_code":"CA","zip5":"95747","latitude":"38.7931130000000000","longitude":"-121.31370100000000","publicwifi":"U","url":null,"broadband_type_id":3}
{"id":null,"anchorname":"Dry Creek Elementary","address":"2955 PFE Road","bldgnbr":"2955","predir":null,"streetname":"PFE Road","streettype":null,"suffdir":null,"city":"Roseville","state_code":"CA","zip5":"95747","latitude":"38.7290520000000000","longitude":"-121.33624000000000","publicwifi":"U","url":"www.drycreek.k12.ca.us","broadband_type_id":6}
{"id":null,"anchorname":"Dry Creek Joint Elementary","address":"9707 Cook Riolo Road","bldgnbr":"9707","predir":null,"streetname":"Cook Riolo","streettype":null,"suffdir":null,"city":"Roseville","state_code":"CA","zip5":"95747","latitude":"38.7260230000000000","longitude":"-121.33682000000000","publicwifi":"U","url":"www.drycreek.k12.ca.us","broadband_type_id":6}
{"id":null,"anchorname":"Roseville High","address":"1 Tiger Way","bldgnbr":"1","predir":null,"streetname":"Tiger Way","streettype":null,"suffdir":null,"city":"Roseville","state_code":"CA","zip5":"95678","latitude":"38.7563630000000000","longitude":"-121.27684000000000","publicwifi":"U","url":null,"broadband_type_id":6}
{"id":null,"anchorname":"Ferris Spanger Elementary","address":"699 Shasta Street","bldgnbr":"699","predir":null,"streetname":"Shasta Street","streettype":null,"suffdir":null,"city":"Roseville","state_code":"CA","zip5":"95678","latitude":"38.7607410000000000","longitude":"-121.28200000000000","publicwifi":"U","url":null,"broadband_type_id":6}
{"id":null,"anchorname":"Independence High (Alternative)","address":"125 Berry Street","bldgnbr":"125","predir":null,"streetname":"Berry Street","streettype":null,"suffdir":null,"city":"Roseville","state_code":"CA","zip5":"95678","latitude":"38.7590250000000000","longitude":"-121.27400000000000","publicwifi":"U","url":null,"broadband_type_id":6}
{"id":null,"anchorname":"Vencil Brown Elementary","address":"250 Trestle Drive","bldgnbr":"250","predir":null,"streetname":"Trestle Drive","streettype":null,"suffdir":null,"city":"Roseville","state_code":"CA","zip5":"95678","latitude":"38.7809650000000000","longitude":"-121.29692000000000","publicwifi":"U","url":null,"broadband_type_id":6}
{"id":null,"anchorname":"George A. Buljan Middle","address":"100 Hallissy Drive","bldgnbr":"100","predir":null,"streetname":"Hallissy Drive","streettype":null,"suffdir":null,"city":"Roseville","state_code":"CA","zip5":"95678","latitude":"38.7792680000000000","longitude":"-121.30291000000000","publicwifi":"U","url":null,"broadband_type_id":6}
{"id":null,"anchorname":"Coyote Ridge Elementary","address":"1751 Morning Star Drive","bldgnbr":"1751","predir":null,"streetname":"Morning Star","streettype":null,"suffdir":null,"city":"Roseville","state_code":"CA","zip5":"95747","latitude":"38.7596350000000000","longitude":"-121.35441000000000","publicwifi":"U","url":"www.drycreek.k12.ca.us","broadband_type_id":6}
{"id":null,"anchorname":"Woodcreek High","address":"2551 Woodcreek Oaks Boulevard","bldgnbr":"2551","predir":null,"streetname":"Woodcreek Oaks","streettype":null,"suffdir":null,"city":"Roseville","state_code":"CA","zip5":"95747","latitude":"38.7610150000000000","longitude":"-121.33250000000000","publicwifi":"U","url":null,"broadband_type_id":6}
{"id":null,"anchorname":"Silverado Middle","address":"2525 Country Club Drive","bldgnbr":"2525","predir":null,"streetname":"Country Club","streettype":null,"suffdir":null,"city":"Roseville","state_code":"CA","zip5":"95747","latitude":"38.7587500000000000","longitude":"-121.32513000000000","publicwifi":"U","url":"www.drycreek.k12.ca.us","broadband_type_id":6}
{"id":null,"anchorname":"Heritage Oak Elementary","address":"2271 Americana Drive","bldgnbr":"2271","predir":null,"streetname":"Americana Drive","streettype":null,"suffdir":null,"city":"Roseville","state_code":"CA","zip5":"95747","latitude":"38.7571100000000000","longitude":"-121.31486000000000","publicwifi":"U","url":"www.drycreek.k12.ca.us","broadband_type_id":6}
{"id":null,"anchorname":"Eskaton Roseville Manor (1725 Pleasant Grove Blvd.)","address":"1725 Pleasant Grove Blvd.","bldgnbr":"1725","predir":null,"streetname":"Pleasant Grove","streettype":null,"suffdir":null,"city":"Roseville","state_code":"CA","zip5":"95747","latitude":"38.7663230000000000","longitude":"-121.34928500000000","publicwifi":"U","url":null,"broadband_type_id":6}
{"id":null,"anchorname":"Blue Oaks Elementary","address":"8150 Horncastle Avenue","bldgnbr":"8150","predir":null,"streetname":"Horncastle Avenue","streettype":null,"suffdir":null,"city":"Roseville","state_code":"CA","zip5":"95747","latitude":"38.7842510000000000","longitude":"-121.33256000000000","publicwifi":"U","url":null,"broadband_type_id":6}
{"id":null,"anchorname":"Robert C. Cooley Middle","address":"9300 Prairie Woods Way","bldgnbr":"9300","predir":null,"streetname":"Prairie Woods Way","streettype":null,"suffdir":null,"city":"Roseville","state_code":"CA","zip5":"95747","latitude":"38.7938710000000000","longitude":"-121.33391000000000","publicwifi":"U","url":null,"broadband_type_id":6}
{"id":null,"anchorname":"Quail Glen Elementary","address":"1250 Canevari Drive","bldgnbr":"1250","predir":null,"streetname":"Canevari Drive","streettype":null,"suffdir":null,"city":"Roseville","state_code":"CA","zip5":"95747","latitude":"38.7735080000000000","longitude":"-121.33557000000000","publicwifi":"U","url":"www.drycreek.k12.ca.us","broadband_type_id":6}
{"id":null,"anchorname":"Goodwill IndustriesSac.ValleyNo.NV(4021Woodcreek Oaks)","address":"4021 Woodcreek Oaks Blvd., Suite 132","bldgnbr":"4021","predir":null,"streetname":"Woodcreek Oaks","streettype":null,"suffdir":null,"city":"Roseville","state_code":"CA","zip5":"95747","latitude":"38.7700520000000000","longitude":"-121.33002400000000","publicwifi":"U","url":null,"broadband_type_id":6}
{"id":null,"anchorname":"CASTLEWOOD ELEMENTARY","address":"242 BLUE DEVIL CIRCLE","bldgnbr":"242","predir":"N/A","streetname":"BLUE DEVIL","streettype":"CIRCLE","suffdir":"N/A","city":"CASTLEWOOD","state_code":"VA","zip5":"24224","latitude":"36.8711455620000000","longitude":"-82.296029955000000","publicwifi":"U","url":"N/A","broadband_type_id":6}
{"id":null,"anchorname":"GATE CITY MIDDLE","address":"170 HARRY FRY DRIVE","bldgnbr":"170","predir":"N/A","streetname":"HARRY FRY","streettype":"DRIVE","suffdir":"N/A","city":"GATE CITY","state_code":"VA","zip5":"24251","latitude":"36.6391383890000000","longitude":"-82.570020983000000","publicwifi":"U","url":"N/A","broadband_type_id":6}
{"id":null,"anchorname":"Just Math, Inc.","address":"7456 Foothills Boulevard, #17","bldgnbr":"7456","predir":null,"streetname":"Foothills Boulevard #17","streettype":null,"suffdir":null,"city":"Roseville","state_code":"CA","zip5":"95747","latitude":"38.7722900000000000","longitude":"-121.31284200000000","publicwifi":"U","url":null,"broadband_type_id":null}
{"id":null,"anchorname":"Rocklin Unified","address":"2615 Sierra Meadows Drive","bldgnbr":"2615","predir":null,"streetname":"Sierra Meadows","streettype":null,"suffdir":null,"city":"Rocklin","state_code":"CA","zip5":"95677","latitude":"38.7934290000000000","longitude":"-121.22256000000000","publicwifi":"U","url":"www.rocklin.k12.ca.us","broadband_type_id":null}
{"id":null,"anchorname":"Sandy Bluffs Alternative Education Center","address":"33280 Lodge Road","bldgnbr":"33280","predir":null,"streetname":"Lodge Road","streettype":null,"suffdir":null,"city":"Tollhouse","state_code":"CA","zip5":"93667","latitude":"37.0377380000000000","longitude":"-119.45400000000000","publicwifi":"U","url":"www.sierra.k12.ca.us","broadband_type_id":6}
{"id":null,"anchorname":"DEPARTMENT OF GAME AND INLAND FISHERIES","address":"3957 MOUNTAIN ROAD","bldgnbr":"3957","predir":"N/A","streetname":"MOUNTAIN","streettype":"ROAD","suffdir":"N/A","city":"STRASBURG","state_code":"VA","zip5":"22657","latitude":"39.0185880000000000","longitude":"-78.429933000000000","publicwifi":"U","url":"N/A","broadband_type_id":6}
{"id":null,"anchorname":"Rocklin Independent Charter Academy","address":"3250 Victory Drive","bldgnbr":"3250","predir":null,"streetname":"Victory Drive","streettype":null,"suffdir":null,"city":"Rocklin","state_code":"CA","zip5":"95765","latitude":"38.8157690000000000","longitude":"-121.25442000000000","publicwifi":"U","url":"http://rac.rocklin.k12.ca.us/newrisweb","broadband_type_id":6}
{"id":null,"anchorname":"Roseville City Elementary","address":"1050 Main Street","bldgnbr":"1050","predir":null,"streetname":"Main Street","streettype":null,"suffdir":null,"city":"Roseville","state_code":"CA","zip5":"95678","latitude":"38.7518560000000000","longitude":"-121.30460000000000","publicwifi":"U","url":"www.rcsdk8.org","broadband_type_id":6}
{"id":null,"anchorname":"Maria Montessori Charter Academy","address":"1850 Wildcat Boulevard","bldgnbr":"1850","predir":null,"streetname":"Wildcat Boulevard","streettype":null,"suffdir":null,"city":"Rocklin","state_code":"CA","zip5":"95765","latitude":"38.7859000000000000","longitude":"-121.24930000000000","publicwifi":"U","url":"www.mmcharter.org","broadband_type_id":6}
{"id":null,"anchorname":"New Life Pregnancy Center","address":"5050 Rocklin Road, A-20","bldgnbr":"5050","predir":null,"streetname":"Rocklin Road A-20","streettype":null,"suffdir":null,"city":"Rocklin","state_code":"CA","zip5":"95677","latitude":"38.7886200000000000","longitude":"-121.20831100000000","publicwifi":"U","url":null,"broadband_type_id":null}
{"id":null,"anchorname":"RAI - FAIRWAY - ROCKLIN","address":"6000 Fairway Dr","bldgnbr":"6000","predir":null,"streetname":"Fairway Dr","streettype":null,"suffdir":null,"city":"Rocklin","state_code":"CA","zip5":"95677","latitude":"38.7926000000000000","longitude":"-121.26261900000000","publicwifi":"U","url":null,"broadband_type_id":null}
{"id":null,"anchorname":"Sierra Elementary","address":"6811 Camborne Way","bldgnbr":"6811","predir":null,"streetname":"Camborne Way","streettype":null,"suffdir":null,"city":"Rocklin","state_code":"CA","zip5":"95677","latitude":"38.7730410000000000","longitude":"-121.21597000000000","publicwifi":"U","url":"www.rocklin.k12.ca.us","broadband_type_id":6}
{"id":null,"anchorname":"Rocklin High","address":"5301 Victory Lane","bldgnbr":"5301","predir":null,"streetname":"Victory Lane","streettype":null,"suffdir":null,"city":"Rocklin","state_code":"CA","zip5":"95765","latitude":"38.8146450000000000","longitude":"-121.25386000000000","publicwifi":"U","url":"www.rocklin.k12.ca.us","broadband_type_id":6}
{"id":null,"anchorname":"Victory High","address":"3250 Victory Drive","bldgnbr":"3250","predir":null,"streetname":"Victory Drive","streettype":null,"suffdir":null,"city":"Rocklin","state_code":"CA","zip5":"95765","latitude":"38.8155340000000000","longitude":"-121.25523000000000","publicwifi":"U","url":"www.rocklin.k12.ca.us","broadband_type_id":6}
{"id":null,"anchorname":"Sheridan","address":"4730 H Street","bldgnbr":"4730","predir":null,"streetname":"H Street","streettype":null,"suffdir":null,"city":"Sheridan","state_code":"CA","zip5":"95681","latitude":"38.9825240000000000","longitude":"-121.37341000000000","publicwifi":"U","url":null,"broadband_type_id":null}
{"id":null,"anchorname":"Rocklin Alternative Education Center","address":"3250 Victory Drive","bldgnbr":"3250","predir":null,"streetname":"Victory Drive","streettype":null,"suffdir":null,"city":"Rocklin","state_code":"CA","zip5":"95765","latitude":"38.8155340000000000","longitude":"-121.25523000000000","publicwifi":"U","url":"www.rocklin.k12.ca.us","broadband_type_id":6}
{"id":null,"anchorname":"Fiddyment Farm","address":"4001 Brick Mason Circle","bldgnbr":"4001","predir":null,"streetname":"Brick Mason Circle","streettype":null,"suffdir":null,"city":"Roseville","state_code":"CA","zip5":"95747","latitude":"38.8055380000000000","longitude":"-121.35723000000000","publicwifi":"U","url":"www.rcsdk8.org","broadband_type_id":null}
{"id":null,"anchorname":"Sierra College","address":"5000 Rocklin Road","bldgnbr":"5000","predir":null,"streetname":"Rocklin Road","streettype":null,"suffdir":null,"city":"Rocklin","state_code":"CA","zip5":"95677","latitude":"38.7927580000000000","longitude":"-121.21264600000000","publicwifi":"U","url":"www.sierracollege.edu","broadband_type_id":6}
{"id":null,"anchorname":"Hope Lutheran School","address":"7117 Hope Way","bldgnbr":"7117","predir":null,"streetname":"Hope Way","streettype":null,"suffdir":null,"city":"Penryn","state_code":"CA","zip5":"95663","latitude":"38.8377767340000000","longitude":"-121.17085355000000","publicwifi":"U","url":null,"broadband_type_id":6}
{"id":null,"anchorname":"LOOMIS LIBRARY","address":"6050 Library Drive","bldgnbr":"6050","predir":null,"streetname":"Library Drive","streettype":null,"suffdir":null,"city":"Loomis","state_code":"CA","zip5":"95650","latitude":"38.8203220000000000","longitude":"-121.19052000000000","publicwifi":"U","url":null,"broadband_type_id":6}
{"id":null,"anchorname":"PENRYN LIBRARY","address":"2215 RIPPEY ROAD","bldgnbr":"2215","predir":null,"streetname":"RIPPEY ROAD","streettype":null,"suffdir":null,"city":"PENRYN","state_code":"CA","zip5":"95663","latitude":"38.8517560000000000","longitude":"-121.16949300000000","publicwifi":"U","url":null,"broadband_type_id":6}
{"id":null,"anchorname":"William Jessup University","address":"333 Sunset Blvd.","bldgnbr":"333","predir":null,"streetname":"Sunset Blvd.","streettype":null,"suffdir":null,"city":"Rocklin","state_code":"CA","zip5":"95765","latitude":"38.8197280000000000","longitude":"-121.29231200000000","publicwifi":"U","url":"WWW.JESSUP.EDU","broadband_type_id":6}
{"id":null,"anchorname":"Breen Elementary","address":"2751 Breen Drive","bldgnbr":"2751","predir":null,"streetname":"Breen Drive","streettype":null,"suffdir":null,"city":"Rocklin","state_code":"CA","zip5":"95765","latitude":"38.8174310000000000","longitude":"-121.26054000000000","publicwifi":"U","url":"www.rocklin.k12.ca.us","broadband_type_id":6}
{"id":null,"anchorname":"Valley View Elementary","address":"3000 Crest Drive","bldgnbr":"3000","predir":null,"streetname":"Crest Drive","streettype":null,"suffdir":null,"city":"Rocklin","state_code":"CA","zip5":"95765","latitude":"38.8138910000000000","longitude":"-121.24246000000000","publicwifi":"U","url":"www.rocklin.k12.com","broadband_type_id":6}
{"id":null,"anchorname":"Goodwill IndustriesSac.ValleyNo.NV(6011StanfordRanch)","address":"6011 Stanford Ranch Road, Suite 108","bldgnbr":"6011","predir":null,"streetname":"Stanford Ranch","streettype":null,"suffdir":null,"city":"Rocklin","state_code":"CA","zip5":"95765","latitude":"38.7959180000000000","longitude":"-121.26514100000000","publicwifi":"U","url":null,"broadband_type_id":6}
{"id":null,"anchorname":"Antelope Creek Elementary","address":"6185 Springview Drive","bldgnbr":"6185","predir":null,"streetname":"Springview Drive","streettype":null,"suffdir":null,"city":"Rocklin","state_code":"CA","zip5":"95677","latitude":"38.7779240000000000","longitude":"-121.25777000000000","publicwifi":"U","url":"www.rocklin.k12.ca.us","broadband_type_id":6}
{"id":null,"anchorname":"WarmLine Family Resouce Center (6960 Destiny Dr., Rocklin)","address":"6960 Destiny Drive","bldgnbr":"6960","predir":null,"streetname":"Destiny Drive","streettype":null,"suffdir":null,"city":"Rocklin","state_code":"CA","zip5":"95677","latitude":"38.7783230000000000","longitude":"-121.26138600000000","publicwifi":"U","url":null,"broadband_type_id":6}
{"id":null,"anchorname":"Twin Oaks Elementary","address":"2835 Club Drive","bldgnbr":"2835","predir":null,"streetname":"Club Drive","streettype":null,"suffdir":null,"city":"Rocklin","state_code":"CA","zip5":"95765","latitude":"38.8095240000000000","longitude":"-121.26563000000000","publicwifi":"U","url":"www.rocklin.k12.ca.us","broadband_type_id":6}
{"id":null,"anchorname":"Cobblestone Elementary","address":"5740 Cobblestone Drive","bldgnbr":"5740","predir":null,"streetname":"Cobblestone Drive","streettype":null,"suffdir":null,"city":"Rocklin","state_code":"CA","zip5":"95765","latitude":"38.8021360000000000","longitude":"-121.26357000000000","publicwifi":"U","url":"www.rocklin.k12.ca.us","broadband_type_id":6}
{"id":null,"anchorname":"Del Oro High","address":"3301 Taylor Road","bldgnbr":"3301","predir":null,"streetname":"Taylor Road","streettype":null,"suffdir":null,"city":"Loomis","state_code":"CA","zip5":"95650","latitude":"38.8316010000000000","longitude":"-121.18491000000000","publicwifi":"U","url":"www.puhsd.k12.ca.us/deloro","broadband_type_id":6}
{"id":null,"anchorname":"Loomis Elementary","address":"3505 Taylor Road","bldgnbr":"3505","predir":null,"streetname":"Taylor Road","streettype":null,"suffdir":null,"city":"Loomis","state_code":"CA","zip5":"95650","latitude":"38.8247730000000000","longitude":"-121.19128000000000","publicwifi":"U","url":null,"broadband_type_id":6}
{"id":null,"anchorname":"Loomis Union Elementary","address":"3290 Humphrey Road","bldgnbr":"3290","predir":null,"streetname":"Humphrey Road","streettype":null,"suffdir":null,"city":"Loomis","state_code":"CA","zip5":"95650","latitude":"38.8306150000000000","longitude":"-121.20104000000000","publicwifi":"U","url":"www.loomis-usd.k12.ca.us","broadband_type_id":6}
{"id":null,"anchorname":"Penryn Elementary","address":"6885 English Colony Way","bldgnbr":"6885","predir":null,"streetname":"English Colony Way","streettype":null,"suffdir":null,"city":"Penryn","state_code":"CA","zip5":"95663","latitude":"38.8540280000000000","longitude":"-121.17648000000000","publicwifi":"U","url":null,"broadband_type_id":6}
{"id":null,"anchorname":"Granite Oaks Middle","address":"2600 Wyckford Drive","bldgnbr":"2600","predir":null,"streetname":"Wyckford Drive","streettype":null,"suffdir":null,"city":"Rocklin","state_code":"CA","zip5":"95765","latitude":"38.8266690000000000","longitude":"-121.25982000000000","publicwifi":"U","url":"www.rocklin.k12.ca.us","broadband_type_id":6}
{"id":null,"anchorname":"Whitney High","address":"701 Wildcat Boulevard","bldgnbr":"701","predir":null,"streetname":"Wildcat Boulevard","streettype":null,"suffdir":null,"city":"Rocklin","state_code":"CA","zip5":"95765","latitude":"38.8343350000000000","longitude":"-121.28900000000000","publicwifi":"U","url":"www.rocklin.k12.ca.us","broadband_type_id":6}
{"id":null,"anchorname":"Sunset Ranch Elementary","address":"2500 Bridlewood Drive","bldgnbr":"2500","predir":null,"streetname":"Bridlewood Drive","streettype":null,"suffdir":null,"city":"Rocklin","state_code":"CA","zip5":"95765","latitude":"38.8264250000000000","longitude":"-121.28640000000000","publicwifi":"U","url":"www.rocklin.k12.ca.us","broadband_type_id":6}
{"id":null,"anchorname":"Barbara Chilton Middle","address":"4501 Bob Doyle Drive","bldgnbr":"4501","predir":null,"streetname":"Bob Doyle","streettype":null,"suffdir":null,"city":"Roseville","state_code":"CA","zip5":"95747","latitude":"38.7779070000000000","longitude":"-121.37146000000000","publicwifi":"U","url":"www.rcsdk8.org","broadband_type_id":6}
{"id":null,"anchorname":"Junction Elementary","address":"2150 Ellison Drive","bldgnbr":"2150","predir":null,"streetname":"Ellison Drive","streettype":null,"suffdir":null,"city":"Roseville","state_code":"CA","zip5":"95747","latitude":"38.7774700000000000","longitude":"-121.36530000000000","publicwifi":"U","url":null,"broadband_type_id":6}
{"id":null,"anchorname":"RENAISSANCE / SCOTT COUNTY","address":"340 EAST JACKSON STREET","bldgnbr":"340","predir":"EAST","streetname":"JACKSON","streettype":"STREET","suffdir":"N/A","city":"GATE CITY","state_code":"VA","zip5":"24251","latitude":"36.6410568780000000","longitude":"-82.575859692000000","publicwifi":"U","url":"N/A","broadband_type_id":6}
{"id":null,"anchorname":"SHENANDOAH VALLEY ADVENTIST ELEMENTARY","address":"115 BINDERY ROAD","bldgnbr":"115","predir":"N/A","streetname":"BINDERY","streettype":"ROAD","suffdir":"N/A","city":"NEW MARKET","state_code":"VA","zip5":"22844","latitude":"38.6528980000000000","longitude":"-78.686986000000000","publicwifi":"U","url":"N/A","broadband_type_id":6}
{"id":null,"anchorname":"SOUTHAMPTON HIGH","address":"23350 SOUTHAMPTON PARKWAY","bldgnbr":"23350","predir":"N/A","streetname":"SOUTHAMPTON","streettype":"PARKWAY","suffdir":"N/A","city":"COURTLAND","state_code":"VA","zip5":"23837","latitude":"36.7008768310000000","longitude":"-77.106387273000000","publicwifi":"U","url":"N/A","broadband_type_id":6}
{"id":null,"anchorname":"Reedley High","address":"740 West North Avenue","bldgnbr":"740","predir":null,"streetname":"West North","streettype":null,"suffdir":null,"city":"Reedley","state_code":"CA","zip5":"93654","latitude":"36.6006590000000000","longitude":"-119.45583000000000","publicwifi":"U","url":null,"broadband_type_id":6}
{"id":null,"anchorname":"Lighthouse Counseling \u0026 Family Resource Center","address":"427 A Street","bldgnbr":"427","predir":null,"streetname":"A Street","streettype":null,"suffdir":null,"city":"Lincoln","state_code":"CA","zip5":"95648","latitude":"38.8908580000000000","longitude":"-121.28518200000000","publicwifi":"U","url":null,"broadband_type_id":6}
{"id":null,"anchorname":"Lincoln Adult","address":"870 J Street","bldgnbr":"870","predir":null,"streetname":"J Street","streettype":null,"suffdir":null,"city":"Lincoln","state_code":"CA","zip5":"95648","latitude":"38.8968800000000000","longitude":"-121.29661100000000","publicwifi":"U","url":null,"broadband_type_id":null}
{"id":null,"anchorname":"First Street","address":"1400 First Street","bldgnbr":"1400","predir":null,"streetname":"First Street","streettype":null,"suffdir":null,"city":"Lincoln","state_code":"CA","zip5":"95648","latitude":"38.8865850000000000","longitude":"-121.30173000000000","publicwifi":"U","url":null,"broadband_type_id":null}
{"id":null,"anchorname":"Wildlife Heritage Foundation","address":"563 Second Street","bldgnbr":"563","predir":null,"streetname":"Second Street","streettype":null,"suffdir":null,"city":"Lincoln","state_code":"CA","zip5":"95648","latitude":"38.8876460000000000","longitude":"-121.29113300000000","publicwifi":"U","url":null,"broadband_type_id":1}
{"id":null,"anchorname":"SUTTER AUBURN SURGERY CENTER","address":"3123 Professional Dr","bldgnbr":"3123","predir":null,"streetname":"Professional Dr","streettype":null,"suffdir":null,"city":"Auburn","state_code":"CA","zip5":"95603","latitude":"38.9412670000000000","longitude":"-121.10174000000000","publicwifi":"U","url":null,"broadband_type_id":null}
{"id":null,"anchorname":"Seniors First Inc.","address":"11566 D Avenue","bldgnbr":"11566","predir":null,"streetname":"D Avenue","streettype":null,"suffdir":null,"city":"Auburn","state_code":"CA","zip5":"95603","latitude":"38.9386060000000000","longitude":"-121.10206300000000","publicwifi":"U","url":null,"broadband_type_id":null}
{"id":null,"anchorname":"Lincoln High","address":"790 J Street","bldgnbr":"790","predir":null,"streetname":"J Street","streettype":null,"suffdir":null,"city":"Lincoln","state_code":"CA","zip5":"95648","latitude":"38.8956890000000000","longitude":"-121.29668000000000","publicwifi":"U","url":null,"broadband_type_id":6}
{"id":null,"anchorname":"Phoenix High (Continuation)","address":"870 J Street","bldgnbr":"870","predir":null,"streetname":"J Street","streettype":null,"suffdir":null,"city":"Lincoln","state_code":"CA","zip5":"95648","latitude":"38.8968590000000000","longitude":"-121.29670000000000","publicwifi":"U","url":null,"broadband_type_id":6}
{"id":null,"anchorname":"Glen Edwards Middle","address":"204 L Street","bldgnbr":"204","predir":null,"streetname":"L Street","streettype":null,"suffdir":null,"city":"Lincoln","state_code":"CA","zip5":"95648","latitude":"38.8878760000000000","longitude":"-121.29914000000000","publicwifi":"U","url":null,"broadband_type_id":6}
{"id":null,"anchorname":"AUBURN DIALYSIS","address":"3126 Professional Dr","bldgnbr":"3126","predir":null,"streetname":"Professional Dr","streettype":null,"suffdir":null,"city":"Auburn","state_code":"CA","zip5":"95603","latitude":"38.9407810000000000","longitude":"-121.10062400000000","publicwifi":"U","url":null,"broadband_type_id":6}
{"id":null,"anchorname":"Auburn Elementary","address":"11400 Lariat Ranch Road","bldgnbr":"11400","predir":null,"streetname":"Lariat Ranch","streettype":null,"suffdir":null,"city":"Auburn","state_code":"CA","zip5":"95603","latitude":"38.9326340000000000","longitude":"-121.10497000000000","publicwifi":"U","url":null,"broadband_type_id":6}
{"id":null,"anchorname":"Goodwill Industries of Sacto. Valley No. Nevada(13411 Lincoln Way)","address":"13411 Lincoln Way","bldgnbr":"13411","predir":null,"streetname":"Lincoln Way","streettype":null,"suffdir":null,"city":"Auburn","state_code":"CA","zip5":"95603","latitude":"38.9240910000000000","longitude":"-121.05623700000000","publicwifi":"U","url":null,"broadband_type_id":6}
{"id":null,"anchorname":"SUTTER AUBURN FAITH VNA AND HOSPICE","address":"11775 Education St","bldgnbr":"11775","predir":null,"streetname":"Education St","streettype":null,"suffdir":null,"city":"Auburn","state_code":"CA","zip5":"95602","latitude":"38.9446750000000000","longitude":"-121.10015700000000","publicwifi":"U","url":null,"broadband_type_id":null}
{"id":null,"anchorname":"Chana High (Continuation)","address":"3775 Richardson Drive","bldgnbr":"3775","predir":null,"streetname":"Richardson Drive","streettype":null,"suffdir":null,"city":"Auburn","state_code":"CA","zip5":"95602","latitude":"38.9512830000000000","longitude":"-121.10754000000000","publicwifi":"U","url":"www.puhsd.k12.ca.us/chana","broadband_type_id":6}
{"id":null,"anchorname":"Maidu High Independent Study","address":"3775 Richardson Drive","bldgnbr":"3775","predir":null,"streetname":"Richardson Drive","streettype":null,"suffdir":null,"city":"Auburn","state_code":"CA","zip5":"95602","latitude":"38.9512830000000000","longitude":"-121.10754000000000","publicwifi":"U","url":"www.puhsd.k12.ca.us/maidu","broadband_type_id":6}
{"id":null,"anchorname":"Rock Creek Elementary","address":"3050 Bell Road","bldgnbr":"3050","predir":null,"streetname":"Bell Road","streettype":null,"suffdir":null,"city":"Auburn","state_code":"CA","zip5":"95603","latitude":"38.9419810000000000","longitude":"-121.09931000000000","publicwifi":"U","url":null,"broadband_type_id":6}
{"id":null,"anchorname":"American Christian Academy - Ext","address":"3550 KOA Way","bldgnbr":"3550","predir":null,"streetname":"KOA Way","streettype":null,"suffdir":null,"city":"Auburn","state_code":"CA","zip5":"95602","latitude":"38.9470142290000000","longitude":"-121.09556661500000","publicwifi":"U","url":null,"broadband_type_id":6}
{"id":null,"anchorname":"Pine Hills Adventist Academy","address":"13500 Richards Lane","bldgnbr":"13500","predir":null,"streetname":"Richards Lane","streettype":null,"suffdir":null,"city":"Auburn","state_code":"CA","zip5":"95603","latitude":"38.9415908070000000","longitude":"-121.06427745800000","publicwifi":"U","url":null,"broadband_type_id":6}
{"id":null,"anchorname":"Ackerman Charter","address":"13777 Bowman Road","bldgnbr":"13777","predir":null,"streetname":"Bowman Road","streettype":null,"suffdir":null,"city":"Auburn","state_code":"CA","zip5":"95603","latitude":"38.9350070000000000","longitude":"-121.05517000000000","publicwifi":"U","url":"www.bowmancharter.org","broadband_type_id":null}
{"id":null,"anchorname":"Bowman Charter","address":"13777 Bowman Road","bldgnbr":"13777","predir":null,"streetname":"Bowman Road","streettype":null,"suffdir":null,"city":"Auburn","state_code":"CA","zip5":"95603","latitude":"38.9350070000000000","longitude":"-121.05517000000000","publicwifi":"U","url":"www.bowmancharter.org","broadband_type_id":null}
{"id":null,"anchorname":"APPLEGATE","address":"18018 Applegate Road","bldgnbr":"18018","predir":null,"streetname":"Applegate Road","streettype":null,"suffdir":null,"city":"Applegate","state_code":"CA","zip5":"95703","latitude":"39.0009350000000000","longitude":"-120.99048200000000","publicwifi":"U","url":null,"broadband_type_id":null}
{"id":null,"anchorname":"Placer Union High","address":"13000 New Airport Road","bldgnbr":"13000","predir":null,"streetname":"New Airport","streettype":null,"suffdir":null,"city":"Auburn","state_code":"CA","zip5":"95603","latitude":"38.9401310000000000","longitude":"-121.07994000000000","publicwifi":"U","url":"www.puhsd.k12.ca.us","broadband_type_id":6}
{"id":null,"anchorname":"LINCOLN MEADOWS CARE CENTER","address":"1550 3Rd St","bldgnbr":"1550","predir":null,"streetname":"3Rd St","streettype":null,"suffdir":null,"city":"Lincoln","state_code":"CA","zip5":"95648","latitude":"38.8892800000000000","longitude":"-121.30387100000000","publicwifi":"U","url":null,"broadband_type_id":3}
{"id":null,"anchorname":"Chapa-De Indian Health Program, Inc.","address":"11670 Atwood Road","bldgnbr":"11670","predir":null,"streetname":"Atwood Road","streettype":null,"suffdir":null,"city":"Auburn","state_code":"CA","zip5":"95603","latitude":"38.9342800000000000","longitude":"-121.09872600000000","publicwifi":"U","url":null,"broadband_type_id":3}
{"id":null,"anchorname":"St. Joseph Catholic School","address":"11610 Atwood Road","bldgnbr":"11610","predir":null,"streetname":"Atwood Road","streettype":null,"suffdir":null,"city":"Auburn","state_code":"CA","zip5":"95603","latitude":"38.9347919880000000","longitude":"-121.10029788300000","publicwifi":"U","url":null,"broadband_type_id":6}
{"id":null,"anchorname":"CHAPA-DE INDIAN HEALTH PROGRAM, INC","address":"11670 Atwood Rd","bldgnbr":"11670","predir":null,"streetname":"Atwood Rd","streettype":null,"suffdir":null,"city":"Auburn","state_code":"CA","zip5":"95603","latitude":"38.9347100000000000","longitude":"-121.09898000000000","publicwifi":"U","url":null,"broadband_type_id":3}
{"id":null,"anchorname":"PROGRESSIVE HOME CARE - AUBURN","address":"11879 Kemper Rd Ste 15","bldgnbr":"11879","predir":null,"streetname":"Kemper Rd","streettype":null,"suffdir":null,"city":"Auburn","state_code":"CA","zip5":"95603","latitude":"38.9315080000000000","longitude":"-121.09160500000000","publicwifi":"U","url":null,"broadband_type_id":3}
{"id":null,"anchorname":"Calvary Chapel Christian School","address":"202 Dairy Road","bldgnbr":"202","predir":null,"streetname":"Dairy Road","streettype":null,"suffdir":null,"city":"Auburn","state_code":"CA","zip5":"95603","latitude":"38.9166009470000000","longitude":"-121.07177125400000","publicwifi":"U","url":null,"broadband_type_id":6}
{"id":null,"anchorname":"California Shock Trauma Air Rescue(13750 Lincoln Way)","address":"13750 Lincoln Way","bldgnbr":"13750","predir":null,"streetname":"Lincoln Way","streettype":null,"suffdir":null,"city":"Auburn","state_code":"CA","zip5":"95603","latitude":"38.9342195220000000","longitude":"-121.05405983400000","publicwifi":"U","url":null,"broadband_type_id":5}
{"id":null,"anchorname":"KINDRED TRANSITIONAL CARE \u0026 REHABILITATION - SIENA","address":"11600 Education St","bldgnbr":"11600","predir":null,"streetname":"Education St","streettype":null,"suffdir":null,"city":"Auburn","state_code":"CA","zip5":"95603","latitude":"38.9439300000000000","longitude":"-121.10471000000000","publicwifi":"U","url":null,"broadband_type_id":3}
{"id":null,"anchorname":"AUBURN OAKS CARE CENTER","address":"3400 Bell Rd","bldgnbr":"3400","predir":null,"streetname":"Bell Rd","streettype":null,"suffdir":null,"city":"Auburn","state_code":"CA","zip5":"95603","latitude":"38.9419400000000000","longitude":"-121.10890000000000","publicwifi":"U","url":null,"broadband_type_id":3}
{"id":null,"anchorname":"SUTTER AUBURN FAITH HOSPITAL","address":"11815 Education St","bldgnbr":"11815","predir":null,"streetname":"Education St","streettype":null,"suffdir":null,"city":"Auburn","state_code":"CA","zip5":"95602","latitude":"38.9445200000000000","longitude":"-121.09820000000000","publicwifi":"U","url":null,"broadband_type_id":3}
{"id":null,"anchorname":"WESTVIEW HEALTHCARE CENTER","address":"12225 Shale Ridge Lane","bldgnbr":"12225","predir":null,"streetname":"Shale Ridge","streettype":null,"suffdir":null,"city":"Auburn","state_code":"CA","zip5":"95602","latitude":"38.9530470000000000","longitude":"-121.09576600000000","publicwifi":"U","url":null,"broadband_type_id":3}
{"id":null,"anchorname":"Animal Spay \u0026 Neuter A Non-Profit Clinic","address":"3524 Koa Way","bldgnbr":"3524","predir":null,"streetname":"Koa Way","streettype":null,"suffdir":null,"city":"Auburn","state_code":"CA","zip5":"95602","latitude":"38.9477760000000000","longitude":"-121.09562900000000","publicwifi":"U","url":null,"broadband_type_id":3}
{"id":null,"anchorname":"MEADOW VISTA LIBRARY","address":"16981 Placer Hills Road","bldgnbr":"16981","predir":null,"streetname":"Placer Hills","streettype":null,"suffdir":null,"city":"Meadow Vista","state_code":"CA","zip5":"95722","latitude":"38.9999610000000000","longitude":"-121.02227300000000","publicwifi":"U","url":null,"broadband_type_id":6}
{"id":null,"anchorname":"Sierra Hills Elementary","address":"16505 Placer Hills Road","bldgnbr":"16505","predir":null,"streetname":"Placer Hills","streettype":null,"suffdir":null,"city":"Meadow Vista","state_code":"CA","zip5":"95722","latitude":"38.9907430000000000","longitude":"-121.02560000000000","publicwifi":"U","url":null,"broadband_type_id":6}
{"id":null,"anchorname":"Placer Hills Union Elementary","address":"16505 Placer Hills Road","bldgnbr":"16505","predir":null,"streetname":"Placer Hills","streettype":null,"suffdir":null,"city":"Meadow Vista","state_code":"CA","zip5":"95722","latitude":"38.9908080000000000","longitude":"-121.02605000000000","publicwifi":"U","url":"www.phusd.k12.ca.us","broadband_type_id":6}
{"id":null,"anchorname":"DEPARTMENT OF MOTOR VEHICLES","address":"714A NORTH MAIN STREET","bldgnbr":"714A","predir":"NORTH","streetname":"MAIN","streettype":"STREET","suffdir":"N/A","city":"WOODSTOCK","state_code":"VA","zip5":"22664","latitude":"38.8911270000000000","longitude":"-78.496815000000000","publicwifi":"U","url":"N/A","broadband_type_id":6}
{"id":null,"anchorname":"Riverview Elementary","address":"8662 South Lac Jac Avenue","bldgnbr":"8662","predir":null,"streetname":"South Lac Jac","streettype":null,"suffdir":null,"city":"Parlier","state_code":"CA","zip5":"93648","latitude":"36.6099770000000000","longitude":"-119.48420000000000","publicwifi":"U","url":null,"broadband_type_id":6}
{"id":null,"anchorname":"DEPARTMENT OF SOCIAL SERVICES","address":"26022 ADMINISTRATION CENTER DRIVE","bldgnbr":"26022","predir":"N/A","streetname":"ADMINISTRATION CENTER","streettype":"DRIVE","suffdir":"N/A","city":"COURTLAND","state_code":"VA","zip5":"23837","latitude":"36.7155070000000000","longitude":"-77.065866000000000","publicwifi":"U","url":"N/A","broadband_type_id":6}
{"id":null,"anchorname":"Rocklin Academy","address":"6532 Turnstone Way","bldgnbr":"6532","predir":null,"streetname":"Turnstone Way","streettype":null,"suffdir":null,"city":"Rocklin","state_code":"CA","zip5":"95765","latitude":"38.8040210000000000","longitude":"-121.28632000000000","publicwifi":"U","url":"www.rocklinacademy.org","broadband_type_id":6}
{"id":null,"anchorname":"CORE Placer Charter","address":"1033 South Auburn Street","bldgnbr":"1033","predir":null,"streetname":"South Auburn","streettype":null,"suffdir":null,"city":"Colfax","state_code":"CA","zip5":"95713","latitude":"39.0902280000000000","longitude":"-120.95309000000000","publicwifi":"U","url":"www.coretca.org","broadband_type_id":null}
{"id":null,"anchorname":"Weimar Hills Charter","address":"200 West Weimar Cross Road","bldgnbr":"200","predir":null,"streetname":"West Weimar Cross","streettype":null,"suffdir":null,"city":"Weimar","state_code":"CA","zip5":"95736","latitude":"39.0449800000000000","longitude":"-120.97817000000000","publicwifi":"U","url":"www.weimarcharter.org","broadband_type_id":null}
{"id":null,"anchorname":"Weimar Hills","address":"200 West Weimar Crossroad","bldgnbr":"200","predir":null,"streetname":"West Weimar Crossroad","streettype":null,"suffdir":null,"city":"Weimar","state_code":"CA","zip5":"95736","latitude":"39.0451640000000000","longitude":"-120.97852000000000","publicwifi":"U","url":"www.phusd.k12.ca.us","broadband_type_id":null}
{"id":null,"anchorname":"Squaw Valley Preparatory","address":"1916 Chamonix Pl","bldgnbr":"1916","predir":null,"streetname":"Chamonix Pl","streettype":null,"suffdir":null,"city":"Olympic Valley","state_code":"CA","zip5":"96146","latitude":"39.1988000000000000","longitude":"-120.23954000000000","publicwifi":"U","url":"www.squaw.org","broadband_type_id":null}
{"id":null,"anchorname":"Creekside Charter","address":"1916 Chamonix Pl","bldgnbr":"1916","predir":null,"streetname":"Chamonix Pl","streettype":null,"suffdir":null,"city":"Olympic Valley","state_code":"CA","zip5":"96146","latitude":"39.1988000000000000","longitude":"-120.23954000000000","publicwifi":"U","url":"www.newcastle.k12.ca.us","broadband_type_id":null}
{"id":null,"anchorname":"North Tahoe Arts Inc.(380 North Lake Blvd.)","address":"380 North Lake Blvd.","bldgnbr":"380","predir":null,"streetname":"North Lake","streettype":null,"suffdir":null,"city":"Tahoe City","state_code":"CA","zip5":"96145","latitude":"39.1432026070000000","longitude":"-120.15737200900000","publicwifi":"U","url":null,"broadband_type_id":null}
{"id":null,"anchorname":"Colfax Elementary","address":"24825 Ben Taylor Road","bldgnbr":"24825","predir":null,"streetname":"Ben Taylor","streettype":null,"suffdir":null,"city":"Colfax","state_code":"CA","zip5":"95713","latitude":"39.1047660000000000","longitude":"-120.96076000000000","publicwifi":"U","url":null,"broadband_type_id":6}
{"id":null,"anchorname":"Emigrant Gap Elementary","address":"42420 Emigrant Gap Road","bldgnbr":"42420","predir":null,"streetname":"Emigrant Gap","streettype":null,"suffdir":null,"city":"Emigrant Gap","state_code":"CA","zip5":"95715","latitude":"39.2983760000000000","longitude":"-120.67102000000000","publicwifi":"U","url":null,"broadband_type_id":6}
{"id":null,"anchorname":"Alta-Dutch Flat Elementary","address":"34050 Alta-Bonny Nook Road","bldgnbr":"34050","predir":null,"streetname":"Alta-Bonny Nook","streettype":null,"suffdir":null,"city":"Alta","state_code":"CA","zip5":"95701","latitude":"39.2075040000000000","longitude":"-120.80905000000000","publicwifi":"U","url":null,"broadband_type_id":6}
{"id":null,"anchorname":"Tahoe Lake Elementary","address":"375 Grove Street","bldgnbr":"375","predir":null,"streetname":"Grove Street","streettype":null,"suffdir":null,"city":"Tahoe City","state_code":"CA","zip5":"96161","latitude":"39.1737300000000000","longitude":"-120.14189000000000","publicwifi":"U","url":null,"broadband_type_id":6}
{"id":null,"anchorname":"Horizon Charter","address":"2800 Nicolaus Road, Suite 100","bldgnbr":"2800","predir":null,"streetname":"Nicolaus Road","streettype":null,"suffdir":null,"city":"Lincoln","state_code":"CA","zip5":"95648","latitude":"38.8974440000000000","longitude":"-121.33550000000000","publicwifi":"U","url":"www.horizoncharterschool.org","broadband_type_id":null}
{"id":null,"anchorname":"RAI - STERLING PKWY. - LINCOLN","address":"811 Sterling Pkwy","bldgnbr":"811","predir":null,"streetname":"Sterling Pkwy","streettype":null,"suffdir":null,"city":"Lincoln","state_code":"CA","zip5":"95648","latitude":"38.8712640000000000","longitude":"-121.29600200000000","publicwifi":"U","url":null,"broadband_type_id":null}
{"id":null,"anchorname":"Stoneridge Elementary","address":"2501 Alexandra Drive","bldgnbr":"2501","predir":null,"streetname":"Alexandra Drive","streettype":null,"suffdir":null,"city":"Roseville","state_code":"CA","zip5":"95661","latitude":"38.7579140000000000","longitude":"-121.23492000000000","publicwifi":"U","url":null,"broadband_type_id":6}
{"id":null,"anchorname":"Wilson C. Riles Middle","address":"4747 PFE Road","bldgnbr":"4747","predir":null,"streetname":"PFE Road","streettype":null,"suffdir":null,"city":"Roseville","state_code":"CA","zip5":"95747","latitude":"38.7288190000000000","longitude":"-121.36799000000000","publicwifi":"U","url":"www.centerusd.k12.ca.us","broadband_type_id":6}
{"id":null,"anchorname":"TAHOE CITY LIBRARY","address":"740 North Lake Blvd.","bldgnbr":"740","predir":null,"streetname":"North Lake","streettype":null,"suffdir":null,"city":"Tahoe City","state_code":"CA","zip5":"96145","latitude":"39.1730750000000000","longitude":"-120.13859000000000","publicwifi":"U","url":null,"broadband_type_id":6}
{"id":null,"anchorname":"RAI - SECRET RAVINE PARKWAY - ROSEVILLE","address":"1451 Secret Ravine Pkwy","bldgnbr":"1451","predir":null,"streetname":"Secret Ravine Pkwy","streettype":null,"suffdir":null,"city":"Roseville","state_code":"CA","zip5":"95661","latitude":"38.7643000000000000","longitude":"-121.24410000000000","publicwifi":"U","url":null,"broadband_type_id":2}
{"id":null,"anchorname":"SUTTER ROSEVILLE MEDICAL CENTER","address":"1 Medical Plaza Dr","bldgnbr":"1","predir":null,"streetname":"Medical Plaza","streettype":null,"suffdir":null,"city":"Roseville","state_code":"CA","zip5":"95661","latitude":"38.7643900000000000","longitude":"-121.25055000000000","publicwifi":"U","url":null,"broadband_type_id":3}
{"id":null,"anchorname":"ALWAYS BEST CARE SACRAMENTO, LLC","address":"1406 Blue Oaks Blvd","bldgnbr":"1406","predir":null,"streetname":"Blue Oaks","streettype":null,"suffdir":null,"city":"Roseville","state_code":"CA","zip5":"95747","latitude":"38.7955320000000000","longitude":"-121.32142600000000","publicwifi":"U","url":null,"broadband_type_id":3}
{"id":null,"anchorname":"Sacramento Valley Teen Challenge (Alpha Newsom Women's Center)","address":"300 Stardust Ln.","bldgnbr":"300","predir":null,"streetname":"Stardust Ln.","streettype":null,"suffdir":null,"city":"Lincoln","state_code":"CA","zip5":"95648","latitude":"38.8811750000000000","longitude":"-121.24880400000000","publicwifi":"U","url":null,"broadband_type_id":1}
{"id":null,"anchorname":"PLUMAS DISTRICT HOSPITAL","address":"1065 Bucks Lake Rd","bldgnbr":"1065","predir":null,"streetname":"Bucks Lake","streettype":null,"suffdir":null,"city":"Quincy","state_code":"CA","zip5":"95971","latitude":"39.9393800000000000","longitude":"-120.96244000000000","publicwifi":"U","url":null,"broadband_type_id":3}
{"id":null,"anchorname":"Catheryn Gates Elementary","address":"1051 Trehowell Drive","bldgnbr":"1051","predir":null,"streetname":"Trehowell Drive","streettype":null,"suffdir":null,"city":"Roseville","state_code":"CA","zip5":"95678","latitude":"38.7759700000000000","longitude":"-121.28311000000000","publicwifi":"U","url":null,"broadband_type_id":6}
{"id":null,"anchorname":"Thomas Jefferson Elementary","address":"750 Central Park Drive","bldgnbr":"750","predir":null,"streetname":"Central Park","streettype":null,"suffdir":null,"city":"Roseville","state_code":"CA","zip5":"95678","latitude":"38.7888500000000000","longitude":"-121.27611000000000","publicwifi":"U","url":null,"broadband_type_id":6}
{"id":null,"anchorname":"Goodwill Industries of Sacamento Valley No. Nevada(9400 Fairway Drive)","address":"9400 Fairway Drive","bldgnbr":"9400","predir":null,"streetname":"Fairway Drive","streettype":null,"suffdir":null,"city":"Roseville","state_code":"CA","zip5":"95678","latitude":"38.7837240000000000","longitude":"-121.26999300000000","publicwifi":"U","url":null,"broadband_type_id":6}
{"id":null,"anchorname":"Rock Creek Elementary","address":"2140 Collet Quarry Drive","bldgnbr":"2140","predir":null,"streetname":"Collet Quarry","streettype":null,"suffdir":null,"city":"Rocklin","state_code":"CA","zip5":"95765","latitude":"38.7980690000000000","longitude":"-121.27945000000000","publicwifi":"U","url":"www.rocklin.k12.ca.us","broadband_type_id":6}
{"id":null,"anchorname":"SBE - Western Sierra Collegiate Academy","address":"660 Menlo Drive","bldgnbr":"660","predir":null,"streetname":"Menlo Drive","streettype":null,"suffdir":null,"city":"Rocklin","state_code":"CA","zip5":"95765","latitude":"38.8116110000000000","longitude":"-121.29815000000000","publicwifi":"U","url":"www.wscacademy.org","broadband_type_id":6}
{"id":null,"anchorname":"Western Sierra Collegiate Academy","address":"660 Menlo Drive","bldgnbr":"660","predir":null,"streetname":"Menlo Drive","streettype":null,"suffdir":null,"city":"Rocklin","state_code":"CA","zip5":"95765","latitude":"38.8116110000000000","longitude":"-121.29815000000000","publicwifi":"U","url":"www.wscacademy.org","broadband_type_id":6}
{"id":null,"anchorname":"Ruhkala Elementary","address":"6530 Turnstone Way","bldgnbr":"6530","predir":null,"streetname":"Turnstone Way","streettype":null,"suffdir":null,"city":"Rocklin","state_code":"CA","zip5":"95765","latitude":"38.8040690000000000","longitude":"-121.28632000000000","publicwifi":"U","url":"www.rocklin.k12.ca.us","broadband_type_id":6}
{"id":null,"anchorname":"Diamond Creek Elementary","address":"3151 Hopscotch Way","bldgnbr":"3151","predir":null,"streetname":"Hopscotch Way","streettype":null,"suffdir":null,"city":"Roseville","state_code":"CA","zip5":"95747","latitude":"38.8076540000000000","longitude":"-121.33433000000000","publicwifi":"U","url":null,"broadband_type_id":6}
{"id":null,"anchorname":"Lincoln Crossing Elementary","address":"635 Groveland Lane","bldgnbr":"635","predir":null,"streetname":"Groveland Lane","streettype":null,"suffdir":null,"city":"Lincoln","state_code":"CA","zip5":"95648","latitude":"38.8789280000000000","longitude":"-121.30518000000000","publicwifi":"U","url":"www.wpusd.k12.ca.us","broadband_type_id":6}
{"id":null,"anchorname":"Foskett Ranch Elementary","address":"1561 Joiner Parkway","bldgnbr":"1561","predir":null,"streetname":"Joiner Parkway","streettype":null,"suffdir":null,"city":"Lincoln","state_code":"CA","zip5":"95648","latitude":"38.9068800000000000","longitude":"-121.31733000000000","publicwifi":"U","url":"www.wpusd.k12.ca.us","broadband_type_id":6}
{"id":null,"anchorname":"Twelve Bridges Middle","address":"770 Westview Drive","bldgnbr":"770","predir":null,"streetname":"Westview Drive","streettype":null,"suffdir":null,"city":"Lincoln","state_code":"CA","zip5":"95648","latitude":"38.8438000000000000","longitude":"-121.28780000000000","publicwifi":"U","url":"www.wpusd.k12.ca.us","broadband_type_id":6}
{"id":null,"anchorname":"TWELVE BRIDGES","address":"485 Twelve Bridges Drive","bldgnbr":"485","predir":null,"streetname":"Twelve Bridges","streettype":null,"suffdir":null,"city":"Lincoln","state_code":"CA","zip5":"95648","latitude":"38.8509840000000000","longitude":"-121.29426900000000","publicwifi":"U","url":null,"broadband_type_id":6}
{"id":null,"anchorname":"Twelve Bridges Elementary","address":"2450 Eastridge Drive","bldgnbr":"2450","predir":null,"streetname":"Eastridge Drive","streettype":null,"suffdir":null,"city":"Lincoln","state_code":"CA","zip5":"95648","latitude":"38.8468940000000000","longitude":"-121.26875000000000","publicwifi":"U","url":"www.wpusd.k12.ca.us","broadband_type_id":6}
{"id":null,"anchorname":"Creekside Oaks Elementary","address":"2030 First Street","bldgnbr":"2030","predir":null,"streetname":"First Street","streettype":null,"suffdir":null,"city":"Lincoln","state_code":"CA","zip5":"95648","latitude":"38.8866980000000000","longitude":"-121.31603000000000","publicwifi":"U","url":null,"broadband_type_id":6}
{"id":null,"anchorname":"Selma High","address":"3125 Wright Street","bldgnbr":"3125","predir":null,"streetname":"Wright Street","streettype":null,"suffdir":null,"city":"Selma","state_code":"CA","zip5":"93662","latitude":"36.5808990000000000","longitude":"-119.61520000000000","publicwifi":"U","url":"http://selmausd.org","broadband_type_id":6}
{"id":null,"anchorname":"Plumas County ROP","address":"50 Church Street","bldgnbr":"50","predir":null,"streetname":"Church Street","streettype":null,"suffdir":null,"city":"Quincy","state_code":"CA","zip5":"95971","latitude":"39.9371720000000000","longitude":"-120.94414000000000","publicwifi":"U","url":null,"broadband_type_id":1}
{"id":null,"anchorname":"DEPARTMENT OF MOTOR VEHICLES","address":"1595 WEST MAIN STREET","bldgnbr":"1595","predir":"WEST","streetname":"MAIN","streettype":"STREET","suffdir":"N/A","city":"MARION","state_code":"VA","zip5":"24354","latitude":"36.8482970000000000","longitude":"-81.491384000000000","publicwifi":"U","url":"N/A","broadband_type_id":6}
{"id":null,"anchorname":"Plumas Unified","address":"50 Church Street","bldgnbr":"50","predir":null,"streetname":"Church Street","streettype":null,"suffdir":null,"city":"Quincy","state_code":"CA","zip5":"95971","latitude":"39.9371720000000000","longitude":"-120.94414000000000","publicwifi":"U","url":"www.pcoe.k12.ca.us","broadband_type_id":null}
{"id":null,"anchorname":"DEPARTMENT OF SOCIAL SERVICES","address":"340 BAGLEY CIRCLE","bldgnbr":"340","predir":"N/A","streetname":"BAGLEY","streettype":"CIRCLE","suffdir":"N/A","city":"MARION","state_code":"VA","zip5":"24354","latitude":"36.8330868180000000","longitude":"-81.511377170000000","publicwifi":"U","url":"N/A","broadband_type_id":6}
{"id":null,"anchorname":"Plumas County Opportunity","address":"50 Church Street","bldgnbr":"50","predir":null,"streetname":"Church Street","streettype":null,"suffdir":null,"city":"Quincy","state_code":"CA","zip5":"95971","latitude":"39.9371720000000000","longitude":"-120.94414000000000","publicwifi":"U","url":"www.pcoe.k12.ca.us","broadband_type_id":1}
{"id":null,"anchorname":"QUINCY","address":"445 Jackson St.","bldgnbr":"445","predir":null,"streetname":"Jackson St.","streettype":null,"suffdir":null,"city":"\u003cNull\u003e","state_code":"CA","zip5":"95971","latitude":"39.9358000000000000","longitude":"-120.94707600000000","publicwifi":"U","url":null,"broadband_type_id":null}
{"id":null,"anchorname":"Plumas County Community","address":"256 Jackson Street","bldgnbr":"256","predir":null,"streetname":"Jackson Street","streettype":null,"suffdir":null,"city":"Quincy","state_code":"CA","zip5":"95971","latitude":"39.9359050000000000","longitude":"-120.94331000000000","publicwifi":"U","url":"www.pcoe.k12.ca.us","broadband_type_id":1}
{"id":null,"anchorname":"Plumas Charter","address":"175 North Mill Creek","bldgnbr":"175","predir":null,"streetname":"North Mill Creek","streettype":null,"suffdir":null,"city":"Quincy","state_code":"CA","zip5":"95971","latitude":"39.9368600000000000","longitude":"-120.90495000000000","publicwifi":"U","url":"www.plumascharterschool.org","broadband_type_id":null}
{"id":null,"anchorname":"Quincy Elementary","address":"246 Alder Street","bldgnbr":"246","predir":null,"streetname":"Alder Street","streettype":null,"suffdir":null,"city":"Quincy","state_code":"CA","zip5":"95971","latitude":"39.9332860000000000","longitude":"-120.94596000000000","publicwifi":"U","url":"www.pcoe.k12.ca.us","broadband_type_id":6}
{"id":null,"anchorname":"Portola Opportunity","address":"895 West Street","bldgnbr":"895","predir":null,"streetname":"West Street","streettype":null,"suffdir":null,"city":"Portola","state_code":"CA","zip5":"96122","latitude":"39.8162710000000000","longitude":"-120.47544000000000","publicwifi":"U","url":"www.pcoe.k12.ca.us","broadband_type_id":null}
{"id":null,"anchorname":"Alliance for Workforce Development, Inc.(E. Main St., Quincy, CA)","address":"270 County HSPpital Rd","bldgnbr":"270","predir":null,"streetname":"County HSPpital","streettype":null,"suffdir":null,"city":"Quincy","state_code":"CA","zip5":"95971","latitude":"39.9524560000000000","longitude":"-120.96195600000000","publicwifi":"U","url":null,"broadband_type_id":4}
{"id":null,"anchorname":"Quincy Junior/Senior High","address":"6 Quincy Junction Road","bldgnbr":"6","predir":null,"streetname":"Quincy Junction","streettype":null,"suffdir":null,"city":"Quincy","state_code":"CA","zip5":"95971","latitude":"39.9637840000000000","longitude":"-120.89885000000000","publicwifi":"U","url":"www.pcoe.k12.ca.us","broadband_type_id":6}
{"id":null,"anchorname":"C. Roy Carmichael Elementary","address":"895 West Street","bldgnbr":"895","predir":null,"streetname":"West Street","streettype":null,"suffdir":null,"city":"Portola","state_code":"CA","zip5":"96122","latitude":"39.8162710000000000","longitude":"-120.47544000000000","publicwifi":"U","url":"www.pcoe.k12.ca.us","broadband_type_id":6}
{"id":null,"anchorname":"Portola Junior/Senior High","address":"155 Sixth Avenue","bldgnbr":"155","predir":null,"streetname":"Sixth Avenue","streettype":null,"suffdir":null,"city":"Portola","state_code":"CA","zip5":"96122","latitude":"39.8017260000000000","longitude":"-120.46677000000000","publicwifi":"U","url":"www.pcoe.k12.ca.us","broadband_type_id":6}
{"id":null,"anchorname":"Greenville Junior/Senior High","address":"117 Grand Street","bldgnbr":"117","predir":null,"streetname":"Grand Street","streettype":null,"suffdir":null,"city":"Greenville","state_code":"CA","zip5":"95947","latitude":"40.1395970000000000","longitude":"-120.94576000000000","publicwifi":"U","url":"www.pcoe.k12.ca.us","broadband_type_id":6}
{"id":null,"anchorname":"The Salvation Army,(CorpsCom.Ctr.)3003 Orange","address":"3030 Orange","bldgnbr":"3030","predir":null,"streetname":"Orange","streettype":null,"suffdir":null,"city":"Riverside","state_code":"CA","zip5":"92501","latitude":"33.9886670000000000","longitude":"-117.36831800000000","publicwifi":"U","url":null,"broadband_type_id":null}
{"id":null,"anchorname":"Springboard Nonprofit Cons. Credit Mgt. (4351 Latham)","address":"4351 Latham Street","bldgnbr":"4351","predir":null,"streetname":"Latham Street","streettype":null,"suffdir":null,"city":"Riverside","state_code":"CA","zip5":"92501","latitude":"34.0025080000000000","longitude":"-117.37353700000000","publicwifi":"U","url":null,"broadband_type_id":null}
{"id":null,"anchorname":"Indian Valley Elementary","address":"225 Grand Street","bldgnbr":"225","predir":null,"streetname":"Grand Street","streettype":null,"suffdir":null,"city":"Greenville","state_code":"CA","zip5":"95947","latitude":"40.1405690000000000","longitude":"-120.94570000000000","publicwifi":"U","url":"www.pcoe.k12.ca.us","broadband_type_id":6}
{"id":null,"anchorname":"Almanor High (Continuation)","address":"612 First Street","bldgnbr":"612","predir":null,"streetname":"First Street","streettype":null,"suffdir":null,"city":"Chester","state_code":"CA","zip5":"96020","latitude":"40.3025530000000000","longitude":"-121.23109000000000","publicwifi":"U","url":"www.pcoe.k12.ca.us","broadband_type_id":6}
{"id":null,"anchorname":"MFI Recovery Center A Women's Place","address":"4295 Brockton Ave.","bldgnbr":"4295","predir":null,"streetname":"Brockton Ave.","streettype":null,"suffdir":null,"city":"Riverside","state_code":"CA","zip5":"92501","latitude":"33.9798260000000000","longitude":"-117.38276900000000","publicwifi":"U","url":null,"broadband_type_id":null}
{"id":null,"anchorname":"Chester Junior/Senior High","address":"612 First Street","bldgnbr":"612","predir":null,"streetname":"First Street","streettype":null,"suffdir":null,"city":"Chester","state_code":"CA","zip5":"96020","latitude":"40.3031910000000000","longitude":"-121.22733000000000","publicwifi":"U","url":"www.pcoe.k12.ca.us","broadband_type_id":6}
{"id":null,"anchorname":"Chester Elementary","address":"158 Aspen Street","bldgnbr":"158","predir":null,"streetname":"Aspen Street","streettype":null,"suffdir":null,"city":"Chester","state_code":"CA","zip5":"96020","latitude":"40.3062940000000000","longitude":"-121.23081000000000","publicwifi":"U","url":"www.pcoe.k12.ca.us","broadband_type_id":6}
{"id":null,"anchorname":"PLUMAS COUNTY LIBRARY","address":"445 JACKSON ST.","bldgnbr":"445","predir":null,"streetname":"JACKSON ST.","streettype":null,"suffdir":null,"city":"QUINCY","state_code":"CA","zip5":"95971","latitude":"39.9358050000000000","longitude":"-120.94571500000000","publicwifi":"U","url":null,"broadband_type_id":6}
{"id":null,"anchorname":"Plumas Christian School","address":"49 South Lindan Avenue","bldgnbr":"49","predir":null,"streetname":"South Lindan","streettype":null,"suffdir":null,"city":"Quincy","state_code":"CA","zip5":"95971","latitude":"39.9364098780000000","longitude":"-120.93819988200000","publicwifi":"U","url":null,"broadband_type_id":6}
{"id":null,"anchorname":"Feather River Community College District","address":"570 Golden Eagle Ave","bldgnbr":"570","predir":null,"streetname":"Golden Eagle","streettype":null,"suffdir":null,"city":"Quincy","state_code":"CA","zip5":"95971","latitude":"39.9523950000000000","longitude":"-120.97087700000000","publicwifi":"U","url":"www.frc.edu","broadband_type_id":6}
{"id":null,"anchorname":"EASTERN PLUMAS HOSPITAL-PORTOLA CAMPUS","address":"500 1St Ave","bldgnbr":"500","predir":null,"streetname":"1St Ave","streettype":null,"suffdir":null,"city":"Portola","state_code":"CA","zip5":"96122","latitude":"39.8053200000000000","longitude":"-120.47046000000000","publicwifi":"U","url":null,"broadband_type_id":3}
{"id":null,"anchorname":"PORTOLA BRANCH LIBRARY","address":"34 3RD AVE.","bldgnbr":"34","predir":null,"streetname":"3RD AVE.","streettype":null,"suffdir":null,"city":"PORTOLA","state_code":"CA","zip5":"96122","latitude":"39.8050100000000000","longitude":"-120.46597800000000","publicwifi":"U","url":null,"broadband_type_id":6}
{"id":null,"anchorname":"GREENVILLE RANCHERIA TRIBAL HEALTH PROGRAM-GREENVILLE","address":"410 Main St","bldgnbr":"410","predir":null,"streetname":"Main St","streettype":null,"suffdir":null,"city":"Greenville","state_code":"CA","zip5":"95947","latitude":"40.1404000000000000","longitude":"-120.95020000000000","publicwifi":"U","url":null,"broadband_type_id":3}
{"id":null,"anchorname":"GREENVILLE BRANCH LIBRARY","address":"204 ANN ST.","bldgnbr":"204","predir":null,"streetname":"ANN ST.","streettype":null,"suffdir":null,"city":"GREENVILLE","state_code":"CA","zip5":"95947","latitude":"40.1403340000000000","longitude":"-120.95181700000000","publicwifi":"U","url":null,"broadband_type_id":6}
{"id":null,"anchorname":"SENECA HEALTHCARE DISTRICT","address":"130 Brentwood Dr","bldgnbr":"130","predir":null,"streetname":"Brentwood Dr","streettype":null,"suffdir":null,"city":"Chester","state_code":"CA","zip5":"96020","latitude":"40.3051800000000000","longitude":"-121.23421000000000","publicwifi":"U","url":null,"broadband_type_id":3}
{"id":null,"anchorname":"WHITE STAR HEALTH SYSTEMS, INC","address":"4100 Latham St","bldgnbr":"4100","predir":null,"streetname":"Latham St","streettype":null,"suffdir":null,"city":"Riverside","state_code":"CA","zip5":"92501","latitude":"34.0010460000000000","longitude":"-117.37105700000000","publicwifi":"U","url":null,"broadband_type_id":3}
{"id":null,"anchorname":"MANAGED HOMECARE INC","address":"4100 Latham St Ste I","bldgnbr":"4100","predir":null,"streetname":"Latham St","streettype":null,"suffdir":null,"city":"Riverside","state_code":"CA","zip5":"92501","latitude":"34.0010580000000000","longitude":"-117.37126100000000","publicwifi":"U","url":null,"broadband_type_id":3}
{"id":null,"anchorname":"PLYMOUTH TOWER CARE AND LIVING CENTER","address":"3401 Lemon St","bldgnbr":"3401","predir":null,"streetname":"Lemon St","streettype":null,"suffdir":null,"city":"Riverside","state_code":"CA","zip5":"92501","latitude":"33.9847370000000000","longitude":"-117.36973100000000","publicwifi":"U","url":null,"broadband_type_id":3}
{"id":null,"anchorname":"RIVERSIDE PUBLIC MAIN LIBRARY","address":"3581 MISSION INN AVE.","bldgnbr":"3581","predir":null,"streetname":"MISSION INN","streettype":null,"suffdir":null,"city":"RIVERSIDE","state_code":"CA","zip5":"92501","latitude":"33.9822950000000000","longitude":"-117.37235100000000","publicwifi":"U","url":null,"broadband_type_id":6}
{"id":null,"anchorname":"CHESTER","address":"210 First St.","bldgnbr":"210","predir":null,"streetname":"First St.","streettype":null,"suffdir":null,"city":"Chester","state_code":"CA","zip5":"96020","latitude":"40.3017190000000000","longitude":"-121.23393400000000","publicwifi":"U","url":null,"broadband_type_id":6}
{"id":null,"anchorname":"RIVERSIDE DIALYSIS CENTER","address":"4361 Latham St Ste 100","bldgnbr":"4361","predir":null,"streetname":"Latham St","streettype":null,"suffdir":null,"city":"Riverside","state_code":"CA","zip5":"92501","latitude":"34.0024960000000000","longitude":"-117.37469800000000","publicwifi":"U","url":null,"broadband_type_id":6}
{"id":null,"anchorname":"Patricia Beatty Elementary","address":"4261 Latham Road","bldgnbr":"4261","predir":null,"streetname":"Latham Road","streettype":null,"suffdir":null,"city":"Riverside","state_code":"CA","zip5":"92501","latitude":"34.0020140000000000","longitude":"-117.37295000000000","publicwifi":"U","url":"www.rusd.k12.ca.us","broadband_type_id":6}
{"id":null,"anchorname":"Fremont Elementary","address":"1925 Orange Street","bldgnbr":"1925","predir":null,"streetname":"Orange Street","streettype":null,"suffdir":null,"city":"Riverside","state_code":"CA","zip5":"92501","latitude":"33.9964410000000000","longitude":"-117.36314000000000","publicwifi":"U","url":null,"broadband_type_id":6}
{"id":null,"anchorname":"Bryant Elementary","address":"4324 Third Street","bldgnbr":"4324","predir":null,"streetname":"Third Street","streettype":null,"suffdir":null,"city":"Riverside","state_code":"CA","zip5":"92501","latitude":"33.9901410000000000","longitude":"-117.37855000000000","publicwifi":"U","url":null,"broadband_type_id":6}
{"id":null,"anchorname":"Indianola Elementary","address":"11524 East Dinuba Avenue","bldgnbr":"11524","predir":null,"streetname":"East Dinuba","streettype":null,"suffdir":null,"city":"Selma","state_code":"CA","zip5":"93662","latitude":"36.5907150000000000","longitude":"-119.58315000000000","publicwifi":"U","url":"http://selmausd.org","broadband_type_id":6}
{"id":null,"anchorname":"Riverside County Office of Education","address":"3939 13th Street","bldgnbr":"3939","predir":null,"streetname":"13th Street","streettype":null,"suffdir":null,"city":"Riverside","state_code":"CA","zip5":"92502","latitude":"33.9784940000000000","longitude":"-117.38054000000000","publicwifi":"U","url":"www.rcoe.us","broadband_type_id":6}
{"id":null,"anchorname":"Riverside Unified","address":"3380 14th Street","bldgnbr":"3380","predir":null,"streetname":"14th Street","streettype":null,"suffdir":null,"city":"Riverside","state_code":"CA","zip5":"92516","latitude":"33.9739300000000000","longitude":"-117.37465000000000","publicwifi":"U","url":"www.rusd.k12.ca.us","broadband_type_id":null}
{"id":null,"anchorname":"Riverside County ROP","address":"3939 13th Street","bldgnbr":"3939","predir":null,"streetname":"13th Street","streettype":null,"suffdir":null,"city":"Riverside","state_code":"CA","zip5":"92502","latitude":"33.9784940000000000","longitude":"-117.38054000000000","publicwifi":"U","url":null,"broadband_type_id":1}
{"id":null,"anchorname":"Riverside County Juvenile Court","address":"3939 13th Street","bldgnbr":"3939","predir":null,"streetname":"13th Street","streettype":null,"suffdir":null,"city":"Riverside","state_code":"CA","zip5":"92502","latitude":"33.9784940000000000","longitude":"-117.38054000000000","publicwifi":"U","url":"www.rcoe.us","broadband_type_id":1}
{"id":null,"anchorname":"DEPARTMENT OF CORRECTIONS - CENTRAL ADMINISTRATION","address":"140 WRIGHT STREET","bldgnbr":"140","predir":"N/A","streetname":"WRIGHT","streettype":"STREET","suffdir":"N/A","city":"MARION","state_code":"VA","zip5":"24354","latitude":"36.8313940000000000","longitude":"-81.509223000000000","publicwifi":"U","url":"N/A","broadband_type_id":6}
{"id":null,"anchorname":"DEPARTMENT OF CORRECTIONS - CENTRAL ADMINISTRATION","address":"14380 TERRAPIN DRIVE","bldgnbr":"14380","predir":"N/A","streetname":"TERRAPIN","streettype":"DRIVE","suffdir":"N/A","city":"CAPRON","state_code":"VA","zip5":"23829","latitude":"36.7163480000000000","longitude":"-77.258513000000000","publicwifi":"U","url":"N/A","broadband_type_id":6}
{"id":null,"anchorname":"SACRED HEART HOSPICE","address":"2025 Chicago Ave","bldgnbr":"2025","predir":null,"streetname":"Chicago Ave","streettype":null,"suffdir":null,"city":"Riverside","state_code":"CA","zip5":"92507","latitude":"33.9928910000000000","longitude":"-117.34963300000000","publicwifi":"U","url":null,"broadband_type_id":3}
{"id":null,"anchorname":"Family Service Association (3847 Terracina Drive)","address":"3847 Terracina Drive","bldgnbr":"3847","predir":null,"streetname":"Terracina Drive","streettype":null,"suffdir":null,"city":"Riverside","state_code":"CA","zip5":"92506","latitude":"33.9726920000000000","longitude":"-117.38458100000000","publicwifi":"U","url":null,"broadband_type_id":1}
{"id":null,"anchorname":"Hawarden Hills Academy","address":"6696 Via Vista Drive","bldgnbr":"6696","predir":null,"streetname":"Via Vista","streettype":null,"suffdir":null,"city":"Riverside","state_code":"CA","zip5":"92506","latitude":"33.9293476400000000","longitude":"-117.34789449000000","publicwifi":"U","url":null,"broadband_type_id":6}
{"id":null,"anchorname":"REACH Leadership Academy","address":"5320 Victoria Avenue","bldgnbr":"5320","predir":null,"streetname":"Victoria Avenue","streettype":null,"suffdir":null,"city":"Riverside","state_code":"CA","zip5":"92503","latitude":"33.9547530000000000","longitude":"-117.37000000000000","publicwifi":"U","url":"www.reachleadershipacademy.org","broadband_type_id":6}
{"id":null,"anchorname":"All Saints' Carden Academy","address":"3847 Terracina Drive","bldgnbr":"3847","predir":null,"streetname":"Terracina Drive","streettype":null,"suffdir":null,"city":"Riverside","state_code":"CA","zip5":"92506","latitude":"33.9726921970000000","longitude":"-117.38458032200000","publicwifi":"U","url":null,"broadband_type_id":6}
{"id":null,"anchorname":"Riverside County Opportunity","address":"3939 13th Street","bldgnbr":"3939","predir":null,"streetname":"13th Street","streettype":null,"suffdir":null,"city":"Riverside","state_code":"CA","zip5":"92502","latitude":"33.9784940000000000","longitude":"-117.38054000000000","publicwifi":"U","url":"www.rcoe.us","broadband_type_id":1}
{"id":null,"anchorname":"Come Back Kids","address":"3939 13th Street","bldgnbr":"3939","predir":null,"streetname":"13th Street","streettype":null,"suffdir":null,"city":"Riverside, CA 92501","state_code":"CA","zip5":"92501","latitude":"33.9789350000000000","longitude":"-117.38046000000000","publicwifi":"U","url":"www.rcoe.us","broadband_type_id":null}
{"id":null,"anchorname":"Riverside Virtual","address":"4011 Fourteenth Street","bldgnbr":"4011","predir":null,"streetname":"Fourteenth Street","streettype":null,"suffdir":null,"city":"Riverside","state_code":"CA","zip5":"92506","latitude":"33.9774430000000000","longitude":"-117.38103000000000","publicwifi":"U","url":"www.rusd.k12.ca.us","broadband_type_id":null}
{"id":null,"anchorname":"Riverside County Community","address":"3939 13th Street","bldgnbr":"3939","predir":null,"streetname":"13th Street","streettype":null,"suffdir":null,"city":"Riverside","state_code":"CA","zip5":"92501","latitude":"33.9784940000000000","longitude":"-117.38054000000000","publicwifi":"U","url":"www.rcoe.us","broadband_type_id":1}
{"id":null,"anchorname":"Starting Gate Educational Services","address":"4011 14th Street","bldgnbr":"4011","predir":null,"streetname":"14th Street","streettype":null,"suffdir":null,"city":"Riverside","state_code":"CA","zip5":"92501","latitude":"33.9778522170000000","longitude":"-117.38209119000000","publicwifi":"U","url":null,"broadband_type_id":6}
{"id":null,"anchorname":"Bright Path Children's Center(3583 Market St.)","address":"3583 Market Street","bldgnbr":"3583","predir":null,"streetname":"Market Street","streettype":null,"suffdir":null,"city":"Riverside","state_code":"CA","zip5":"92507","latitude":"33.9849910000000000","longitude":"-117.37454800000000","publicwifi":"U","url":null,"broadband_type_id":null}
{"id":null,"anchorname":"Path of Life Ministries","address":"4495 Magnolia Avenue","bldgnbr":"4495","predir":null,"streetname":"Magnolia Avenue","streettype":null,"suffdir":null,"city":"Riverside","state_code":"CA","zip5":"92501","latitude":"33.9755860000000000","longitude":"-117.38250800000000","publicwifi":"U","url":null,"broadband_type_id":6}
{"id":null,"anchorname":"Emerson Elementary","address":"4660 Ottawa Avenue","bldgnbr":"4660","predir":null,"streetname":"Ottawa Avenue","streettype":null,"suffdir":null,"city":"Riverside","state_code":"CA","zip5":"92507","latitude":"33.9658730000000000","longitude":"-117.35281000000000","publicwifi":"U","url":null,"broadband_type_id":6}
{"id":null,"anchorname":"Abraham Lincoln Continuation","address":"4341 Victoria Avenue","bldgnbr":"4341","predir":null,"streetname":"Victoria Avenue","streettype":null,"suffdir":null,"city":"Riverside","state_code":"CA","zip5":"92507","latitude":"33.9711350000000000","longitude":"-117.36598000000000","publicwifi":"U","url":null,"broadband_type_id":null}
{"id":null,"anchorname":"Longfellow Elementary","address":"3610 Eucalyptus Avenue","bldgnbr":"3610","predir":null,"streetname":"Eucalyptus Avenue","streettype":null,"suffdir":null,"city":"Riverside","state_code":"CA","zip5":"92507","latitude":"33.9784390000000000","longitude":"-117.35961000000000","publicwifi":"U","url":null,"broadband_type_id":6}
{"id":null,"anchorname":"Polytechnic High","address":"5450 Victoria Avenue","bldgnbr":"5450","predir":null,"streetname":"Victoria Avenue","streettype":null,"suffdir":null,"city":"Riverside","state_code":"CA","zip5":"92506","latitude":"33.9526390000000000","longitude":"-117.37019000000000","publicwifi":"U","url":null,"broadband_type_id":6}
{"id":null,"anchorname":"Alcott Elementary","address":"2433 Central Avenue","bldgnbr":"2433","predir":null,"streetname":"Central Avenue","streettype":null,"suffdir":null,"city":"Riverside","state_code":"CA","zip5":"92506","latitude":"33.9538600000000000","longitude":"-117.36463000000000","publicwifi":"U","url":null,"broadband_type_id":6}
{"id":null,"anchorname":"Center Point, Inc.","address":"2023 Chicago Av.","bldgnbr":"2023","predir":null,"streetname":"Chicago Av.","streettype":null,"suffdir":null,"city":"Riverside","state_code":"CA","zip5":"92507","latitude":"33.9931570000000000","longitude":"-117.34852100000000","publicwifi":"U","url":null,"broadband_type_id":null}
{"id":null,"anchorname":"Central Middle","address":"4795 Magnolia Avenue","bldgnbr":"4795","predir":null,"streetname":"Magnolia Avenue","streettype":null,"suffdir":null,"city":"Riverside","state_code":"CA","zip5":"92506","latitude":"33.9719320000000000","longitude":"-117.38457000000000","publicwifi":"U","url":null,"broadband_type_id":6}
{"id":null,"anchorname":"Magnolia Elementary","address":"3975 Maplewood Place","bldgnbr":"3975","predir":null,"streetname":"Maplewood Place","streettype":null,"suffdir":null,"city":"Riverside","state_code":"CA","zip5":"92506","latitude":"33.9621660000000000","longitude":"-117.39266000000000","publicwifi":"U","url":null,"broadband_type_id":6}
{"id":null,"anchorname":"St. Francis de Sales School","address":"4205 Mulberry Street","bldgnbr":"4205","predir":null,"streetname":"Mulberry Street","streettype":null,"suffdir":null,"city":"Riverside","state_code":"CA","zip5":"92501","latitude":"33.9758605240000000","longitude":"-117.37241950100000","publicwifi":"U","url":null,"broadband_type_id":6}
{"id":null,"anchorname":"Riverside City College","address":"4800 Magnolia Avenue","bldgnbr":"4800","predir":null,"streetname":"Magnolia Avenue","streettype":null,"suffdir":null,"city":"Riverside","state_code":"CA","zip5":"92506","latitude":"33.9714810000000000","longitude":"-117.38054000000000","publicwifi":"U","url":"www.rcc.edu/riverside/","broadband_type_id":6}
{"id":null,"anchorname":"PROMESA HOME CARE, INC.","address":"4053 Chestnut St","bldgnbr":"4053","predir":null,"streetname":"Chestnut St","streettype":null,"suffdir":null,"city":"Riverside","state_code":"CA","zip5":"92501","latitude":"33.9811370000000000","longitude":"-117.37972500000000","publicwifi":"U","url":null,"broadband_type_id":3}
{"id":null,"anchorname":"Preschool Grasp","address":"3939 13th Street","bldgnbr":"3939","predir":null,"streetname":"13th Street","streettype":null,"suffdir":null,"city":"Riverside","state_code":"CA","zip5":"92502","latitude":"33.9789350000000000","longitude":"-117.38046000000000","publicwifi":"U","url":"www.rcoe.us","broadband_type_id":6}
{"id":null,"anchorname":"RIVERSIDE COMMUNITY HOSPITAL","address":"4445 Magnolia Ave","bldgnbr":"4445","predir":null,"streetname":"Magnolia Ave","streettype":null,"suffdir":null,"city":"Riverside","state_code":"CA","zip5":"92501","latitude":"33.9764100000000000","longitude":"-117.37997000000000","publicwifi":"U","url":null,"broadband_type_id":3}
{"id":null,"anchorname":"Kaplan College-Riverside","address":"4040  Vine Street","bldgnbr":"4040","predir":null,"streetname":"Vine Street","streettype":null,"suffdir":null,"city":"Riverside","state_code":"CA","zip5":"92507","latitude":"33.9768950000000000","longitude":"-117.36977700000000","publicwifi":"U","url":"www.kaplancollege.com/riverside-ca/","broadband_type_id":6}
{"id":null,"anchorname":"University Community Health Center (2933 University Ave.)","address":"2933 University Avenue","bldgnbr":"2933","predir":null,"streetname":"University Avenue","streettype":null,"suffdir":null,"city":"Riverside","state_code":"CA","zip5":"92507","latitude":"33.9776730000000000","longitude":"-117.36540200000000","publicwifi":"U","url":null,"broadband_type_id":3}
{"id":null,"anchorname":"EASTSIDE LIBRARY \u0026 CYBRARY","address":"4033 CHICAGO ST. SUITE C","bldgnbr":"4033","predir":null,"streetname":"CHICAGO ST.","streettype":null,"suffdir":null,"city":"RIVERSIDE","state_code":"CA","zip5":"92507","latitude":"33.9733990000000000","longitude":"-117.34860600000000","publicwifi":"U","url":null,"broadband_type_id":6}
{"id":null,"anchorname":"EASTSIDE HEALTH CENTER","address":"1970 University Ave","bldgnbr":"1970","predir":null,"streetname":"University Ave","streettype":null,"suffdir":null,"city":"Riverside","state_code":"CA","zip5":"92507","latitude":"33.9755300000000000","longitude":"-117.35438000000000","publicwifi":"U","url":null,"broadband_type_id":3}
{"id":null,"anchorname":"Inland Emire Latino Lawyers Assn - Legal Aid Clinic","address":"2060 University Av","bldgnbr":"2060","predir":null,"streetname":"University Av","streettype":null,"suffdir":null,"city":"Riverside","state_code":"CA","zip5":"92507","latitude":"33.9755980000000000","longitude":"-117.35646500000000","publicwifi":"U","url":null,"broadband_type_id":3}
{"id":null,"anchorname":"OPTIMA HOME HEALTH SERVICES","address":"2025 Chicago Ave","bldgnbr":"2025","predir":null,"streetname":"Chicago Ave","streettype":null,"suffdir":null,"city":"Riverside","state_code":"CA","zip5":"92507","latitude":"33.9926310000000000","longitude":"-117.34855400000000","publicwifi":"U","url":null,"broadband_type_id":3}
