{"id":null,"anchorname":"BISHOP DENIS J. OCONNELL SCHOOL","address":"6600 LITTLE FALLS ROAD","bldgnbr":"6600","predir":"N/A","streetname":"LITTLE FALLS","streettype":"ROAD","suffdir":"N/A","city":"ARLINGTON","state_code":"VA","zip5":"22213","latitude":"38.8948370000000000","longitude":"-77.161351000000000","publicwifi":"U","url":"N/A","broadband_type_id":6}
{"id":null,"anchorname":"CHILDRENS HOUSE MONTESSORI SCHOOL","address":"2425A NORTH GLEBE ROAD","bldgnbr":"2425A","predir":"NORTH","streetname":"GLEBE","streettype":"ROAD","suffdir":"N/A","city":"ARLINGTON","state_code":"VA","zip5":"22207","latitude":"38.9008480000000000","longitude":"-77.126242000000000","publicwifi":"U","url":"N/A","broadband_type_id":6}
{"id":null,"anchorname":"MARYMOUNT UNIVERSITY","address":"2807 NORTH GLEBE ROAD","bldgnbr":"2807","predir":"NORTH","streetname":"GLEBE","streettype":"ROAD","suffdir":"N/A","city":"ARLINGTON","state_code":"VA","zip5":"22207","latitude":"38.9059104890000000","longitude":"-77.128898001000000","publicwifi":"U","url":"N/A","broadband_type_id":6}
{"id":null,"anchorname":"CHERRYDALE HEALTH CARE CENTER","address":"3710 LEE HIGHWAY","bldgnbr":"3710","predir":"N/A","streetname":"LEE","streettype":"HIGHWAY","suffdir":"N/A","city":"ARLINGTON","state_code":"VA","zip5":"22207","latitude":"38.8962567400000000","longitude":"-77.105437418000000","publicwifi":"U","url":"N/A","broadband_type_id":3}
{"id":null,"anchorname":"WILLIAMSBURG MIDDLE","address":"3600 NORTH HARRISON STREET","bldgnbr":"3600","predir":"NORTH","streetname":"HARRISON","streettype":"STREET","suffdir":"N/A","city":"ARLINGTON","state_code":"VA","zip5":"22207","latitude":"38.9097116650000000","longitude":"-77.146369362000000","publicwifi":"U","url":"N/A","broadband_type_id":6}
{"id":null,"anchorname":"YORKTOWN HIGH","address":"5201 TWENTY-EIGHTH STREET NORTH","bldgnbr":"5201","predir":"N/A","streetname":"TWENTY-EIGHTH","streettype":"STREET","suffdir":"N/A","city":"ARLINGTON","state_code":"VA","zip5":"22207","latitude":"38.9025553060000000","longitude":"-77.139440698000000","publicwifi":"U","url":"N/A","broadband_type_id":6}
{"id":null,"anchorname":"JAMESTOWN ELEMENTARY","address":"3700 NORTH DELAWARE STREET","bldgnbr":"3700","predir":"NORTH","streetname":"DELAWARE","streettype":"STREET","suffdir":"N/A","city":"ARLINGTON","state_code":"VA","zip5":"22207","latitude":"38.9172156090000000","longitude":"-77.139440802000000","publicwifi":"U","url":"N/A","broadband_type_id":6}
{"id":null,"anchorname":"STRATFORD PROGRAM","address":"4102 NORTH VACATION LANE","bldgnbr":"4102","predir":"NORTH","streetname":"VACATION","streettype":"LANE","suffdir":"N/A","city":"ARLINGTON","state_code":"VA","zip5":"22207","latitude":"38.8997004400000000","longitude":"-77.112402035000000","publicwifi":"U","url":"N/A","broadband_type_id":null}
{"id":null,"anchorname":"H.B. WOODLAWN SECONDARY PROGRAM","address":"4100 VACATION LANE","bldgnbr":"4100","predir":"N/A","streetname":"VACATION","streettype":"LANE","suffdir":"N/A","city":"ARLINGTON","state_code":"VA","zip5":"22207","latitude":"38.9004930830000000","longitude":"-77.111209835000000","publicwifi":"U","url":"N/A","broadband_type_id":null}
{"id":null,"anchorname":"MILL ROAD-PRIMARY GRADES","address":"9 MILL RD","bldgnbr":"9","predir":null,"streetname":"Mill","streettype":"Road","suffdir":null,"city":"RED HOOK","state_code":"NY","zip5":"12571","latitude":"42.0185385580000000","longitude":"-73.869932890000000","publicwifi":"U","url":null,"broadband_type_id":6}
{"id":null,"anchorname":"DEPARTMENT OF ALCOHOLIC BEVERAGE CONTROL","address":"4709B LEE HIGHWAY","bldgnbr":"4709B","predir":"N/A","streetname":"LEE","streettype":"HIGHWAY","suffdir":"N/A","city":"ARLINGTON","state_code":"VA","zip5":"22207","latitude":"38.8984020000000000","longitude":"-77.122448000000000","publicwifi":"U","url":"N/A","broadband_type_id":null}
{"id":null,"anchorname":"SWANSON MIDDLE","address":"5800 NORTH WASHINGTON BOULEVARD","bldgnbr":"5800","predir":"NORTH","streetname":"WASHINGTON","streettype":"BOULEVARD","suffdir":"N/A","city":"ARLINGTON","state_code":"VA","zip5":"22205","latitude":"38.8831755320000000","longitude":"-77.138877790000000","publicwifi":"U","url":"N/A","broadband_type_id":6}
{"id":null,"anchorname":"BARRETT ELEMENTARY","address":"4401 NORTH HENDERSON ROAD","bldgnbr":"4401","predir":"NORTH","streetname":"HENDERSON","streettype":"ROAD","suffdir":"N/A","city":"ARLINGTON","state_code":"VA","zip5":"22203","latitude":"38.8728133490000000","longitude":"-77.112014658000000","publicwifi":"U","url":"N/A","broadband_type_id":6}
{"id":null,"anchorname":"ARLINGTON MILL HIGH","address":"4600 NORTH FAIRFAX DRIVE","bldgnbr":"4600","predir":"NORTH","streetname":"FAIRFAX","streettype":"DRIVE","suffdir":"N/A","city":"ARLINGTON","state_code":"VA","zip5":"22203","latitude":"38.8810771280000000","longitude":"-77.117115385000000","publicwifi":"U","url":"N/A","broadband_type_id":6}
{"id":null,"anchorname":"WASHINGTON-LEE HIGH","address":"1301 NORTH STAFFORD STREET","bldgnbr":"1301","predir":"NORTH","streetname":"STAFFORD","streettype":"STREET","suffdir":"N/A","city":"ARLINGTON","state_code":"VA","zip5":"22201","latitude":"38.8874934890000000","longitude":"-77.110718686000000","publicwifi":"U","url":"N/A","broadband_type_id":6}
{"id":null,"anchorname":"ALTERNATIVE EDUCATION PROGRAM FEEDING SITE","address":"1426 NORTH QUINCY STREET","bldgnbr":"1426","predir":"NORTH","streetname":"QUINCY","streettype":"STREET","suffdir":"N/A","city":"ARLINGTON","state_code":"VA","zip5":"22207","latitude":"38.8886265730000000","longitude":"-77.108983535000000","publicwifi":"U","url":"N/A","broadband_type_id":6}
{"id":null,"anchorname":"DEPARTMENT OF CORRECTIONS - CENTRAL ADMINISTRATION","address":"3300 NORTH FAIRFAX DRIVE","bldgnbr":"3300","predir":"NORTH","streetname":"FAIRFAX","streettype":"DRIVE","suffdir":"N/A","city":"ARLINGTON","state_code":"VA","zip5":"22201","latitude":"38.8844440000000000","longitude":"-77.099857000000000","publicwifi":"U","url":"N/A","broadband_type_id":6}
{"id":null,"anchorname":"ARLINGTON TRADITIONAL","address":"855 NORTH EDISON STREET","bldgnbr":"855","predir":"NORTH","streetname":"EDISON","streettype":"STREET","suffdir":"N/A","city":"ARLINGTON","state_code":"VA","zip5":"22205","latitude":"38.8799289550000000","longitude":"-77.122063087000000","publicwifi":"U","url":"N/A","broadband_type_id":null}
{"id":null,"anchorname":"FRANCIS SCOTT KEY ELEMENTARY","address":"2300 KEY BOULEVARD","bldgnbr":"2300","predir":"N/A","streetname":"KEY","streettype":"BOULEVARD","suffdir":"N/A","city":"ARLINGTON","state_code":"VA","zip5":"22201","latitude":"38.8923925920000000","longitude":"-77.086871534000000","publicwifi":"U","url":"N/A","broadband_type_id":6}
{"id":null,"anchorname":"DEPARTMENT OF SOCIAL SERVICES","address":"3033 WILSON BOULEVARD","bldgnbr":"3033","predir":"N/A","streetname":"WILSON","streettype":"BOULEVARD","suffdir":"N/A","city":"ARLINGTON","state_code":"VA","zip5":"22201","latitude":"38.8880330000000000","longitude":"-77.094652000000000","publicwifi":"U","url":"N/A","broadband_type_id":6}
{"id":null,"anchorname":"VIRGINIA TECH - NORTHERN VIRGINIA","address":"900 NORTH GLEBE ROAD","bldgnbr":"900","predir":"NORTH","streetname":"GLEBE","streettype":"ROAD","suffdir":"N/A","city":"ARLINGTON","state_code":"VA","zip5":"22203","latitude":"38.8807631890000000","longitude":"-77.115652235000000","publicwifi":"U","url":"N/A","broadband_type_id":null}
{"id":null,"anchorname":"GRAHAM WEBB INTERNATIONAL ACADEMY OF HAIR","address":"1621 NORTH KENT STREET","bldgnbr":"1621","predir":"NORTH","streetname":"KENT","streettype":"STREET","suffdir":"N/A","city":"ARLINGTON","state_code":"VA","zip5":"22209","latitude":"38.8958779580000000","longitude":"-77.069093702000000","publicwifi":"U","url":"N/A","broadband_type_id":6}
{"id":null,"anchorname":"DEPARTMENT OF ALCOHOLIC BEVERAGE CONTROL","address":"881 NORTH QUINCY STREET","bldgnbr":"881","predir":"NORTH","streetname":"QUINCY","streettype":"STREET","suffdir":"N/A","city":"ARLINGTON","state_code":"VA","zip5":"22203","latitude":"38.8808600000000000","longitude":"-77.107447000000000","publicwifi":"U","url":"N/A","broadband_type_id":null}
{"id":null,"anchorname":"DEPARTMENT OF ALCOHOLIC BEVERAGE CONTROL","address":"1731 WILSON BOULEVARD","bldgnbr":"1731","predir":"N/A","streetname":"WILSON","streettype":"BOULEVARD","suffdir":"N/A","city":"ARLINGTON","state_code":"VA","zip5":"22209","latitude":"38.8941340000000000","longitude":"-77.079050000000000","publicwifi":"U","url":"N/A","broadband_type_id":null}
{"id":null,"anchorname":"SAINT AGNES SCHOOL","address":"2024 NORTH RANDOLPH STREET","bldgnbr":"2024","predir":"NORTH","streetname":"RANDOLPH","streettype":"STREET","suffdir":"N/A","city":"ARLINGTON","state_code":"VA","zip5":"22207","latitude":"38.8957030000000000","longitude":"-77.110671000000000","publicwifi":"U","url":"N/A","broadband_type_id":6}
{"id":null,"anchorname":"LANGSTON HIGH SCHOOL CONTINUATION PROGRAM","address":"2121 NORTH CULPEPER STREET","bldgnbr":"2121","predir":"NORTH","streetname":"CULPEPER","streettype":"STREET","suffdir":"N/A","city":"ARLINGTON","state_code":"VA","zip5":"22207","latitude":"38.8957743240000000","longitude":"-77.126559761000000","publicwifi":"U","url":"N/A","broadband_type_id":6}
{"id":null,"anchorname":"VIRGINIA HOSPITAL CENTER","address":"1701 NORTH GEORGE MASON DRIVE","bldgnbr":"1701","predir":"NORTH","streetname":"GEORGE MASON","streettype":"DRIVE","suffdir":"N/A","city":"ARLINGTON","state_code":"VA","zip5":"22205","latitude":"38.8888817930000000","longitude":"-77.127277656000000","publicwifi":"U","url":"N/A","broadband_type_id":3}
{"id":null,"anchorname":"SAINT ANN SCHOOL","address":"980 NORTH FREDERICK STREET","bldgnbr":"980","predir":"NORTH","streetname":"FREDERICK","streettype":"STREET","suffdir":"N/A","city":"ARLINGTON","state_code":"VA","zip5":"22205","latitude":"38.8805860000000000","longitude":"-77.126403000000000","publicwifi":"U","url":"N/A","broadband_type_id":6}
{"id":null,"anchorname":"WESTOVER BRANCH LIBRARY","address":"1800 NORTH LEXINGTON STREET","bldgnbr":"1800","predir":"NORTH","streetname":"LEXINGTON","streettype":"STREET","suffdir":"N/A","city":"ARLINGTON","state_code":"VA","zip5":"22205","latitude":"38.8872000000000000","longitude":"-77.139650000000000","publicwifi":"U","url":"N/A","broadband_type_id":6}
{"id":null,"anchorname":"NORTHERN VIRGINIA COMMUNITY COLLEGE - ARLINGTON","address":"4600 NORTH FAIRFAX DRIVE","bldgnbr":"4600","predir":"NORTH","streetname":"FAIRFAX","streettype":"DRIVE","suffdir":"N/A","city":"ARLINGTON","state_code":"VA","zip5":"22203","latitude":"38.8810771280000000","longitude":"-77.117115385000000","publicwifi":"U","url":"N/A","broadband_type_id":6}
{"id":null,"anchorname":"GEORGE WASHINGTON UNIVERSITY GRADUATE EDUCATION CENTER - ARLINGTON","address":"950 NORTH GLEBE STREET","bldgnbr":"950","predir":"NORTH","streetname":"GLEBE","streettype":"STREET","suffdir":"N/A","city":"ARLINGTON","state_code":"VA","zip5":"22203","latitude":"38.8814270600000000","longitude":"-77.116317484000000","publicwifi":"U","url":"N/A","broadband_type_id":6}
{"id":null,"anchorname":"MARYMOUNT COLLEGE OF VIRGINIA - BUSINESS SCHOOL","address":"1000 NORTH GLEBE ROAD","bldgnbr":"1000","predir":"NORTH","streetname":"GLEBE","streettype":"ROAD","suffdir":"N/A","city":"ARLINGTON","state_code":"VA","zip5":"22201","latitude":"38.8824871890000000","longitude":"-77.116414270000000","publicwifi":"U","url":"N/A","broadband_type_id":6}
{"id":null,"anchorname":"JEFFERSON NURSING HOME","address":"900 NORTH TAYLOR STREET","bldgnbr":"900","predir":"NORTH","streetname":"TAYLOR","streettype":"STREET","suffdir":"N/A","city":"ARLINGTON","state_code":"VA","zip5":"22203","latitude":"38.8810898650000000","longitude":"-77.112576257000000","publicwifi":"U","url":"N/A","broadband_type_id":3}
{"id":null,"anchorname":"WESTWOOD COLLEGE - ARLINGTON BALLSTON","address":"4300 WILSON BOULEVARD","bldgnbr":"4300","predir":"N/A","streetname":"WILSON","streettype":"BOULEVARD","suffdir":"N/A","city":"ARLINGTON","state_code":"VA","zip5":"22203","latitude":"38.8798544320000000","longitude":"-77.112612602000000","publicwifi":"U","url":"N/A","broadband_type_id":6}
{"id":null,"anchorname":"ARLINGTON CENTRAL LIBRARY","address":"1015 NORTH QUINCY STREET","bldgnbr":"1015","predir":"NORTH","streetname":"QUINCY","streettype":"STREET","suffdir":"N/A","city":"ARLINGTON","state_code":"VA","zip5":"22201","latitude":"38.8832900000000000","longitude":"-77.107670000000000","publicwifi":"U","url":"N/A","broadband_type_id":6}
{"id":null,"anchorname":"EVEREST COLLEGE - ARLINGTON","address":"801 NORTH QUINCY STREET","bldgnbr":"801","predir":"NORTH","streetname":"QUINCY","streettype":"STREET","suffdir":"N/A","city":"ARLINGTON","state_code":"VA","zip5":"22203","latitude":"38.8801280790000000","longitude":"-77.107306887000000","publicwifi":"U","url":"N/A","broadband_type_id":6}
{"id":null,"anchorname":"ARLINGTON COUNTY FAMILY AND SCHOOL HEALTH","address":"3033 WILSON BOULEVARD","bldgnbr":"3033","predir":"N/A","streetname":"WILSON","streettype":"BOULEVARD","suffdir":"N/A","city":"ARLINGTON","state_code":"VA","zip5":"22201","latitude":"38.8880330000000000","longitude":"-77.094652000000000","publicwifi":"U","url":"N/A","broadband_type_id":3}
{"id":null,"anchorname":"NEW DIRECTIONS ALTERNATIVE HIGH SCHOOL PROGRAM","address":"2847 WILSON BOULEVARD","bldgnbr":"2847","predir":"N/A","streetname":"WILSON","streettype":"BOULEVARD","suffdir":"N/A","city":"ARLINGTON","state_code":"VA","zip5":"22201","latitude":"38.8890723370000000","longitude":"-77.092848322000000","publicwifi":"U","url":"N/A","broadband_type_id":6}
{"id":null,"anchorname":"SAINT CHARLES SCHOOL","address":"3299 NORTH FAIRFAX DRIVE","bldgnbr":"3299","predir":"NORTH","streetname":"FAIRFAX","streettype":"DRIVE","suffdir":"N/A","city":"ARLINGTON","state_code":"VA","zip5":"22201","latitude":"38.8852810000000000","longitude":"-77.099475000000000","publicwifi":"U","url":"N/A","broadband_type_id":6}
{"id":null,"anchorname":"ARLINGTON SCIENCE FOCUS SCHOOL","address":"1501 NORTH LINCOLN STREET","bldgnbr":"1501","predir":"NORTH","streetname":"LINCOLN","streettype":"STREET","suffdir":"N/A","city":"ARLINGTON","state_code":"VA","zip5":"22201","latitude":"38.8900865360000000","longitude":"-77.102757723000000","publicwifi":"U","url":"N/A","broadband_type_id":6}
{"id":null,"anchorname":"GEORGE MASON UNIVERSITY - ARLINGTON","address":"3301 FAIRFAX DRIVE","bldgnbr":"3301","predir":"N/A","streetname":"FAIRFAX","streettype":"DRIVE","suffdir":"N/A","city":"ARLINGTON","state_code":"VA","zip5":"22201","latitude":"38.8851064970000000","longitude":"-77.100239900000000","publicwifi":"U","url":"N/A","broadband_type_id":6}
{"id":null,"anchorname":"ART INSTITUTE OF WASHINGTON - ARLINGTON","address":"1820 NORTH FORT MYER DRIVE","bldgnbr":"1820","predir":"NORTH","streetname":"FORT MYER","streettype":"DRIVE","suffdir":"N/A","city":"ARLINGTON","state_code":"VA","zip5":"22209","latitude":"38.8958512910000000","longitude":"-77.072637070000000","publicwifi":"U","url":"N/A","broadband_type_id":null}
{"id":null,"anchorname":"MILL ROAD-INTERMEDIATE GRADES","address":"9 MILL RD","bldgnbr":"9","predir":null,"streetname":"Mill","streettype":"Road","suffdir":null,"city":"RED HOOK","state_code":"NY","zip5":"12571","latitude":"42.0185385580000000","longitude":"-73.869932890000000","publicwifi":"U","url":null,"broadband_type_id":6}
{"id":null,"anchorname":"INDIGENT DEFENSE COMMISSION","address":"2300 CLARENDON BOULEVARD","bldgnbr":"2300","predir":"N/A","streetname":"CLARENDON","streettype":"BOULEVARD","suffdir":"N/A","city":"ARLINGTON","state_code":"VA","zip5":"22201","latitude":"38.8900260000000000","longitude":"-77.086673000000000","publicwifi":"U","url":"N/A","broadband_type_id":6}
{"id":null,"anchorname":"DIOCESE OF ARLINGTON","address":"200 NORTH GLEBE ROAD","bldgnbr":"200","predir":"NORTH","streetname":"GLEBE","streettype":"ROAD","suffdir":"N/A","city":"ARLINGTON","state_code":"VA","zip5":"22203","latitude":"38.8721360990000000","longitude":"-77.103637709000000","publicwifi":"U","url":"N/A","broadband_type_id":6}
{"id":null,"anchorname":"CARLIN SPRINGS ELEMENTARY","address":"5995 SOUTH FIFTH ROAD","bldgnbr":"5995","predir":"SOUTH","streetname":"FIFTH","streettype":"ROAD","suffdir":"N/A","city":"ARLINGTON","state_code":"VA","zip5":"22204","latitude":"38.8627055940000000","longitude":"-77.131892409000000","publicwifi":"U","url":"N/A","broadband_type_id":6}
{"id":null,"anchorname":"DEPARTMENT OF SOCIAL SERVICES","address":"2100 WASHINGTON BOULEVARD","bldgnbr":"2100","predir":"N/A","streetname":"WASHINGTON","streettype":"BOULEVARD","suffdir":"N/A","city":"ARLINGTON","state_code":"VA","zip5":"22204","latitude":"38.8734400000000000","longitude":"-77.083146000000000","publicwifi":"U","url":"N/A","broadband_type_id":6}
{"id":null,"anchorname":"JEFFERSON MIDDLE","address":"125 SOUTH OLD GLEBE ROAD","bldgnbr":"125","predir":"SOUTH","streetname":"OLD GLEBE","streettype":"ROAD","suffdir":"N/A","city":"ARLINGTON","state_code":"VA","zip5":"22204","latitude":"38.8698969450000000","longitude":"-77.096765707000000","publicwifi":"U","url":"N/A","broadband_type_id":6}
{"id":null,"anchorname":"HENRY ELEMENTARY","address":"701 SOUTH HIGHLAND STREET","bldgnbr":"701","predir":"SOUTH","streetname":"HIGHLAND","streettype":"STREET","suffdir":"N/A","city":"ARLINGTON","state_code":"VA","zip5":"22204","latitude":"38.8657863680000000","longitude":"-77.088824252000000","publicwifi":"U","url":"N/A","broadband_type_id":6}
{"id":null,"anchorname":"ARGUS HOUSE","address":"1527 CLARENDON BOULEVARD","bldgnbr":"1527","predir":"N/A","streetname":"CLARENDON","streettype":"BOULEVARD","suffdir":"N/A","city":"ARLINGTON","state_code":"VA","zip5":"22209","latitude":"38.8938955630000000","longitude":"-77.075056115000000","publicwifi":"U","url":"N/A","broadband_type_id":null}
{"id":null,"anchorname":"DEPARTMENT OF ALCOHOLIC BEVERAGE CONTROL","address":"1001 NORTH FILLMORE STREET","bldgnbr":"1001","predir":"NORTH","streetname":"FILLMORE","streettype":"STREET","suffdir":"N/A","city":"ARLINGTON","state_code":"VA","zip5":"22201","latitude":"38.8847830000000000","longitude":"-77.092620000000000","publicwifi":"U","url":"N/A","broadband_type_id":null}
{"id":null,"anchorname":"RANDOLPH ELEMENTARY","address":"1306 SOUTH QUINCY STREET","bldgnbr":"1306","predir":"SOUTH","streetname":"QUINCY","streettype":"STREET","suffdir":"N/A","city":"ARLINGTON","state_code":"VA","zip5":"22204","latitude":"38.8565642110000000","longitude":"-77.098064829000000","publicwifi":"U","url":"N/A","broadband_type_id":6}
{"id":null,"anchorname":"WAKEFIELD HIGH","address":"4901 SOUTH CHESTERFIELD ROAD","bldgnbr":"4901","predir":"SOUTH","streetname":"CHESTERFIELD","streettype":"ROAD","suffdir":"N/A","city":"ARLINGTON","state_code":"VA","zip5":"22206","latitude":"38.8467041560000000","longitude":"-77.109090487000000","publicwifi":"U","url":"N/A","broadband_type_id":6}
{"id":null,"anchorname":"DEPARTMENT OF JUVENILE JUSTICE","address":"2100 CLARENDON BOULEVARD","bldgnbr":"2100","predir":"N/A","streetname":"CLARENDON","streettype":"BOULEVARD","suffdir":"N/A","city":"ARLINGTON","state_code":"VA","zip5":"22201","latitude":"38.8904800000000000","longitude":"-77.085341000000000","publicwifi":"U","url":"N/A","broadband_type_id":null}
{"id":null,"anchorname":"DEPARTMENT OF MOTOR VEHICLES","address":"4150 SOUTH FOUR MILE RUN ROAD","bldgnbr":"4150","predir":"SOUTH","streetname":"FOUR MILE RUN","streettype":"ROAD","suffdir":"N/A","city":"ARLINGTON","state_code":"VA","zip5":"22206","latitude":"38.8480940000000000","longitude":"-77.099733000000000","publicwifi":"U","url":"N/A","broadband_type_id":6}
{"id":null,"anchorname":"BUCKINGHAM COMMUNITY OUTREACH CENTER","address":"4116 THIRD ROAD NORTH","bldgnbr":"4116","predir":"N/A","streetname":"THIRD","streettype":"ROAD","suffdir":"NORTH","city":"ARLINGTON","state_code":"VA","zip5":"22203","latitude":"38.8742800000000000","longitude":"-77.106510000000000","publicwifi":"U","url":"N/A","broadband_type_id":1}
{"id":null,"anchorname":"ARLINGTON MILL COMMUNITY OUTREACH CENTER","address":"4975 COLUMBIA PIKE","bldgnbr":"4975","predir":"N/A","streetname":"COLUMBIA","streettype":"PIKE","suffdir":"N/A","city":"ARLINGTON","state_code":"VA","zip5":"22204","latitude":"38.8561100000000000","longitude":"-77.112030000000000","publicwifi":"U","url":"N/A","broadband_type_id":1}
{"id":null,"anchorname":"CLAREMONT IMMERSION","address":"4700 SOUTH CHESTERFIELD ROAD","bldgnbr":"4700","predir":"SOUTH","streetname":"CHESTERFIELD","streettype":"ROAD","suffdir":"N/A","city":"ARLINGTON","state_code":"VA","zip5":"22206","latitude":"38.8477287970000000","longitude":"-77.105881882000000","publicwifi":"U","url":"N/A","broadband_type_id":null}
{"id":null,"anchorname":"ACT COLLEGE","address":"1400 KEY BOULEVARD","bldgnbr":"1400","predir":"N/A","streetname":"KEY","streettype":"BOULEVARD","suffdir":"N/A","city":"ARLINGTON","state_code":"VA","zip5":"22209","latitude":"38.8961338220000000","longitude":"-77.073490656000000","publicwifi":"U","url":"N/A","broadband_type_id":6}
{"id":null,"anchorname":"DETENTION CENTER LIBRARY","address":"1425 NORTH COURTHOUSE ROAD","bldgnbr":"1425","predir":"NORTH","streetname":"COURTHOUSE","streettype":"ROAD","suffdir":"N/A","city":"ARLINGTON","state_code":"VA","zip5":"22201","latitude":"38.8899270890000000","longitude":"-77.083286892000000","publicwifi":"U","url":"N/A","broadband_type_id":6}
{"id":null,"anchorname":"ARLINGTON COUNTY SHERIFF'S OFFICE","address":"1425 NORTH COURTHOUSE ROAD","bldgnbr":"1425","predir":"NORTH","streetname":"COURTHOUSE","streettype":"ROAD","suffdir":"N/A","city":"ARLINGTON","state_code":"VA","zip5":"22201","latitude":"38.8899270890000000","longitude":"-77.083286892000000","publicwifi":"U","url":"N/A","broadband_type_id":4}
{"id":null,"anchorname":"ARLINGTON COUNTY SHERIFF'S OFFICE / DETENTION FACILITY","address":"1435 NORTH COURTHOUSE ROAD","bldgnbr":"1435","predir":"NORTH","streetname":"COURTHOUSE","streettype":"ROAD","suffdir":"N/A","city":"ARLINGTON","state_code":"VA","zip5":"22201","latitude":"38.8905753300000000","longitude":"-77.083357895000000","publicwifi":"U","url":"N/A","broadband_type_id":4}
{"id":null,"anchorname":"ARGOSY UNIVERSITY","address":"1550 WILSON BOULEVARD","bldgnbr":"1550","predir":"N/A","streetname":"WILSON","streettype":"BOULEVARD","suffdir":"N/A","city":"ARLINGTON","state_code":"VA","zip5":"22209","latitude":"38.8943212410000000","longitude":"-77.075910781000000","publicwifi":"U","url":"N/A","broadband_type_id":6}
{"id":null,"anchorname":"PLAZA LIBRARY","address":"2100 CLARENDON BOULEVARD","bldgnbr":"2100","predir":"N/A","streetname":"CLARENDON","streettype":"BOULEVARD","suffdir":"N/A","city":"ARLINGTON","state_code":"VA","zip5":"22201","latitude":"38.8904800000000000","longitude":"-77.085341000000000","publicwifi":"U","url":"N/A","broadband_type_id":6}
{"id":null,"anchorname":"ARLINGTON DEPARTMENT OF LIBRARIES","address":"2100 CLARENDON BOULEVARD","bldgnbr":"2100","predir":"N/A","streetname":"CLARENDON","streettype":"BOULEVARD","suffdir":"N/A","city":"ARLINGTON","state_code":"VA","zip5":"22201","latitude":"38.8904800000000000","longitude":"-77.085341000000000","publicwifi":"U","url":"N/A","broadband_type_id":6}
{"id":null,"anchorname":"SAINT THOMAS MORE CATHEDRAL SCHOOL","address":"105 NORTH THOMAS STREET","bldgnbr":"105","predir":"NORTH","streetname":"THOMAS","streettype":"STREET","suffdir":"N/A","city":"ARLINGTON","state_code":"VA","zip5":"22203","latitude":"38.8711220000000000","longitude":"-77.104409000000000","publicwifi":"U","url":"N/A","broadband_type_id":6}
{"id":null,"anchorname":"GLENCARLYN BRANCH LIBRARY","address":"300 SOUTH KENSINGTON STREET","bldgnbr":"300","predir":"SOUTH","streetname":"KENSINGTON","streettype":"STREET","suffdir":"N/A","city":"ARLINGTON","state_code":"VA","zip5":"22204","latitude":"38.8637000000000000","longitude":"-77.125630000000000","publicwifi":"U","url":"N/A","broadband_type_id":6}
{"id":null,"anchorname":"MANORCARE HEALTH SERVICES - ARLINGTON","address":"550 SOUTH CARLIN SPRINGS ROAD","bldgnbr":"550","predir":"SOUTH","streetname":"CARLIN SPRINGS","streettype":"ROAD","suffdir":"N/A","city":"ARLINGTON","state_code":"VA","zip5":"22204","latitude":"38.8548936630000000","longitude":"-77.123123396000000","publicwifi":"U","url":"N/A","broadband_type_id":3}
{"id":null,"anchorname":"OUR SAVIOR LUTHERAN SCHOOL","address":"825 SOUTH TAYLOR STREET","bldgnbr":"825","predir":"SOUTH","streetname":"TAYLOR","streettype":"STREET","suffdir":"N/A","city":"ARLINGTON","state_code":"VA","zip5":"22204","latitude":"38.8604790000000000","longitude":"-77.104234000000000","publicwifi":"U","url":"N/A","broadband_type_id":6}
{"id":null,"anchorname":"HARVEY HALL COMMUNITY CENTER","address":"860 SOUTH GREENBRIAR STREET","bldgnbr":"860","predir":"SOUTH","streetname":"GREENBRIAR","streettype":"STREET","suffdir":"N/A","city":"ARLINGTON","state_code":"VA","zip5":"22204","latitude":"38.8613200000000000","longitude":"-77.097810000000000","publicwifi":"U","url":"N/A","broadband_type_id":1}
{"id":null,"anchorname":"ARLINGTON COUNTY ENVIRONMENTAL HEALTH","address":"800 SOUTH WALTER REED DRIVE","bldgnbr":"800","predir":"SOUTH","streetname":"WALTER REED","streettype":"DRIVE","suffdir":"N/A","city":"ARLINGTON","state_code":"VA","zip5":"22204","latitude":"38.8657501210000000","longitude":"-77.087697391000000","publicwifi":"U","url":"N/A","broadband_type_id":3}
{"id":null,"anchorname":"ARLINGTON TECHNICAL EDUCATION AND CAREER CENTER","address":"816 SOUTH WALTER REED DRIVE","bldgnbr":"816","predir":"SOUTH","streetname":"WALTER REED","streettype":"DRIVE","suffdir":"N/A","city":"ARLINGTON","state_code":"VA","zip5":"22204","latitude":"38.8645283720000000","longitude":"-77.088414529000000","publicwifi":"U","url":"N/A","broadband_type_id":3}
{"id":null,"anchorname":"COLUMBIA PIKE BRANCH LIBRARY","address":"816 SOUTH WALTER REED DRIVE","bldgnbr":"816","predir":"SOUTH","streetname":"WALTER REED","streettype":"DRIVE","suffdir":"N/A","city":"ARLINGTON","state_code":"VA","zip5":"22204","latitude":"38.8645283720000000","longitude":"-77.088414529000000","publicwifi":"U","url":"N/A","broadband_type_id":6}
{"id":null,"anchorname":"GOVERNOR'S CAREER AND TECHNICAL ACADEMY FOR EDUCATION IN ARLINGTON","address":"816 SOUTH WALTER REED DRIVE","bldgnbr":"816","predir":"SOUTH","streetname":"WALTER REED","streettype":"DRIVE","suffdir":"N/A","city":"ARLINGTON","state_code":"VA","zip5":"22204","latitude":"38.8645283720000000","longitude":"-77.088414529000000","publicwifi":"U","url":"N/A","broadband_type_id":3}
{"id":null,"anchorname":"ARLINGTON COUNTY HEALTH DEPARTMENT","address":"800 SOUTH WALTER REED DRIVE","bldgnbr":"800","predir":"SOUTH","streetname":"WALTER REED","streettype":"DRIVE","suffdir":"N/A","city":"ARLINGTON","state_code":"VA","zip5":"22204","latitude":"38.8652510000000000","longitude":"-77.087994000000000","publicwifi":"U","url":"N/A","broadband_type_id":3}
{"id":null,"anchorname":"Village of Millbrook","address":"35 Merritt Avenue","bldgnbr":"35","predir":null,"streetname":"Merritt","streettype":"Avenue","suffdir":null,"city":"Millbrook","state_code":"NY","zip5":"12545","latitude":"41.7866765600000000","longitude":"-73.692187917000000","publicwifi":"U","url":null,"broadband_type_id":1}
{"id":null,"anchorname":"ABINGDON ELEMENTARY","address":"3035 SOUTH ABINGDON STREET","bldgnbr":"3035","predir":"SOUTH","streetname":"ABINGDON","streettype":"STREET","suffdir":"N/A","city":"ARLINGTON","state_code":"VA","zip5":"22206","latitude":"38.8398294960000000","longitude":"-77.096089448000000","publicwifi":"U","url":"N/A","broadband_type_id":6}
{"id":null,"anchorname":"ARLINGTON COUNTY COOPERATIVE EXTENSION OFFICE","address":"3308 SOUTH STAFFORD STREET","bldgnbr":"3308","predir":"SOUTH","streetname":"STAFFORD","streettype":"STREET","suffdir":"N/A","city":"ARLINGTON","state_code":"VA","zip5":"22206","latitude":"38.8344922640000000","longitude":"-77.087157331000000","publicwifi":"U","url":"N/A","broadband_type_id":1}
{"id":null,"anchorname":"DEPARTMENT OF ALCOHOLIC BEVERAGE CONTROL","address":"320 TWENTY-THIRD STREET SOUTH","bldgnbr":"320","predir":"N/A","streetname":"TWENTY-THIRD","streettype":"STREET","suffdir":"SOUTH","city":"ARLINGTON","state_code":"VA","zip5":"22202","latitude":"38.8530820000000000","longitude":"-77.051227000000000","publicwifi":"U","url":"N/A","broadband_type_id":null}
{"id":null,"anchorname":"INSTITUTE FOR THE PSYCHOLOGICAL SCIENCES","address":"2001 JEFFERSON DAVIS HIGHWAY","bldgnbr":"2001","predir":"N/A","streetname":"JEFFERSON DAVIS","streettype":"HIGHWAY","suffdir":"N/A","city":"ARLINGTON","state_code":"VA","zip5":"22202","latitude":"38.8564454930000000","longitude":"-77.051451301000000","publicwifi":"U","url":"N/A","broadband_type_id":6}
{"id":null,"anchorname":"OAKRIDGE ELEMENTARY","address":"1414 TWENTY-FOURTH STREET SOUTH","bldgnbr":"1414","predir":"N/A","streetname":"TWENTY-FOURTH","streettype":"STREET","suffdir":"SOUTH","city":"ARLINGTON","state_code":"VA","zip5":"22202","latitude":"38.8505108770000000","longitude":"-77.070240310000000","publicwifi":"U","url":"N/A","broadband_type_id":6}
{"id":null,"anchorname":"DEPARTMENT OF ALCOHOLIC BEVERAGE CONTROL","address":"2955A SOUTH GLEBE ROAD","bldgnbr":"2955A","predir":"SOUTH","streetname":"GLEBE","streettype":"ROAD","suffdir":"N/A","city":"ARLINGTON","state_code":"VA","zip5":"22206","latitude":"38.8455390000000000","longitude":"-77.067406000000000","publicwifi":"U","url":"N/A","broadband_type_id":null}
{"id":null,"anchorname":"GUNSTON MIDDLE","address":"2700 SOUTH LANG STREET","bldgnbr":"2700","predir":"SOUTH","streetname":"LANG","streettype":"STREET","suffdir":"N/A","city":"ARLINGTON","state_code":"VA","zip5":"22206","latitude":"38.8480960440000000","longitude":"-77.068933017000000","publicwifi":"U","url":"N/A","broadband_type_id":6}
{"id":null,"anchorname":"CRAIGSVILLE ELEMENTARY","address":"100 EAST FIRST STREET","bldgnbr":"100","predir":"EAST","streetname":"FIRST","streettype":"STREET","suffdir":"N/A","city":"CRAIGSVILLE","state_code":"VA","zip5":"24430","latitude":"38.0820537090000000","longitude":"-79.380661073000000","publicwifi":"U","url":"N/A","broadband_type_id":6}
{"id":null,"anchorname":"DEPARTMENT OF CORRECTIONAL EDUCATION","address":"1821 ESTALINE VALLEY ROAD","bldgnbr":"1821","predir":"N/A","streetname":"ESTALINE VALLEY","streettype":"ROAD","suffdir":"N/A","city":"CRAIGSVILLE","state_code":"VA","zip5":"24430","latitude":"38.0604497140000000","longitude":"-79.368226527000000","publicwifi":"U","url":"N/A","broadband_type_id":6}
{"id":null,"anchorname":"AUGUSTA CORRECTIONAL CENTER","address":"1821 ESTALINE VALLEY ROAD","bldgnbr":"1821","predir":"N/A","streetname":"ESTALINE VALLEY","streettype":"ROAD","suffdir":"N/A","city":"CRAIGSVILLE","state_code":"VA","zip5":"24430","latitude":"38.0604497140000000","longitude":"-79.368226527000000","publicwifi":"U","url":"N/A","broadband_type_id":null}
{"id":null,"anchorname":"NORTH RIVER ELEMENTARY","address":"3395 SCENIC HIGHWAY","bldgnbr":"3395","predir":"N/A","streetname":"SCENIC","streettype":"HIGHWAY","suffdir":"N/A","city":"MOUNT SOLON","state_code":"VA","zip5":"22843","latitude":"38.3150485570000000","longitude":"-79.079190697000000","publicwifi":"U","url":"N/A","broadband_type_id":6}
{"id":null,"anchorname":"DEPARTMENT OF CONSERVATION AND RECREATION","address":"44 SANGERS LANE","bldgnbr":"44","predir":"N/A","streetname":"SANGERS","streettype":"LANE","suffdir":"N/A","city":"STAUNTON","state_code":"VA","zip5":"24401","latitude":"38.1274430000000000","longitude":"-79.032195000000000","publicwifi":"U","url":"N/A","broadband_type_id":null}
{"id":null,"anchorname":"FORT DEFIANCE HIGH","address":"195 FORT DEFIANCE ROAD","bldgnbr":"195","predir":"N/A","streetname":"FORT DEFIANCE","streettype":"ROAD","suffdir":"N/A","city":"FORT DEFIANCE","state_code":"VA","zip5":"24437","latitude":"38.2471755390000000","longitude":"-78.974108834000000","publicwifi":"U","url":"N/A","broadband_type_id":6}
{"id":null,"anchorname":"WOODROW WILSON REHABILITATION CENTER","address":"64 JAMES ANDERSON ROAD","bldgnbr":"64","predir":"N/A","streetname":"JAMES ANDERSON","streettype":"ROAD","suffdir":"N/A","city":"FISHERSVILLE","state_code":"VA","zip5":"22939","latitude":"38.1188224220000000","longitude":"-78.990280251000000","publicwifi":"U","url":"N/A","broadband_type_id":null}
{"id":null,"anchorname":"DEVRY UNIVERSITY - VIRGINIA","address":"2450 CRYSTAL DRIVE","bldgnbr":"2450","predir":"N/A","streetname":"CRYSTAL","streettype":"DRIVE","suffdir":"N/A","city":"ARLINGTON","state_code":"VA","zip5":"22202","latitude":"38.8521955660000000","longitude":"-77.050243380000000","publicwifi":"U","url":"N/A","broadband_type_id":6}
{"id":null,"anchorname":"AURORA HILLS BRANCH LIBRARY","address":"735 EIGHTEENTH STREET SOUTH","bldgnbr":"735","predir":"N/A","streetname":"EIGHTEENTH","streettype":"STREET","suffdir":"SOUTH","city":"ARLINGTON","state_code":"VA","zip5":"22202","latitude":"38.8573100000000000","longitude":"-77.058380000000000","publicwifi":"U","url":"N/A","broadband_type_id":6}
{"id":null,"anchorname":"POTOMAC CENTER GENESIS ELDERCARE","address":"1785 HAYES STREET","bldgnbr":"1785","predir":"N/A","streetname":"HAYES","streettype":"STREET","suffdir":"N/A","city":"ARLINGTON","state_code":"VA","zip5":"22202","latitude":"38.8573685210000000","longitude":"-77.056197719000000","publicwifi":"U","url":"N/A","broadband_type_id":3}
{"id":null,"anchorname":"CRAIGSVILLE LIBRARY STATION","address":"44 WEST CRAIG AVENUE","bldgnbr":"44","predir":"WEST","streetname":"CRAIG","streettype":"AVENUE","suffdir":"N/A","city":"CRAIGSVILLE","state_code":"VA","zip5":"24430","latitude":"38.0789800000000000","longitude":"-79.383250000000000","publicwifi":"U","url":"N/A","broadband_type_id":6}
{"id":null,"anchorname":"CRAIGSVILLE POLICE DEPARTMENT","address":"122 FIRST STREET","bldgnbr":"122","predir":"N/A","streetname":"FIRST","streettype":"STREET","suffdir":"N/A","city":"CRAIGSVILLE","state_code":"VA","zip5":"24430","latitude":"38.0822612000000000","longitude":"-79.380011100000000","publicwifi":"U","url":"N/A","broadband_type_id":4}
{"id":null,"anchorname":"DEERFIELD LIBRARY STATION","address":"51 MARBLE VALLEY ROAD","bldgnbr":"51","predir":"N/A","streetname":"MARBLE VALLEY","streettype":"ROAD","suffdir":"N/A","city":"DEERFIELD","state_code":"VA","zip5":"24432","latitude":"38.1947500000000000","longitude":"-79.406010000000000","publicwifi":"U","url":"N/A","broadband_type_id":6}
{"id":null,"anchorname":"BLUE RIDGE COMMUNITY COLLEGE","address":"1 COLLEGE LANE","bldgnbr":"1","predir":"N/A","streetname":"COLLEGE","streettype":"LANE","suffdir":"N/A","city":"WEYERS CAVE","state_code":"VA","zip5":"24486","latitude":"38.2748962330000000","longitude":"-78.917525936000000","publicwifi":"U","url":"N/A","broadband_type_id":6}
{"id":null,"anchorname":"SHENANDOAH NURSING HOME","address":"339 WESTMINISTER DRIVE","bldgnbr":"339","predir":"N/A","streetname":"WESTMINSTER","streettype":"DRIVE","suffdir":"N/A","city":"FISHERSVILLE","state_code":"VA","zip5":"22939","latitude":"38.1026246320000000","longitude":"-78.969943624000000","publicwifi":"U","url":"N/A","broadband_type_id":3}
{"id":null,"anchorname":"EDWARD G. CLYMORE ELEMENTARY","address":"184 FORT DEFIANCE ROAD","bldgnbr":"184","predir":"N/A","streetname":"FORT DEFIANCE","streettype":"ROAD","suffdir":"N/A","city":"FORT DEFIANCE","state_code":"VA","zip5":"24437","latitude":"38.2460788050000000","longitude":"-78.976322182000000","publicwifi":"U","url":"N/A","broadband_type_id":6}
{"id":null,"anchorname":"S. GORDON STEWART MIDDLE","address":"118 FORT DEFIANCE ROAD","bldgnbr":"118","predir":"N/A","streetname":"FORT DEFIANCE","streettype":"ROAD","suffdir":"N/A","city":"FORT DEFIANCE","state_code":"VA","zip5":"24437","latitude":"38.2440458870000000","longitude":"-78.976343920000000","publicwifi":"U","url":"N/A","broadband_type_id":6}
{"id":null,"anchorname":"DEPARTMENT OF FORESTRY","address":"90 FORESTRY CENTER LANE","bldgnbr":"90","predir":"N/A","streetname":"FORESTRY CENTER","streettype":"LANE","suffdir":"N/A","city":"CRIMORA","state_code":"VA","zip5":"24431","latitude":"38.1709280000000000","longitude":"-78.852139000000000","publicwifi":"U","url":"N/A","broadband_type_id":2}
{"id":null,"anchorname":"CASSELL ELEMENTARY","address":"1301 ROCKFISH ROAD","bldgnbr":"1301","predir":"N/A","streetname":"ROCKFISH","streettype":"ROAD","suffdir":"N/A","city":"WAYNESBORO","state_code":"VA","zip5":"22980","latitude":"38.1308781240000000","longitude":"-78.871363689000000","publicwifi":"U","url":"N/A","broadband_type_id":6}
{"id":null,"anchorname":"DEPARTMENT OF SOCIAL SERVICES","address":"85 SANGERS LANE","bldgnbr":"85","predir":"N/A","streetname":"SANGERS","streettype":"LANE","suffdir":"N/A","city":"STAUNTON","state_code":"VA","zip5":"24401","latitude":"38.1273700000000000","longitude":"-79.030076000000000","publicwifi":"U","url":"N/A","broadband_type_id":6}
{"id":null,"anchorname":"WILSON MEMORIAL HIGH","address":"189 HORNET ROAD","bldgnbr":"189","predir":"N/A","streetname":"HORNET","streettype":"ROAD","suffdir":"N/A","city":"FISHERSVILLE","state_code":"VA","zip5":"22939","latitude":"38.1213143840000000","longitude":"-78.985063258000000","publicwifi":"U","url":"N/A","broadband_type_id":6}
{"id":null,"anchorname":"DEPARTMENT OF REHABILITATIVE SERVICES","address":"1076 JEFFERSON HIGHWAY","bldgnbr":"1076","predir":"N/A","streetname":"JEFFERSON","streettype":"HIGHWAY","suffdir":"N/A","city":"STAUNTON","state_code":"VA","zip5":"24401","latitude":"38.1109700000000000","longitude":"-78.997083000000000","publicwifi":"U","url":"N/A","broadband_type_id":6}
{"id":null,"anchorname":"VIRGINIA EMPLOYMENT COMMISSION","address":"1076 JEFFERSON HIGHWAY","bldgnbr":"1076","predir":"N/A","streetname":"JEFFERSON","streettype":"HIGHWAY","suffdir":"N/A","city":"STAUNTON","state_code":"VA","zip5":"24401","latitude":"38.1109700000000000","longitude":"-78.997083000000000","publicwifi":"U","url":"N/A","broadband_type_id":6}
{"id":null,"anchorname":"WILSON MIDDLE","address":"232 HORNET ROAD","bldgnbr":"232","predir":"N/A","streetname":"HORNET","streettype":"ROAD","suffdir":"N/A","city":"FISHERSVILLE","state_code":"VA","zip5":"22939","latitude":"38.1207734220000000","longitude":"-78.987863426000000","publicwifi":"U","url":"N/A","broadband_type_id":6}
{"id":null,"anchorname":"RONALD REAGAN WASHINGTON NATIONAL AIRPORT","address":"1 AVIATION CIRCLE","bldgnbr":"1","predir":"N/A","streetname":"AVIATION","streettype":"CIRCLE","suffdir":"N/A","city":"WASHINGTON","state_code":"VA","zip5":"20001","latitude":"38.8495400370000000","longitude":"-77.041562898000000","publicwifi":"U","url":"N/A","broadband_type_id":1}
{"id":null,"anchorname":"SHENANDOAH VALLEY REGIONAL AIRPORT","address":"77 AVIATION CIRCLE","bldgnbr":"77","predir":"N/A","streetname":"AVIATION","streettype":"CIRCLE","suffdir":"N/A","city":"WEYERS CAVE","state_code":"VA","zip5":"24486","latitude":"38.2631150360000000","longitude":"-78.900626502000000","publicwifi":"U","url":"N/A","broadband_type_id":1}
{"id":null,"anchorname":"City of Beacon","address":"1 Municipal Plaza","bldgnbr":"1","predir":null,"streetname":"Municipal","streettype":"Plaza","suffdir":null,"city":"Beacon","state_code":"NY","zip5":"12508","latitude":"41.5044425590000000","longitude":"-73.969525917000000","publicwifi":"U","url":null,"broadband_type_id":1}
{"id":null,"anchorname":"WOODROW WILSON REHABILITATION CENTER","address":"28 ANDREW RUSSELL LANE","bldgnbr":"28","predir":"N/A","streetname":"ANDREW RUSSELL","streettype":"LANE","suffdir":"N/A","city":"FISHERSVILLE","state_code":"VA","zip5":"22939","latitude":"38.1198221110000000","longitude":"-78.989330494000000","publicwifi":"U","url":"N/A","broadband_type_id":null}
{"id":null,"anchorname":"WILSON ELEMENTARY","address":"127 WOODROW WILSON AVENUE","bldgnbr":"127","predir":"N/A","streetname":"WOODROW WILSON","streettype":"AVENUE","suffdir":"N/A","city":"FISHERSVILLE","state_code":"VA","zip5":"22939","latitude":"38.1143042190000000","longitude":"-78.990342471000000","publicwifi":"U","url":"N/A","broadband_type_id":6}
{"id":null,"anchorname":"VALLEY VOCATIONAL TECH CENTER","address":"49 HORNET ROAD","bldgnbr":"49","predir":"N/A","streetname":"HORNET","streettype":"ROAD","suffdir":"N/A","city":"FISHERSVILLE","state_code":"VA","zip5":"22939","latitude":"38.1163610000000000","longitude":"-78.988935652000000","publicwifi":"U","url":"N/A","broadband_type_id":null}
{"id":null,"anchorname":"DEPARTMENT OF REHABILITATIVE SERVICES","address":"292 WOODROW WILSON AVENUE","bldgnbr":"292","predir":"N/A","streetname":"WOODROW WILSON","streettype":"AVENUE","suffdir":"N/A","city":"FISHERSVILLE","state_code":"VA","zip5":"22939","latitude":"38.1194650000000000","longitude":"-78.994704000000000","publicwifi":"U","url":"N/A","broadband_type_id":6}
{"id":null,"anchorname":"SHENANDOAH VALLEY REGIONAL SPECIAL EDUCATION","address":"6 JOHN LEWIS ROAD","bldgnbr":"6","predir":"N/A","streetname":"JOHN LEWIS","streettype":"ROAD","suffdir":"N/A","city":"FISHERSVILLE","state_code":"VA","zip5":"22939","latitude":"38.1167534760000000","longitude":"-78.991255058000000","publicwifi":"U","url":"N/A","broadband_type_id":6}
{"id":null,"anchorname":"DEPARTMENT OF SOCIAL SERVICES","address":"57 BEAM LANE","bldgnbr":"57","predir":"N/A","streetname":"BEAM","streettype":"LANE","suffdir":"N/A","city":"FISHERSVILLE","state_code":"VA","zip5":"22939","latitude":"38.0908250000000000","longitude":"-78.991193000000000","publicwifi":"U","url":"N/A","broadband_type_id":6}
{"id":null,"anchorname":"FISHERSVILLE DISTRICT CASE OFFICE","address":"57 BEAM LANE","bldgnbr":"57","predir":"N/A","streetname":"BEAM","streettype":"LANE","suffdir":"N/A","city":"FISHERSVILLE","state_code":"VA","zip5":"22939","latitude":"38.0908247270000000","longitude":"-78.991193249000000","publicwifi":"U","url":"N/A","broadband_type_id":6}
{"id":null,"anchorname":"REEMPLOYMENT OFFICE","address":"1840 JEFFERSON HIGHWAY","bldgnbr":"1840","predir":"N/A","streetname":"JEFFERSON","streettype":"HIGHWAY","suffdir":"N/A","city":"FISHERSVILLE","state_code":"VA","zip5":"22939","latitude":"38.0975620250000000","longitude":"-78.966239006000000","publicwifi":"U","url":"N/A","broadband_type_id":null}
{"id":null,"anchorname":"DEPARTMENT OF ALCOHOLIC BEVERAGE CONTROL","address":"208 LAUREL HILL ROAD","bldgnbr":"208","predir":"N/A","streetname":"LAUREL HILL","streettype":"ROAD","suffdir":"N/A","city":"VERONA","state_code":"VA","zip5":"24482","latitude":"38.1963020000000000","longitude":"-79.002501000000000","publicwifi":"U","url":"N/A","broadband_type_id":null}
{"id":null,"anchorname":"DEPARTMENT OF TRANSPORTATION","address":"192 LAUREL HILL ROAD","bldgnbr":"192","predir":"N/A","streetname":"LAUREL HILL","streettype":"ROAD","suffdir":"N/A","city":"VERONA","state_code":"VA","zip5":"24482","latitude":"38.1976060000000000","longitude":"-79.002237000000000","publicwifi":"U","url":"N/A","broadband_type_id":null}
{"id":null,"anchorname":"NEWBIZ VIRGINIA","address":"50 LODGE LANE","bldgnbr":"50","predir":"N/A","streetname":"LODGE","streettype":"LANE","suffdir":"N/A","city":"VERONA","state_code":"VA","zip5":"24482","latitude":"38.1947487090000000","longitude":"-79.000032818000000","publicwifi":"U","url":"www.newbizva.org","broadband_type_id":null}
{"id":null,"anchorname":"VIRGINIA EMPLOYMENT COMMISSION","address":"1840 JEFFERSON HIGHWAY","bldgnbr":"1840","predir":"N/A","streetname":"JEFFERSON","streettype":"HIGHWAY","suffdir":"N/A","city":"FISHERSVILLE","state_code":"VA","zip5":"22939","latitude":"38.0975620250000000","longitude":"-78.966239006000000","publicwifi":"U","url":"N/A","broadband_type_id":6}
{"id":null,"anchorname":"DEPARTMENT OF LABOR AND INDUSTRY","address":"201 LEE HIGHWAY","bldgnbr":"201","predir":"N/A","streetname":"LEE","streettype":"HIGHWAY","suffdir":"N/A","city":"VERONA","state_code":"VA","zip5":"24482","latitude":"38.1955680000000000","longitude":"-79.015509000000000","publicwifi":"U","url":"N/A","broadband_type_id":null}
{"id":null,"anchorname":"VERONA ELEMENTARY","address":"1011 LEE HIGHWAY","bldgnbr":"1011","predir":"N/A","streetname":"LEE","streettype":"HIGHWAY","suffdir":"N/A","city":"VERONA","state_code":"VA","zip5":"24482","latitude":"38.2201128280000000","longitude":"-78.993991965000000","publicwifi":"U","url":"N/A","broadband_type_id":6}
{"id":null,"anchorname":"DEPARTMENT OF TRANSPORTATION","address":"5125 MORRIS MILL ROAD","bldgnbr":"5125","predir":"N/A","streetname":"MORRIS MILL","streettype":"ROAD","suffdir":"N/A","city":"SWOOPE","state_code":"VA","zip5":"24479","latitude":"38.2051170000000000","longitude":"-79.194487000000000","publicwifi":"U","url":"N/A","broadband_type_id":null}
{"id":null,"anchorname":"DEPARTMENT OF ALCOHOLIC BEVERAGE CONTROL","address":"132 LEE JACKSON HIGHWAY","bldgnbr":"132","predir":"N/A","streetname":"LEE JACKSON","streettype":"HIGHWAY","suffdir":"N/A","city":"STAUNTON","state_code":"VA","zip5":"24401","latitude":"38.1228680000000000","longitude":"-79.065127000000000","publicwifi":"U","url":"N/A","broadband_type_id":null}
{"id":null,"anchorname":"DEPARTMENT OF TRANSPORTATION","address":"297 EXPO ROAD","bldgnbr":"297","predir":"N/A","streetname":"EXPO","streettype":"ROAD","suffdir":"N/A","city":"FISHERSVILLE","state_code":"VA","zip5":"22939","latitude":"38.0848610000000000","longitude":"-79.000924000000000","publicwifi":"U","url":"N/A","broadband_type_id":null}
{"id":null,"anchorname":"EAGLE'S NEST AIRPORT","address":"249 AERO DRIVE","bldgnbr":"249","predir":"N/A","streetname":"AERO","streettype":"DRIVE","suffdir":"N/A","city":"WAYNESBORO","state_code":"VA","zip5":"22980","latitude":"38.0791582880000000","longitude":"-78.942155496000000","publicwifi":"U","url":"N/A","broadband_type_id":6}
{"id":null,"anchorname":"SHENANDOAH VALLEY GOVERNOR'S SCHOOL","address":"49 HORNET ROAD","bldgnbr":"49","predir":"N/A","streetname":"HORNET","streettype":"ROAD","suffdir":"N/A","city":"FISHERSVILLE","state_code":"VA","zip5":"22939","latitude":"38.1163610000000000","longitude":"-78.988935652000000","publicwifi":"U","url":"N/A","broadband_type_id":6}
{"id":null,"anchorname":"AUGUSTA NURSING AND REHAB CENTER","address":"83 CROSSROADS LANE","bldgnbr":"83","predir":"N/A","streetname":"CROSSROADS","streettype":"LANE","suffdir":"N/A","city":"FISHERSVILLE","state_code":"VA","zip5":"22939","latitude":"38.0930643390000000","longitude":"-78.993927529000000","publicwifi":"U","url":"N/A","broadband_type_id":3}
{"id":null,"anchorname":"AUGUSTA COUNTY LIBRARY","address":"1759 JEFFERSON HIGHWAY","bldgnbr":"1759","predir":"N/A","streetname":"JEFFERSON","streettype":"HIGHWAY","suffdir":"N/A","city":"FISHERSVILLE","state_code":"VA","zip5":"22939","latitude":"38.0998000000000000","longitude":"-78.970710000000000","publicwifi":"U","url":"N/A","broadband_type_id":6}
{"id":null,"anchorname":"AUGUSTA MEDICAL CENTER","address":"78 MEDICAL CENTER DRIVE","bldgnbr":"78","predir":"N/A","streetname":"MEDICAL CENTER","streettype":"DRIVE","suffdir":"N/A","city":"FISHERSVILLE","state_code":"VA","zip5":"22939","latitude":"38.0943031150000000","longitude":"-78.986737390000000","publicwifi":"U","url":"N/A","broadband_type_id":3}
{"id":null,"anchorname":"AUGUSTA COUNTY SHERIFF'S OFFICE","address":"127 LEE HIGHWAY","bldgnbr":"127","predir":"N/A","streetname":"LEE","streettype":"HIGHWAY","suffdir":"N/A","city":"VERONA","state_code":"VA","zip5":"24482","latitude":"38.1933420000000000","longitude":"-79.018063400000000","publicwifi":"U","url":"N/A","broadband_type_id":4}
{"id":null,"anchorname":"CHURCHVILLE BRANCH LIBRARY","address":"3714 CHURCHVILLE AVENUE","bldgnbr":"3714","predir":"N/A","streetname":"CHURCHVILLE","streettype":"AVENUE","suffdir":"N/A","city":"CHURCHVILLE","state_code":"VA","zip5":"24421","latitude":"38.2239000000000000","longitude":"-79.158810000000000","publicwifi":"U","url":"N/A","broadband_type_id":6}
{"id":null,"anchorname":"MIDDLEBROOK LIBRARY STATION","address":"3698 MIDDLEBROOK ROAD","bldgnbr":"3698","predir":"N/A","streetname":"MIDDLEBROOK","streettype":"ROAD","suffdir":"N/A","city":"MIDDLEBROOK","state_code":"VA","zip5":"24459","latitude":"38.0513900000000000","longitude":"-79.213750000000000","publicwifi":"U","url":"N/A","broadband_type_id":6}
{"id":null,"anchorname":"DEPARTMENT OF GAME AND INLAND FISHERIES","address":"517 LEE HIGHWAY","bldgnbr":"517","predir":"N/A","streetname":"LEE","streettype":"HIGHWAY","suffdir":"N/A","city":"VERONA","state_code":"VA","zip5":"24482","latitude":"38.2044400000000000","longitude":"-79.005187000000000","publicwifi":"U","url":"N/A","broadband_type_id":6}
{"id":null,"anchorname":"DEPARTMENT OF SOCIAL SERVICES","address":"68 DICK HUFF LANE","bldgnbr":"68","predir":"N/A","streetname":"DICK HUFF","streettype":"LANE","suffdir":"N/A","city":"VERONA","state_code":"VA","zip5":"24482","latitude":"38.1951440000000000","longitude":"-79.013324000000000","publicwifi":"U","url":"N/A","broadband_type_id":6}
{"id":null,"anchorname":"MIDDLE RIVER REGIONAL JAIL","address":"350 TECHNOLOGY DRIVE","bldgnbr":"350","predir":"N/A","streetname":"TECHNOLOGY","streettype":"DRIVE","suffdir":"N/A","city":"STAUNTON","state_code":"VA","zip5":"24402","latitude":"38.1918099880000000","longitude":"-79.010550972000000","publicwifi":"U","url":"N/A","broadband_type_id":6}
{"id":null,"anchorname":"AUGUSTA COUNTY COOPERATIVE EXTENSION OFFICE","address":"13 GOVERMENT CENTER LANE","bldgnbr":"13","predir":"N/A","streetname":"GOVERNMENT CENTER","streettype":"LANE","suffdir":"N/A","city":"VERONA","state_code":"VA","zip5":"24482","latitude":"38.1940889000000000","longitude":"-79.013427259000000","publicwifi":"U","url":"N/A","broadband_type_id":1}
{"id":null,"anchorname":"CHURCHVILLE ELEMENTARY","address":"3710 CHURCHVILLE AVENUE","bldgnbr":"3710","predir":"N/A","streetname":"CHURCHVILLE","streettype":"AVENUE","suffdir":"N/A","city":"CHURCHVILLE","state_code":"VA","zip5":"24421","latitude":"38.2223463260000000","longitude":"-79.160196070000000","publicwifi":"U","url":"N/A","broadband_type_id":6}
{"id":null,"anchorname":"BEVERLEY MANOR ELEMENTARY","address":"116 CEDAR GREEN ROAD","bldgnbr":"116","predir":"N/A","streetname":"CEDAR GREEN","streettype":"ROAD","suffdir":"N/A","city":"STAUNTON","state_code":"VA","zip5":"24401","latitude":"38.1489789280000000","longitude":"-79.120521875000000","publicwifi":"U","url":"N/A","broadband_type_id":6}
{"id":null,"anchorname":"BEVERLEY MANOR MIDDLE","address":"58 CEDAR GREEN ROAD","bldgnbr":"58","predir":"N/A","streetname":"CEDAR GREEN","streettype":"ROAD","suffdir":"N/A","city":"STAUNTON","state_code":"VA","zip5":"24401","latitude":"38.1462687360000000","longitude":"-79.121732218000000","publicwifi":"U","url":"N/A","broadband_type_id":6}
{"id":null,"anchorname":"DEPARTMENT OF MOTOR VEHICLES","address":"17 FIRST STREET","bldgnbr":"17","predir":"N/A","streetname":"FIRST","streettype":"STREET","suffdir":"N/A","city":"STAUNTON","state_code":"VA","zip5":"24401","latitude":"38.1173110000000000","longitude":"-79.069713000000000","publicwifi":"U","url":"N/A","broadband_type_id":6}
{"id":null,"anchorname":"RIVERHEADS ELEMENTARY","address":"17 HOWARDSVILLE ROAD","bldgnbr":"17","predir":"N/A","streetname":"HOWARDSVILLE","streettype":"ROAD","suffdir":"N/A","city":"STAUNTON","state_code":"VA","zip5":"24401","latitude":"38.0361085790000000","longitude":"-79.140822862000000","publicwifi":"U","url":"N/A","broadband_type_id":6}
{"id":null,"anchorname":"DEPARTMENT OF TRANSPORTATION","address":"29 SWARTZEL SHOP ROAD","bldgnbr":"29","predir":"N/A","streetname":"SWARTZEL SHOP","streettype":"ROAD","suffdir":"N/A","city":"STAUNTON","state_code":"VA","zip5":"24401","latitude":"38.0412410000000000","longitude":"-79.127722000000000","publicwifi":"U","url":"N/A","broadband_type_id":null}
{"id":null,"anchorname":"COLD SPRINGS CORRECTIONAL UNIT #10","address":"221 SPITLER CIRCLE","bldgnbr":"221","predir":"N/A","streetname":"SPITLER","streettype":"CIRCLE","suffdir":"N/A","city":"GREENVILLE","state_code":"VA","zip5":"24440","latitude":"37.9917069310000000","longitude":"-79.151338454000000","publicwifi":"U","url":"N/A","broadband_type_id":null}
{"id":null,"anchorname":"City of Poughkeepsie","address":"62 Civic Center Plaza","bldgnbr":"62","predir":null,"streetname":"Civic Center","streettype":"Plaza","suffdir":null,"city":"Poughkeepsie","state_code":"NY","zip5":"12601","latitude":"41.7066265600000000","longitude":"-73.928826917000000","publicwifi":"U","url":null,"broadband_type_id":1}
{"id":null,"anchorname":"SUMMIT SQUARE","address":"501 OAK AVENUE","bldgnbr":"501","predir":"N/A","streetname":"OAK","streettype":"AVENUE","suffdir":"N/A","city":"WAYNESBORO","state_code":"VA","zip5":"22980","latitude":"38.0384170260000000","longitude":"-78.929288956000000","publicwifi":"U","url":"N/A","broadband_type_id":null}
{"id":null,"anchorname":"DEPARTMENT OF TRANSPORTATION","address":"30904 MOUNTAIN VALLEY ROAD","bldgnbr":"30904","predir":"N/A","streetname":"MOUNTAIN VALLEY","streettype":"ROAD","suffdir":"N/A","city":"MILLBORO","state_code":"VA","zip5":"24460","latitude":"37.9949430000000000","longitude":"-79.614783000000000","publicwifi":"U","url":"N/A","broadband_type_id":null}
{"id":null,"anchorname":"DEPARTMENT OF CONSERVATION AND RECREATION","address":"14239 DOUTHAT STATE PARK ROAD","bldgnbr":"14239","predir":"N/A","streetname":"DOUTHAT STATE PARK","streettype":"ROAD","suffdir":"N/A","city":"MILLBORO","state_code":"VA","zip5":"24460","latitude":"37.8961970000000000","longitude":"-79.801387000000000","publicwifi":"U","url":"N/A","broadband_type_id":null}
{"id":null,"anchorname":"DEPARTMENT OF TRANSPORTATION","address":"14277 SAM SNEAD HIGHWAY","bldgnbr":"14277","predir":"N/A","streetname":"SAM SNEAD","streettype":"HIGHWAY","suffdir":"N/A","city":"WARM SPRINGS","state_code":"VA","zip5":"24484","latitude":"38.0695360000000000","longitude":"-79.773203000000000","publicwifi":"U","url":"N/A","broadband_type_id":null}
{"id":null,"anchorname":"Buffalo #093 Southside ES","address":"430 Southside Pky","bldgnbr":"430","predir":null,"streetname":"Southside","streettype":"Parkway","suffdir":null,"city":"Buffalo","state_code":"NY","zip5":"14210","latitude":"42.8609785590000000","longitude":"-78.822291890000000","publicwifi":"U","url":null,"broadband_type_id":6}
{"id":null,"anchorname":"DEPARTMENT OF CORRECTIONAL EDUCATION","address":"221 SPITLER CIRCLE","bldgnbr":"221","predir":"N/A","streetname":"SPITLER","streettype":"CIRCLE","suffdir":"N/A","city":"GREENVILLE","state_code":"VA","zip5":"24440","latitude":"37.9912640000000000","longitude":"-79.151885000000000","publicwifi":"U","url":"N/A","broadband_type_id":6}
{"id":null,"anchorname":"STUARTS DRAFT ELEMENTARY","address":"63 SCHOOL BOULEVARD","bldgnbr":"63","predir":"N/A","streetname":"SCHOOL","streettype":"BOULEVARD","suffdir":"N/A","city":"STUARTS DRAFT","state_code":"VA","zip5":"24477","latitude":"38.0473941400000000","longitude":"-79.007875393000000","publicwifi":"U","url":"N/A","broadband_type_id":6}
{"id":null,"anchorname":"DEPARTMENT OF ALCOHOLIC BEVERAGE CONTROL","address":"39 1/2 EAST MAIN STREET","bldgnbr":"39 1/2","predir":"EAST","streetname":"MAIN","streettype":"STREET","suffdir":"N/A","city":"HOT SPRINGS","state_code":"VA","zip5":"24445","latitude":"38.0108400000000000","longitude":"-79.874109000000000","publicwifi":"U","url":"N/A","broadband_type_id":null}
{"id":null,"anchorname":"STUARTS DRAFT MIDDLE","address":"1088 AUGUSTA FARM ROAD","bldgnbr":"1088","predir":"N/A","streetname":"AUGUSTA FARM","streettype":"ROAD","suffdir":"N/A","city":"STUARTS DRAFT","state_code":"VA","zip5":"24477","latitude":"38.0447811750000000","longitude":"-79.009948116000000","publicwifi":"U","url":"N/A","broadband_type_id":6}
{"id":null,"anchorname":"GUY K. STUMP ELEMENTARY","address":"115 DRAFT AVENUE","bldgnbr":"115","predir":"N/A","streetname":"DRAFT","streettype":"AVENUE","suffdir":"N/A","city":"STUARTS DRAFT","state_code":"VA","zip5":"24477","latitude":"38.0300078080000000","longitude":"-79.035177360000000","publicwifi":"U","url":"N/A","broadband_type_id":6}
{"id":null,"anchorname":"MILLBORO ELEMENTARY","address":"411 CHURCH STREET","bldgnbr":"411","predir":"N/A","streetname":"CHURCH","streettype":"STREET","suffdir":"N/A","city":"MILLBORO","state_code":"VA","zip5":"24460","latitude":"37.9775821210000000","longitude":"-79.606495585000000","publicwifi":"U","url":"N/A","broadband_type_id":6}
{"id":null,"anchorname":"DEPARTMENT OF ALCOHOLIC BEVERAGE CONTROL","address":"18013 FOREST ROAD","bldgnbr":"18013","predir":"N/A","streetname":"FOREST","streettype":"ROAD","suffdir":"N/A","city":"FOREST","state_code":"VA","zip5":"24551","latitude":"37.3766240000000000","longitude":"-79.247733000000000","publicwifi":"U","url":"N/A","broadband_type_id":null}
{"id":null,"anchorname":"SURGERY CENTER OF CENTRAL VIRGINIA","address":"1834 GRAVES MILL ROAD","bldgnbr":"1834","predir":"N/A","streetname":"GRAVES MILL","streettype":"ROAD","suffdir":"N/A","city":"FOREST","state_code":"VA","zip5":"24551","latitude":"37.3772443350000000","longitude":"-79.244165190000000","publicwifi":"U","url":"N/A","broadband_type_id":null}
{"id":null,"anchorname":"DEPARTMENT OF TRANSPORTATION","address":"5507 THOMAS JEFFERSON ROAD","bldgnbr":"5507","predir":"N/A","streetname":"THOMAS JEFFERSON","streettype":"ROAD","suffdir":"N/A","city":"FOREST","state_code":"VA","zip5":"24551","latitude":"37.3157190000000000","longitude":"-79.311741000000000","publicwifi":"U","url":"N/A","broadband_type_id":null}
{"id":null,"anchorname":"BATH COUNTY PUBLIC LIBRARY","address":"96 COURTHOUSE HILL ROAD","bldgnbr":"96","predir":"N/A","streetname":"COURTHOUSE HILL","streettype":"ROAD","suffdir":"N/A","city":"WARM SPRINGS","state_code":"VA","zip5":"24484","latitude":"38.0455700000000000","longitude":"-79.787630000000000","publicwifi":"U","url":"N/A","broadband_type_id":6}
{"id":null,"anchorname":"BATH COUNTY HEALTH DEPARTMENT","address":"51 COURTHOUSE HILL ROAD","bldgnbr":"51","predir":"N/A","streetname":"COURTHOUSE HILL","streettype":"ROAD","suffdir":"N/A","city":"WARM SPRINGS","state_code":"VA","zip5":"24484","latitude":"38.0458923390000000","longitude":"-79.789984494000000","publicwifi":"U","url":"N/A","broadband_type_id":3}
{"id":null,"anchorname":"SPRINGS NURSING CENTER","address":"167 SPRING STREET","bldgnbr":"167","predir":"N/A","streetname":"SPRING","streettype":"STREET","suffdir":"N/A","city":"HOT SPRINGS","state_code":"VA","zip5":"24445","latitude":"37.9747040810000000","longitude":"-79.852736947000000","publicwifi":"U","url":"N/A","broadband_type_id":3}
{"id":null,"anchorname":"BATH COUNTY COMMUNITY HOSPITAL","address":"106 PARK LANE","bldgnbr":"106","predir":"N/A","streetname":"PARK","streettype":"LANE","suffdir":"N/A","city":"HOT SPRINGS","state_code":"VA","zip5":"24445","latitude":"37.9929071990000000","longitude":"-79.832030613000000","publicwifi":"U","url":"N/A","broadband_type_id":3}
{"id":null,"anchorname":"FOREST LIBRARY","address":"15583 FOREST ROAD","bldgnbr":"15583","predir":"N/A","streetname":"FOREST","streettype":"ROAD","suffdir":"N/A","city":"FOREST","state_code":"VA","zip5":"24551","latitude":"37.3652800000000000","longitude":"-79.285680000000000","publicwifi":"U","url":"N/A","broadband_type_id":6}
{"id":null,"anchorname":"DEPARTMENT OF GAME AND INLAND FISHERIES","address":"300 HATCHERY LANE","bldgnbr":"300","predir":"N/A","streetname":"HATCHERY","streettype":"LANE","suffdir":"N/A","city":"MILLBORO","state_code":"VA","zip5":"24460","latitude":"38.1790520000000000","longitude":"-79.581419000000000","publicwifi":"U","url":"N/A","broadband_type_id":6}
{"id":null,"anchorname":"BATH COUNTY COOPERATIVE EXTENSION OFFICE","address":"65 COURTHOUSE HILL ROAD","bldgnbr":"65","predir":"N/A","streetname":"COURTHOUSE HILL","streettype":"ROAD","suffdir":"N/A","city":"WARM SPRINGS","state_code":"VA","zip5":"24484","latitude":"38.0459825960000000","longitude":"-79.789092259000000","publicwifi":"U","url":"N/A","broadband_type_id":1}
{"id":null,"anchorname":"DEPARTMENT OF SOCIAL SERVICES","address":"65 COURTHOUSE HILL ROAD","bldgnbr":"65","predir":"N/A","streetname":"COURTHOUSE HILL","streettype":"ROAD","suffdir":"N/A","city":"WARM SPRINGS","state_code":"VA","zip5":"24484","latitude":"38.0461330000000000","longitude":"-79.789486000000000","publicwifi":"U","url":"N/A","broadband_type_id":6}
{"id":null,"anchorname":"DEPARTMENT OF MOTOR VEHICLES","address":"64 COURTHOUSE HILL ROAD","bldgnbr":"64","predir":"N/A","streetname":"COURTHOUSE HILL","streettype":"ROAD","suffdir":"N/A","city":"WARM SPRINGS","state_code":"VA","zip5":"24484","latitude":"38.0457280000000000","longitude":"-79.789656000000000","publicwifi":"U","url":"N/A","broadband_type_id":6}
{"id":null,"anchorname":"BATH COUNTY HIGH","address":"464 CHARGER LANE","bldgnbr":"464","predir":"N/A","streetname":"CHARGER","streettype":"LANE","suffdir":"N/A","city":"HOT SPRINGS","state_code":"VA","zip5":"24445","latitude":"38.0336472700000000","longitude":"-79.795012245000000","publicwifi":"U","url":"N/A","broadband_type_id":6}
{"id":null,"anchorname":"VALLEY ELEMENTARY","address":"98 PANTHER DRIVE","bldgnbr":"98","predir":"N/A","streetname":"PANTHER","streettype":"DRIVE","suffdir":"N/A","city":"HOT SPRINGS","state_code":"VA","zip5":"24445","latitude":"37.9731100540000000","longitude":"-79.852280107000000","publicwifi":"U","url":"N/A","broadband_type_id":6}
{"id":null,"anchorname":"DEPARTMENT OF FORESTRY","address":"420 FORESTRY ROAD","bldgnbr":"420","predir":"N/A","streetname":"FORESTRY","streettype":"ROAD","suffdir":"N/A","city":"HOT SPRINGS","state_code":"VA","zip5":"24445","latitude":"37.9739690000000000","longitude":"-79.846400000000000","publicwifi":"U","url":"N/A","broadband_type_id":2}
{"id":null,"anchorname":"BOONSBORO ELEMENTARY","address":"1234 EAGLE CIRCLE","bldgnbr":"1234","predir":"N/A","streetname":"EAGLE","streettype":"CIRCLE","suffdir":"N/A","city":"LYNCHBURG","state_code":"VA","zip5":"24503","latitude":"37.4528923880000000","longitude":"-79.260812983000000","publicwifi":"U","url":"N/A","broadband_type_id":6}
{"id":null,"anchorname":"JEFFERSON FOREST HIGH","address":"1 CAVALIER CIRCLE","bldgnbr":"1","predir":"N/A","streetname":"CAVALIER","streettype":"CIRCLE","suffdir":"N/A","city":"FOREST","state_code":"VA","zip5":"24551","latitude":"37.3760648850000000","longitude":"-79.303266564000000","publicwifi":"U","url":"N/A","broadband_type_id":2}
{"id":null,"anchorname":"FOREST ELEMENTARY","address":"1 SCHOLAR LANE","bldgnbr":"1","predir":"N/A","streetname":"SCHOLAR","streettype":"LANE","suffdir":"N/A","city":"FOREST","state_code":"VA","zip5":"24551","latitude":"37.3757055340000000","longitude":"-79.307904549000000","publicwifi":"U","url":"N/A","broadband_type_id":2}
{"id":null,"anchorname":"DEPARTMENT OF GAME AND INLAND FISHERIES","address":"1132 THOMAS JEFFERSON ROAD","bldgnbr":"1132","predir":"N/A","streetname":"THOMAS JEFFERSON","streettype":"ROAD","suffdir":"N/A","city":"FOREST","state_code":"VA","zip5":"24551","latitude":"37.3630740000000000","longitude":"-79.285766000000000","publicwifi":"U","url":"N/A","broadband_type_id":6}
{"id":null,"anchorname":"FOREST MIDDLE","address":"100 ASHWOOD DRIVE","bldgnbr":"100","predir":"N/A","streetname":"ASHWOOD","streettype":"DRIVE","suffdir":"N/A","city":"FOREST","state_code":"VA","zip5":"24551","latitude":"37.3693403610000000","longitude":"-79.309621491000000","publicwifi":"U","url":"N/A","broadband_type_id":2}
{"id":null,"anchorname":"THOMAS JEFFERSON ELEMENTARY","address":"1255 PATRIOT PLACE","bldgnbr":"1255","predir":"N/A","streetname":"PATRIOT","streettype":"PLACE","suffdir":"N/A","city":"FOREST","state_code":"VA","zip5":"24551","latitude":"37.3567437370000000","longitude":"-79.288436520000000","publicwifi":"U","url":"N/A","broadband_type_id":6}
{"id":null,"anchorname":"NEW LONDON ACADEMY ELEMENTARY","address":"12400 EAST LYNCHBURG-SALEM TURNPIKE","bldgnbr":"12400","predir":"EAST","streetname":"LYNCHBURG-SALEM","streettype":"TURNPIKE","suffdir":"N/A","city":"FOREST","state_code":"VA","zip5":"24551","latitude":"37.3066492440000000","longitude":"-79.305627577000000","publicwifi":"U","url":"N/A","broadband_type_id":6}
{"id":null,"anchorname":"INGALLS FIELD AIRPORT","address":"6240 AIRPORT ROAD","bldgnbr":"6240","predir":"N/A","streetname":"AIRPORT","streettype":"ROAD","suffdir":"N/A","city":"HOT SPRINGS","state_code":"VA","zip5":"24445","latitude":"37.9532537070000000","longitude":"-79.835313546000000","publicwifi":"U","url":"N/A","broadband_type_id":1}
{"id":null,"anchorname":"TABERNACLE CHRISTIAN ACADEMY","address":"155 ACADEMY ST","bldgnbr":"155","predir":null,"streetname":"ACADEMY","streettype":"St","suffdir":null,"city":"POUGHKEEPSIE","state_code":"NY","zip5":"12601","latitude":"41.6940499980000000","longitude":"-73.928460002000000","publicwifi":"U","url":null,"broadband_type_id":6}
{"id":null,"anchorname":"DEPARTMENT OF TRANSPORTATION","address":"1052 CREEK LANE","bldgnbr":"1052","predir":"N/A","streetname":"CREEK","streettype":"LANE","suffdir":"N/A","city":"BIG ISLAND","state_code":"VA","zip5":"24526","latitude":"37.5265130000000000","longitude":"-79.416980000000000","publicwifi":"U","url":"N/A","broadband_type_id":null}
{"id":null,"anchorname":"DEPARTMENT OF TRANSPORTATION","address":"1108 NESTER ROAD","bldgnbr":"1108","predir":"N/A","streetname":"NESTER","streettype":"ROAD","suffdir":"N/A","city":"THAXTON","state_code":"VA","zip5":"24174","latitude":"37.3567630000000000","longitude":"-79.671216000000000","publicwifi":"U","url":"N/A","broadband_type_id":null}
{"id":null,"anchorname":"LIBERTY HIGH","address":"100 LIBERTY MINUTEMEN DRIVE","bldgnbr":"100","predir":"N/A","streetname":"LIBERTY MINUTEMEN","streettype":"DRIVE","suffdir":"N/A","city":"BEDFORD","state_code":"VA","zip5":"24523","latitude":"37.3717355950000000","longitude":"-79.497996119000000","publicwifi":"U","url":"N/A","broadband_type_id":6}
{"id":null,"anchorname":"DEPARTMENT OF CORRECTIONS - CENTRAL ADMINISTRATION","address":"107C TURNPIKE ROAD","bldgnbr":"107C","predir":"N/A","streetname":"TURNPIKE","streettype":"ROAD","suffdir":"N/A","city":"BEDFORD","state_code":"VA","zip5":"24523","latitude":"37.3403940000000000","longitude":"-79.561188000000000","publicwifi":"U","url":"N/A","broadband_type_id":6}
{"id":null,"anchorname":"DEPARTMENT OF ALCOHOLIC BEVERAGE CONTROL","address":"1128 EAST LYNCHBURG SALEM TURNPIKE","bldgnbr":"1128","predir":"EAST","streetname":"LYNCHBURG SALEM","streettype":"TURNPIKE","suffdir":"N/A","city":"BEDFORD","state_code":"VA","zip5":"24523","latitude":"37.3255380000000000","longitude":"-79.495591000000000","publicwifi":"U","url":"N/A","broadband_type_id":null}
{"id":null,"anchorname":"DEPARTMENT OF TRANSPORTATION","address":"2022 EAST LYNCHBURG-SALEM TURNPIKE","bldgnbr":"2022","predir":"EAST","streetname":"LYNCHBURG-SALEM","streettype":"TURNPIKE","suffdir":"N/A","city":"BEDFORD","state_code":"VA","zip5":"24523","latitude":"37.3186760000000000","longitude":"-79.482416000000000","publicwifi":"U","url":"N/A","broadband_type_id":null}
{"id":null,"anchorname":"DEPARTMENT OF CONSERVATION AND RECREATION","address":"1235 STATE PARK ROAD","bldgnbr":"1235","predir":"N/A","streetname":"STATE PARK","streettype":"ROAD","suffdir":"N/A","city":"HUDDLESTON","state_code":"VA","zip5":"24104","latitude":"37.0916090000000000","longitude":"-79.592515000000000","publicwifi":"U","url":"N/A","broadband_type_id":null}
{"id":null,"anchorname":"DEPARTMENT OF FORESTRY","address":"1071 TURNPIKE ROAD","bldgnbr":"1071","predir":"N/A","streetname":"TURNPIKE","streettype":"ROAD","suffdir":"N/A","city":"BEDFORD","state_code":"VA","zip5":"24523","latitude":"37.3400990000000000","longitude":"-79.560754000000000","publicwifi":"U","url":"N/A","broadband_type_id":2}
{"id":null,"anchorname":"DEPARTMENT OF TRANSPORTATION","address":"1572 RADFORD CHURCH ROAD","bldgnbr":"1572","predir":"N/A","streetname":"RADFORD CHURCH","streettype":"ROAD","suffdir":"N/A","city":"MONETA","state_code":"VA","zip5":"24121","latitude":"37.1393240000000000","longitude":"-79.614973000000000","publicwifi":"U","url":"N/A","broadband_type_id":null}
{"id":null,"anchorname":"BODY CAMP ELEMENTARY","address":"3420 BODY CAMP ROAD","bldgnbr":"3420","predir":"N/A","streetname":"BODY CAMP","streettype":"ROAD","suffdir":"N/A","city":"BEDFORD","state_code":"VA","zip5":"24523","latitude":"37.2254153350000000","longitude":"-79.517902665000000","publicwifi":"U","url":"N/A","broadband_type_id":6}
{"id":null,"anchorname":"OTTER RIVER ELEMENTARY","address":"1044 OTTER RIVER DRIVE","bldgnbr":"1044","predir":"N/A","streetname":"OTTER RIVER","streettype":"DRIVE","suffdir":"N/A","city":"GOODE","state_code":"VA","zip5":"24556","latitude":"37.3648477800000000","longitude":"-79.433773423000000","publicwifi":"U","url":"N/A","broadband_type_id":6}
{"id":null,"anchorname":"STAUNTON RIVER HIGH","address":"1095 GOLDEN EAGLE DRIVE","bldgnbr":"1095","predir":"N/A","streetname":"GOLDEN EAGLE","streettype":"DRIVE","suffdir":"N/A","city":"MONETA","state_code":"VA","zip5":"24121","latitude":"37.2412394930000000","longitude":"-79.622801026000000","publicwifi":"U","url":"N/A","broadband_type_id":6}
{"id":null,"anchorname":"BLAND CORRECTIONAL CENTER","address":"256 BLAND FARM ROAD","bldgnbr":"256","predir":"N/A","streetname":"BLAND FARM","streettype":"ROAD","suffdir":"N/A","city":"BLAND","state_code":"VA","zip5":"24315","latitude":"37.1699481090000000","longitude":"-80.888758264000000","publicwifi":"U","url":"N/A","broadband_type_id":null}
{"id":null,"anchorname":"DEPARTMENT OF JUVENILE JUSTICE","address":"599 MAIN STREET","bldgnbr":"599","predir":"N/A","streetname":"MAIN","streettype":"STREET","suffdir":"N/A","city":"BLAND","state_code":"VA","zip5":"24315","latitude":"37.1005776880000000","longitude":"-81.114799692000000","publicwifi":"U","url":"N/A","broadband_type_id":null}
{"id":null,"anchorname":"DEPARTMENT OF TRANSPORTATION","address":"159 SEDDON STREET","bldgnbr":"159","predir":"N/A","streetname":"SEDDON","streettype":"STREET","suffdir":"N/A","city":"BLAND","state_code":"VA","zip5":"24315","latitude":"37.1023290000000000","longitude":"-81.121555000000000","publicwifi":"U","url":"N/A","broadband_type_id":null}
{"id":null,"anchorname":"STAUNTON RIVER MIDDLE","address":"1293 GOLDEN EAGLE DRIVE","bldgnbr":"1293","predir":"N/A","streetname":"GOLDEN EAGLE","streettype":"DRIVE","suffdir":"N/A","city":"MONETA","state_code":"VA","zip5":"24121","latitude":"37.2411150540000000","longitude":"-79.626435669000000","publicwifi":"U","url":"N/A","broadband_type_id":6}
{"id":null,"anchorname":"SMITH MOUNTAIN LAKE AIRPORT","address":"1090 CUTLASS ROAD","bldgnbr":"1090","predir":"N/A","streetname":"CUTLASS","streettype":"ROAD","suffdir":"N/A","city":"MONETA","state_code":"VA","zip5":"24121","latitude":"37.1112370520000000","longitude":"-79.589779082000000","publicwifi":"U","url":"N/A","broadband_type_id":2}
{"id":null,"anchorname":"BEDFORD COUNTY NURSING HOME","address":"1229 COUNTY FARM ROAD","bldgnbr":"1229","predir":"N/A","streetname":"COUNTY FARM","streettype":"ROAD","suffdir":"N/A","city":"BEDFORD","state_code":"VA","zip5":"24523","latitude":"37.3115912450000000","longitude":"-79.501689346000000","publicwifi":"U","url":"N/A","broadband_type_id":3}
{"id":null,"anchorname":"BEDFORD COUNTY SHERIFF'S OFFICE","address":"1345 FALLING CREEK ROAD","bldgnbr":"1345","predir":"N/A","streetname":"FALLING CREEK","streettype":"ROAD","suffdir":"N/A","city":"BEDFORD","state_code":"VA","zip5":"24523","latitude":"37.3117661000000000","longitude":"-79.505143400000000","publicwifi":"U","url":"N/A","broadband_type_id":4}
{"id":null,"anchorname":"MONETA/SMITH MOUNTAIN LAKE LIBRARY","address":"13641 MONETA ROAD","bldgnbr":"13641","predir":"N/A","streetname":"MONETA","streettype":"ROAD","suffdir":"N/A","city":"MONETA","state_code":"VA","zip5":"24121","latitude":"37.1786900000000000","longitude":"-79.623070000000000","publicwifi":"U","url":"N/A","broadband_type_id":6}
{"id":null,"anchorname":"STEWARTSVILLE LIBRARY","address":"45 CASCADE DRIVE","bldgnbr":"45","predir":"N/A","streetname":"CASCADE","streettype":"DRIVE","suffdir":"N/A","city":"VINTON","state_code":"VA","zip5":"24179","latitude":"37.2723200000000000","longitude":"-79.808800000000000","publicwifi":"U","url":"N/A","broadband_type_id":6}
{"id":null,"anchorname":"MONTVALE LIBRARY","address":"11575 WEST LYNCHBURG-SALEM TURNPIKE","bldgnbr":"11575","predir":"WEST","streetname":"LYNCHBURG-SALEM","streettype":"TURNPIKE","suffdir":"N/A","city":"MONTVALE","state_code":"VA","zip5":"24122","latitude":"37.3857549090000000","longitude":"-79.732028303000000","publicwifi":"U","url":"N/A","broadband_type_id":6}
{"id":null,"anchorname":"BLAND COUNTY LIBRARY","address":"140 MAIN STREET","bldgnbr":"140","predir":"N/A","streetname":"MAIN","streettype":"STREET","suffdir":"N/A","city":"BLAND","state_code":"VA","zip5":"24315","latitude":"37.1043400000000000","longitude":"-81.117910000000000","publicwifi":"U","url":"N/A","broadband_type_id":6}
{"id":null,"anchorname":"BLAND COUNTY HEALTH DEPARTMENT","address":"209 JACKSON STREET","bldgnbr":"209","predir":"N/A","streetname":"JACKSON","streettype":"STREET","suffdir":"N/A","city":"BLAND","state_code":"VA","zip5":"24315","latitude":"37.1004400000000000","longitude":"-81.116115000000000","publicwifi":"U","url":"N/A","broadband_type_id":3}
{"id":null,"anchorname":"BLAND COUNTY SHERIFF'S OFFICE","address":"612 MAIN STREET","bldgnbr":"612","predir":"N/A","streetname":"MAIN","streettype":"STREET","suffdir":"N/A","city":"BLAND","state_code":"VA","zip5":"24315","latitude":"37.1000605070000000","longitude":"-81.115435914000000","publicwifi":"U","url":"N/A","broadband_type_id":4}
{"id":null,"anchorname":"MONETA ELEMENTARY","address":"12718 MONETA ROAD","bldgnbr":"12718","predir":"N/A","streetname":"MONETA","streettype":"ROAD","suffdir":"N/A","city":"MONETA","state_code":"VA","zip5":"24121","latitude":"37.1860226200000000","longitude":"-79.612479250000000","publicwifi":"U","url":"N/A","broadband_type_id":6}
{"id":null,"anchorname":"GOODVIEW ELEMENTARY","address":"1374 RIVERMONT ACADEMY ROAD","bldgnbr":"1374","predir":"N/A","streetname":"RIVERMONT ACADEMY","streettype":"ROAD","suffdir":"N/A","city":"GOODVIEW","state_code":"VA","zip5":"24095","latitude":"37.2627068750000000","longitude":"-79.780718301000000","publicwifi":"U","url":"N/A","broadband_type_id":6}
{"id":null,"anchorname":"STEWARTSVILLE ELEMENTARY","address":"1138 WILDCAT ROAD","bldgnbr":"1138","predir":"N/A","streetname":"WILDCAT","streettype":"ROAD","suffdir":"N/A","city":"GOODVIEW","state_code":"VA","zip5":"24095","latitude":"37.2716202170000000","longitude":"-79.789769213000000","publicwifi":"U","url":"N/A","broadband_type_id":6}
{"id":null,"anchorname":"MONTVALE ELEMENTARY","address":"1 LITTLE PATRIOT DRIVE","bldgnbr":"1","predir":"N/A","streetname":"LITTLE PATRIOT","streettype":"DRIVE","suffdir":"N/A","city":"MONTVALE","state_code":"VA","zip5":"24122","latitude":"37.3759295560000000","longitude":"-79.708447793000000","publicwifi":"U","url":"N/A","broadband_type_id":6}
{"id":null,"anchorname":"ROCKY GAP ELEMENTARY","address":"83 EAGLES ROAD","bldgnbr":"83","predir":"N/A","streetname":"EAGLES","streettype":"ROAD","suffdir":"N/A","city":"ROCKY GAP","state_code":"VA","zip5":"24366","latitude":"37.2423383230000000","longitude":"-81.110256786000000","publicwifi":"U","url":"N/A","broadband_type_id":6}
{"id":null,"anchorname":"ROCKY GAP HIGH","address":"176 EAGLES ROAD","bldgnbr":"176","predir":"N/A","streetname":"EAGLES","streettype":"ROAD","suffdir":"N/A","city":"ROCKY GAP","state_code":"VA","zip5":"24366","latitude":"37.2412640490000000","longitude":"-81.109082205000000","publicwifi":"U","url":"N/A","broadband_type_id":6}
{"id":null,"anchorname":"DEPARTMENT OF CORRECTIONS - CENTRAL ADMINISTRATION","address":"256 BLAND FARM ROAD","bldgnbr":"256","predir":"N/A","streetname":"BLAND FARM","streettype":"ROAD","suffdir":"N/A","city":"BLAND","state_code":"VA","zip5":"24315","latitude":"37.1699480000000000","longitude":"-80.888758000000000","publicwifi":"U","url":"N/A","broadband_type_id":6}
{"id":null,"anchorname":"BLAND COUNTY COOPERATIVE EXTENSION OFFICE","address":"599 MAIN STREET","bldgnbr":"599","predir":"N/A","streetname":"MAIN","streettype":"STREET","suffdir":"N/A","city":"BLAND","state_code":"VA","zip5":"24315","latitude":"37.1004253620000000","longitude":"-81.114405951000000","publicwifi":"U","url":"N/A","broadband_type_id":1}
{"id":null,"anchorname":"BLAND ELEMENTARY","address":"31 ROCKET DRIVE","bldgnbr":"31","predir":"N/A","streetname":"ROCKET","streettype":"DRIVE","suffdir":"N/A","city":"BLAND","state_code":"VA","zip5":"24315","latitude":"37.1035742350000000","longitude":"-81.114152987000000","publicwifi":"U","url":"N/A","broadband_type_id":6}
{"id":null,"anchorname":"BLAND HIGH","address":"31 ROCKET DRIVE","bldgnbr":"31","predir":"N/A","streetname":"ROCKET","streettype":"DRIVE","suffdir":"N/A","city":"BLAND","state_code":"VA","zip5":"24315","latitude":"37.1035742350000000","longitude":"-81.114152987000000","publicwifi":"U","url":"N/A","broadband_type_id":6}
{"id":null,"anchorname":"DEPARTMENT OF SOCIAL SERVICES","address":"612 MAIN STREET","bldgnbr":"612","predir":"N/A","streetname":"MAIN","streettype":"STREET","suffdir":"N/A","city":"BLAND","state_code":"VA","zip5":"24315","latitude":"37.1000605070000000","longitude":"-81.115435914000000","publicwifi":"U","url":"N/A","broadband_type_id":6}
{"id":null,"anchorname":"NEW LONDON AIRPORT","address":"1114 WHEELS DRIVE","bldgnbr":"1114","predir":"N/A","streetname":"WHEELS","streettype":"DRIVE","suffdir":"N/A","city":"FOREST","state_code":"VA","zip5":"24551","latitude":"37.2737266450000000","longitude":"-79.337275733000000","publicwifi":"U","url":"N/A","broadband_type_id":1}
{"id":null,"anchorname":"DEPARTMENT OF TRANSPORTATION","address":"7146 NORTH SCENIC HIGHWAY","bldgnbr":"7146","predir":"NORTH","streetname":"SCENIC","streettype":"HIGHWAY","suffdir":"N/A","city":"BASTIAN","state_code":"VA","zip5":"24314","latitude":"37.1907550000000000","longitude":"-81.135918000000000","publicwifi":"U","url":"N/A","broadband_type_id":null}
{"id":null,"anchorname":"County of Dutchess","address":"22 Market St 6th Floor","bldgnbr":"22","predir":null,"streetname":"Market","streettype":"St","suffdir":null,"city":"Poughkeepsie","state_code":"NY","zip5":"12601","latitude":"41.7035624470000000","longitude":"-73.929548681000000","publicwifi":"U","url":null,"broadband_type_id":6}
{"id":null,"anchorname":"Buffalo #032 Bennett Pk Montessori","address":"342 Clinton St","bldgnbr":"342","predir":null,"streetname":"Clinton","streettype":"St","suffdir":null,"city":"Buffalo","state_code":"NY","zip5":"14204","latitude":"42.8837085580000000","longitude":"-78.861902891000000","publicwifi":"U","url":null,"broadband_type_id":6}
{"id":null,"anchorname":"DEPARTMENT OF TRANSPORTATION","address":"9100 BOTETOURT ROAD","bldgnbr":"9100","predir":"N/A","streetname":"BOTETOURT","streettype":"ROAD","suffdir":"N/A","city":"EAGLE ROCK","state_code":"VA","zip5":"24085","latitude":"37.6127090000000000","longitude":"-79.830040000000000","publicwifi":"U","url":"N/A","broadband_type_id":null}
{"id":null,"anchorname":"JAMES RIVER HIGH","address":"9906 SPRINGWOOD ROAD","bldgnbr":"9906","predir":"N/A","streetname":"SPRINGWOOD","streettype":"ROAD","suffdir":"N/A","city":"BUCHANAN","state_code":"VA","zip5":"24066","latitude":"37.5468363250000000","longitude":"-79.725701305000000","publicwifi":"U","url":"N/A","broadband_type_id":6}
{"id":null,"anchorname":"DEPARTMENT OF TRANSPORTATION","address":"21170 LEE HIGHWAY","bldgnbr":"21170","predir":"N/A","streetname":"LEE","streettype":"HIGHWAY","suffdir":"N/A","city":"BUCHANAN","state_code":"VA","zip5":"24066","latitude":"37.5440780000000000","longitude":"-79.666947000000000","publicwifi":"U","url":"N/A","broadband_type_id":null}
{"id":null,"anchorname":"BUCHANAN ELEMENTARY","address":"255 SCHOOLHOUSE ROAD","bldgnbr":"255","predir":"N/A","streetname":"SCHOOLHOUSE","streettype":"ROAD","suffdir":"N/A","city":"BUCHANAN","state_code":"VA","zip5":"24066","latitude":"37.5122319860000000","longitude":"-79.703961273000000","publicwifi":"U","url":"N/A","broadband_type_id":6}
{"id":null,"anchorname":"BOTETOURT TECHNICAL EDUCATION CENTER","address":"253 POOR FARM ROAD","bldgnbr":"253","predir":"N/A","streetname":"POOR FARM","streettype":"ROAD","suffdir":"N/A","city":"FINCASTLE","state_code":"VA","zip5":"24090","latitude":"37.5060716720000000","longitude":"-79.863936728000000","publicwifi":"U","url":"N/A","broadband_type_id":6}
{"id":null,"anchorname":"CENTRAL ACADEMY MIDDLE","address":"367 POOR FARM ROAD","bldgnbr":"367","predir":"N/A","streetname":"POOR FARM","streettype":"ROAD","suffdir":"N/A","city":"FINCASTLE","state_code":"VA","zip5":"24090","latitude":"37.5075297260000000","longitude":"-79.863337500000000","publicwifi":"U","url":"N/A","broadband_type_id":6}
{"id":null,"anchorname":"DEPARTMENT OF JUVENILE JUSTICE","address":"2 EAST MAIN STREET","bldgnbr":"2","predir":"EAST","streetname":"MAIN","streettype":"STREET","suffdir":"N/A","city":"FINCASTLE","state_code":"VA","zip5":"24090","latitude":"37.4991250000000000","longitude":"-79.877639000000000","publicwifi":"U","url":"N/A","broadband_type_id":null}
{"id":null,"anchorname":"DEPARTMENT OF JUVENILE JUSTICE","address":"1 WEST MAIN STREET","bldgnbr":"1","predir":"WEST","streetname":"MAIN","streettype":"STREET","suffdir":"N/A","city":"FINCASTLE","state_code":"VA","zip5":"24090","latitude":"37.4993180000000000","longitude":"-79.877969000000000","publicwifi":"U","url":"N/A","broadband_type_id":null}
{"id":null,"anchorname":"BRECKINRIDGE ELEMENTARY","address":"331 SPRINGWOOD ROAD","bldgnbr":"331","predir":"N/A","streetname":"SPRINGWOOD","streettype":"ROAD","suffdir":"N/A","city":"FINCASTLE","state_code":"VA","zip5":"24090","latitude":"37.5026816570000000","longitude":"-79.873252929000000","publicwifi":"U","url":"N/A","broadband_type_id":6}
{"id":null,"anchorname":"BOTETOURT COUNTY COOPERATIVE EXTENSION OFFICE","address":"9 WEST MAIN STREET","bldgnbr":"9","predir":"WEST","streetname":"MAIN","streettype":"STREET","suffdir":"N/A","city":"FINCASTLE","state_code":"VA","zip5":"24090","latitude":"37.4991999950000000","longitude":"-79.877998499000000","publicwifi":"U","url":"N/A","broadband_type_id":1}
{"id":null,"anchorname":"DEPARTMENT OF ALCOHOLIC BEVERAGE CONTROL","address":"56 KINGSTON DRIVE","bldgnbr":"56","predir":"N/A","streetname":"KINGSTON","streettype":"DRIVE","suffdir":"N/A","city":"DALEVILLE","state_code":"VA","zip5":"24083","latitude":"37.3970890000000000","longitude":"-79.910784000000000","publicwifi":"U","url":"N/A","broadband_type_id":null}
{"id":null,"anchorname":"CARRINGTON PLACE - BOTETOURT COMMONS","address":"290 COMMONS PARKWAY","bldgnbr":"290","predir":"N/A","streetname":"COMMONS","streettype":"PARKWAY","suffdir":"N/A","city":"DALEVILLE","state_code":"VA","zip5":"24083","latitude":"37.3930311430000000","longitude":"-79.912664036000000","publicwifi":"U","url":"N/A","broadband_type_id":null}
{"id":null,"anchorname":"DEPARTMENT OF SOCIAL SERVICES","address":"20 SOUTH ROANOKE STREET","bldgnbr":"20","predir":"SOUTH","streetname":"ROANOKE","streettype":"STREET","suffdir":"N/A","city":"FINCASTLE","state_code":"VA","zip5":"24090","latitude":"37.4985600000000000","longitude":"-79.877481000000000","publicwifi":"U","url":"N/A","broadband_type_id":6}
{"id":null,"anchorname":"ROANOKE VALLEY REGIONAL BOARD","address":"57 SOUTH CENTER DRIVE","bldgnbr":"57","predir":"SOUTH","streetname":"CENTER","streettype":"DRIVE","suffdir":"N/A","city":"DALEVILLE","state_code":"VA","zip5":"24083","latitude":"37.4359322230000000","longitude":"-79.905288029000000","publicwifi":"U","url":"N/A","broadband_type_id":null}
{"id":null,"anchorname":"LORD BOTETOURT HIGH","address":"1435 ROANOKE ROAD","bldgnbr":"1435","predir":"N/A","streetname":"ROANOKE","streettype":"ROAD","suffdir":"N/A","city":"DALEVILLE","state_code":"VA","zip5":"24083","latitude":"37.4052976270000000","longitude":"-79.914827034000000","publicwifi":"U","url":"N/A","broadband_type_id":6}
{"id":null,"anchorname":"DEPARTMENT OF TRANSPORTATION","address":"268 STATE DRIVE","bldgnbr":"268","predir":"N/A","streetname":"STATE","streettype":"DRIVE","suffdir":"N/A","city":"TROUTVILLE","state_code":"VA","zip5":"24175","latitude":"37.4235690000000000","longitude":"-79.842912000000000","publicwifi":"U","url":"N/A","broadband_type_id":null}
{"id":null,"anchorname":"BOTETOURT CORRECTIONAL UNIT #25","address":"1414 STONEY BATTERY ROAD","bldgnbr":"1414","predir":"N/A","streetname":"STONEY BATTERY","streettype":"ROAD","suffdir":"N/A","city":"TROUTVILLE","state_code":"VA","zip5":"24175","latitude":"37.4242793050000000","longitude":"-79.845537561000000","publicwifi":"U","url":"N/A","broadband_type_id":null}
{"id":null,"anchorname":"ROANOKE VALLEY JUVENILE DETENTION HOME","address":"498 COYNER SPRINGS ROAD","bldgnbr":"498","predir":"N/A","streetname":"COYNER SPRINGS","streettype":"ROAD","suffdir":"N/A","city":"ROANOKE","state_code":"VA","zip5":"24012","latitude":"37.3425783190000000","longitude":"-79.859467903000000","publicwifi":"U","url":"N/A","broadband_type_id":null}
{"id":null,"anchorname":"GREENFIELD ELEMENTARY","address":"288 ETZLER ROAD","bldgnbr":"288","predir":"N/A","streetname":"ETZLER","streettype":"ROAD","suffdir":"N/A","city":"TROUTVILLE","state_code":"VA","zip5":"24175","latitude":"37.4287012120000000","longitude":"-79.928456487000000","publicwifi":"U","url":"N/A","broadband_type_id":6}
{"id":null,"anchorname":"DEPARTMENT OF CORRECTIONAL EDUCATION","address":"201 STATE DRIVE","bldgnbr":"201","predir":"N/A","streetname":"STATE","streettype":"DRIVE","suffdir":"N/A","city":"TROUTVILLE","state_code":"VA","zip5":"24175","latitude":"37.4238010000000000","longitude":"-79.844762000000000","publicwifi":"U","url":"N/A","broadband_type_id":6}
{"id":null,"anchorname":"EAGLE ROCK LIBRARY","address":"55 EAGLES NEST DRIVE","bldgnbr":"55","predir":"N/A","streetname":"EAGLES NEST","streettype":"DRIVE","suffdir":"N/A","city":"EAGLE ROCK","state_code":"VA","zip5":"24085","latitude":"37.6546049000000000","longitude":"-79.810362390000000","publicwifi":"U","url":"N/A","broadband_type_id":6}
{"id":null,"anchorname":"BUCHANAN BRANCH LIBRARY","address":"19795 MAIN STREET","bldgnbr":"19795","predir":"N/A","streetname":"MAIN","streettype":"STREET","suffdir":"N/A","city":"BUCHANAN","state_code":"VA","zip5":"24066","latitude":"37.5284400000000000","longitude":"-79.679340000000000","publicwifi":"U","url":"N/A","broadband_type_id":6}
{"id":null,"anchorname":"BOTETOURT SCHOOL BOARD OFFICE","address":"143 POOR FARM ROAD","bldgnbr":"143","predir":"N/A","streetname":"POOR FARM","streettype":"ROAD","suffdir":"N/A","city":"FINCASTLE","state_code":"VA","zip5":"24090","latitude":"37.5050345170000000","longitude":"-79.864792976000000","publicwifi":"U","url":"N/A","broadband_type_id":6}
{"id":null,"anchorname":"BOTETOURT COUNTY SHERIFF'S OFFICE","address":"205 NORTH ROANOKE STREET","bldgnbr":"205","predir":"NORTH","streetname":"ROANOKE","streettype":"STREET","suffdir":"N/A","city":"FINCASTLE","state_code":"VA","zip5":"24090","latitude":"37.5010181000000000","longitude":"-79.876969800000000","publicwifi":"U","url":"N/A","broadband_type_id":4}
{"id":null,"anchorname":"BOTETOURT COUNTY HEALTH DEPARTMENT","address":"21 ACADEMY STREET","bldgnbr":"21","predir":"N/A","streetname":"ACADEMY","streettype":"STREET","suffdir":"N/A","city":"FINCASTLE","state_code":"VA","zip5":"24090","latitude":"37.4962990000000000","longitude":"-79.876438000000000","publicwifi":"U","url":"N/A","broadband_type_id":3}
{"id":null,"anchorname":"DABNEY S. LANCASTER COMMUNITY COLLEGE - GREENFIELD","address":"57 SOUTH CENTER DRIVE","bldgnbr":"57","predir":"SOUTH","streetname":"CENTER","streettype":"DRIVE","suffdir":"N/A","city":"DALEVILLE","state_code":"VA","zip5":"24083","latitude":"37.4359190000000000","longitude":"-79.904873000000000","publicwifi":"U","url":"N/A","broadband_type_id":6}
{"id":null,"anchorname":"BOTETOURT COUNTY LIBRARY","address":"28 AVERY ROW","bldgnbr":"28","predir":"N/A","streetname":"AVERY","streettype":"ROW","suffdir":"N/A","city":"ROANOKE","state_code":"VA","zip5":"24012","latitude":"37.3303847200000000","longitude":"-79.864965114000000","publicwifi":"U","url":"N/A","broadband_type_id":6}
{"id":null,"anchorname":"GLEBE NURSING HOME","address":"250 GLEBE ROAD","bldgnbr":"250","predir":"N/A","streetname":"GLEBE","streettype":"ROAD","suffdir":"N/A","city":"DALEVILLE","state_code":"VA","zip5":"24083","latitude":"37.4207831930000000","longitude":"-79.915245391000000","publicwifi":"U","url":"N/A","broadband_type_id":3}
{"id":null,"anchorname":"BLUE RIDGE LIBRARY","address":"28 AVERY ROW","bldgnbr":"28","predir":"N/A","streetname":"AVERY","streettype":"ROW","suffdir":"N/A","city":"ROANOKE","state_code":"VA","zip5":"24012","latitude":"37.3304500000000000","longitude":"-79.866100000000000","publicwifi":"U","url":"N/A","broadband_type_id":6}
{"id":null,"anchorname":"DEPARTMENT OF CORRECTIONS - CENTRAL ADMINISTRATION","address":"201 STATE DRIVE","bldgnbr":"201","predir":"N/A","streetname":"STATE","streettype":"DRIVE","suffdir":"N/A","city":"TROUTVILLE","state_code":"VA","zip5":"24175","latitude":"37.4238010000000000","longitude":"-79.844762000000000","publicwifi":"U","url":"N/A","broadband_type_id":6}
{"id":null,"anchorname":"TROUTVILLE ELEMENTARY","address":"12 BARRON DRIVE","bldgnbr":"12","predir":"N/A","streetname":"BARRON","streettype":"DRIVE","suffdir":"N/A","city":"TROUTVILLE","state_code":"VA","zip5":"24175","latitude":"37.4411183890000000","longitude":"-79.847267393000000","publicwifi":"U","url":"N/A","broadband_type_id":6}
{"id":null,"anchorname":"CLOVERDALE ELEMENTARY","address":"833 COUGAR DRIVE","bldgnbr":"833","predir":"N/A","streetname":"COUGAR","streettype":"DRIVE","suffdir":"N/A","city":"CLOVERDALE","state_code":"VA","zip5":"24077","latitude":"37.3630535910000000","longitude":"-79.899992907000000","publicwifi":"U","url":"N/A","broadband_type_id":6}
{"id":null,"anchorname":"READ MOUNTAIN MIDDLE","address":"182 ORCHARD HILL DRIVE","bldgnbr":"182","predir":"N/A","streetname":"ORCHARD HILL","streettype":"DRIVE","suffdir":"N/A","city":"CLOVERDALE","state_code":"VA","zip5":"24077","latitude":"37.3577965440000000","longitude":"-79.902746160000000","publicwifi":"U","url":"N/A","broadband_type_id":2}
{"id":null,"anchorname":"ROANOKE SANCTUARY / CRISIS INTERVENTION CENTER","address":"108 COYNER SPRINGS ROAD","bldgnbr":"108","predir":"N/A","streetname":"COYNER SPRINGS","streettype":"ROAD","suffdir":"N/A","city":"ROANOKE","state_code":"VA","zip5":"24012","latitude":"37.3429770550000000","longitude":"-79.857036143000000","publicwifi":"U","url":"N/A","broadband_type_id":6}
{"id":null,"anchorname":"COLONIAL ELEMENTARY","address":"2941 WEBSTER ROAD","bldgnbr":"2941","predir":"N/A","streetname":"WEBSTER","streettype":"ROAD","suffdir":"N/A","city":"BLUE RIDGE","state_code":"VA","zip5":"24064","latitude":"37.3575998680000000","longitude":"-79.816808323000000","publicwifi":"U","url":"N/A","broadband_type_id":6}
{"id":null,"anchorname":"Buffalo #037 Futures Academy","address":"295 Carlton St","bldgnbr":"295","predir":null,"streetname":"Carlton","streettype":"St","suffdir":null,"city":"Buffalo","state_code":"NY","zip5":"14204","latitude":"42.8979285580000000","longitude":"-78.858211890000000","publicwifi":"U","url":null,"broadband_type_id":6}
{"id":null,"anchorname":"FREDERICK OLMSTED #64","address":"3145 OLYMPIC AVE","bldgnbr":"3145","predir":null,"streetname":"OLYMPIC","streettype":"Ave","suffdir":null,"city":"BUFFALO","state_code":"NY","zip5":"14216","latitude":"42.9404285590000000","longitude":"-78.878141890000000","publicwifi":"N","url":null,"broadband_type_id":6}
{"id":null,"anchorname":"RED OAK-STURGEON ELEMENTARY","address":"4081 FLATROCK ROAD","bldgnbr":"4081","predir":"N/A","streetname":"FLATROCK","streettype":"ROAD","suffdir":"N/A","city":"ALBERTA","state_code":"VA","zip5":"23821","latitude":"36.9064102260000000","longitude":"-77.878977942000000","publicwifi":"U","url":"N/A","broadband_type_id":6}
{"id":null,"anchorname":"JAMES S. RUSSELL MIDDLE","address":"19400 CHRISTANNA HIGHWAY","bldgnbr":"19400","predir":"N/A","streetname":"CHRISTANNA","streettype":"HIGHWAY","suffdir":"N/A","city":"LAWRENCEVILLE","state_code":"VA","zip5":"23868","latitude":"36.7781915180000000","longitude":"-77.873441222000000","publicwifi":"U","url":"N/A","broadband_type_id":6}
{"id":null,"anchorname":"LAWRENCEVILLE CORRECTIONAL CENTER","address":"1607 PLANTERS ROAD","bldgnbr":"1607","predir":"N/A","streetname":"PLANTERS","streettype":"ROAD","suffdir":"N/A","city":"LAWRENCEVILLE","state_code":"VA","zip5":"23068","latitude":"36.7817004550000000","longitude":"-77.813543968000000","publicwifi":"U","url":"N/A","broadband_type_id":null}
{"id":null,"anchorname":"DEPARTMENT OF TRANSPORTATION","address":"2186 BRIGHT LEAF ROAD","bldgnbr":"2186","predir":"N/A","streetname":"BRIGHT LEAF","streettype":"ROAD","suffdir":"N/A","city":"LAWRENCEVILLE","state_code":"VA","zip5":"23868","latitude":"36.7887580000000000","longitude":"-77.811879000000000","publicwifi":"U","url":"N/A","broadband_type_id":null}
{"id":null,"anchorname":"BRUNSWICK CORRECTIONAL CENTER","address":"1147 PLANTERS ROAD","bldgnbr":"1147","predir":"N/A","streetname":"PLANTERS","streettype":"ROAD","suffdir":"N/A","city":"LAWRENCEVILLE","state_code":"VA","zip5":"23868","latitude":"36.7767699710000000","longitude":"-77.820713300000000","publicwifi":"U","url":"N/A","broadband_type_id":null}
{"id":null,"anchorname":"DEPARTMENT OF ALCOHOLIC BEVERAGE CONTROL","address":"302 NEW HICKS STREET","bldgnbr":"302","predir":"N/A","streetname":"NEW HICKS","streettype":"STREET","suffdir":"N/A","city":"LAWRENCEVILLE","state_code":"VA","zip5":"23868","latitude":"36.7572040000000000","longitude":"-77.849308000000000","publicwifi":"U","url":"N/A","broadband_type_id":null}
{"id":null,"anchorname":"BRUNSWICK HIGH","address":"2171 LAWRENCEVILLE PLANK ROAD","bldgnbr":"2171","predir":"N/A","streetname":"LAWRENCEVILLE PLANK","streettype":"ROAD","suffdir":"N/A","city":"LAWRENCEVILLE","state_code":"VA","zip5":"23868","latitude":"36.7676192650000000","longitude":"-77.829418678000000","publicwifi":"U","url":"N/A","broadband_type_id":6}
{"id":null,"anchorname":"SOUTHSIDE L.I.N.K. PROJECT / BRUNSWICK COUNTY","address":"1718 FARMERS FIELD ROAD","bldgnbr":"1718","predir":"N/A","streetname":"FARMERS FIELD","streettype":"ROAD","suffdir":"N/A","city":"LAWRENCEVILLE","state_code":"VA","zip5":"23868","latitude":"36.8100704030000000","longitude":"-77.772830308000000","publicwifi":"U","url":"N/A","broadband_type_id":6}
{"id":null,"anchorname":"DEPARTMENT OF CORRECTIONAL EDUCATION","address":"1607 PLANTERS ROAD","bldgnbr":"1607","predir":"N/A","streetname":"PLANTERS","streettype":"ROAD","suffdir":"N/A","city":"LAWRENCEVILLE","state_code":"VA","zip5":"23868","latitude":"36.7817007890000000","longitude":"-77.813544023000000","publicwifi":"U","url":"N/A","broadband_type_id":6}
{"id":null,"anchorname":"DEPARTMENT OF CORRECTIONS - CENTRAL ADMINISTRATION","address":"1607 PLANTERS ROAD","bldgnbr":"1607","predir":"N/A","streetname":"PLANTERS","streettype":"ROAD","suffdir":"N/A","city":"LAWRENCEVILLE","state_code":"VA","zip5":"23868","latitude":"36.7817007890000000","longitude":"-77.813544023000000","publicwifi":"U","url":"N/A","broadband_type_id":6}
{"id":null,"anchorname":"DEPARTMENT OF CORRECTIONAL EDUCATION","address":"1147 PLANTERS ROAD","bldgnbr":"1147","predir":"N/A","streetname":"PLANTERS","streettype":"ROAD","suffdir":"N/A","city":"LAWRENCEVILLE","state_code":"VA","zip5":"23868","latitude":"36.7767700000000000","longitude":"-77.820713000000000","publicwifi":"U","url":"N/A","broadband_type_id":6}
{"id":null,"anchorname":"ENVOY OF LAWRENCEVILLE","address":"1722 LAWRENCEVILLE PLANK ROAD","bldgnbr":"1722","predir":"N/A","streetname":"LAWRENCEVILLE PLANK","streettype":"ROAD","suffdir":"N/A","city":"LAWRENCEVILLE","state_code":"VA","zip5":"23868","latitude":"36.7648290860000000","longitude":"-77.836604388000000","publicwifi":"U","url":"N/A","broadband_type_id":null}
{"id":null,"anchorname":"DEPARTMENT OF JUVENILE JUSTICE","address":"202 NORTH MAIN STREET","bldgnbr":"202","predir":"NORTH","streetname":"MAIN","streettype":"STREET","suffdir":"N/A","city":"LAWRENCEVILLE","state_code":"VA","zip5":"23868","latitude":"36.7580530000000000","longitude":"-77.846565000000000","publicwifi":"U","url":"N/A","broadband_type_id":null}
{"id":null,"anchorname":"DEPARTMENT OF MOTOR VEHICLES","address":"228 NORTH MAIN STREET","bldgnbr":"228","predir":"NORTH","streetname":"MAIN","streettype":"STREET","suffdir":"N/A","city":"LAWRENCEVILLE","state_code":"VA","zip5":"23868","latitude":"36.7585900000000000","longitude":"-77.846726000000000","publicwifi":"U","url":"N/A","broadband_type_id":6}
{"id":null,"anchorname":"DEPARTMENT OF SOCIAL SERVICES","address":"201 SHARP STREET","bldgnbr":"201","predir":"N/A","streetname":"SHARP","streettype":"STREET","suffdir":"N/A","city":"LAWRENCEVILLE","state_code":"VA","zip5":"23868","latitude":"36.7576550000000000","longitude":"-77.849945000000000","publicwifi":"U","url":"N/A","broadband_type_id":6}
{"id":null,"anchorname":"MEHERRIN POWELLTON ELEMENTARY","address":"11555 DRY BREAD ROAD","bldgnbr":"11555","predir":"N/A","streetname":"DRY BREAD","streettype":"ROAD","suffdir":"N/A","city":"LAWRENCEVILLE","state_code":"VA","zip5":"23868","latitude":"36.6689709830000000","longitude":"-77.797289806000000","publicwifi":"U","url":"N/A","broadband_type_id":6}
{"id":null,"anchorname":"HURLEY ELEMENTARY/MIDDLE","address":"6911 HURLEY ROAD","bldgnbr":"6911","predir":"N/A","streetname":"HURLEY","streettype":"ROAD","suffdir":"N/A","city":"HURLEY","state_code":"VA","zip5":"24620","latitude":"37.3851728330000000","longitude":"-82.000766665000000","publicwifi":"U","url":"N/A","broadband_type_id":6}
{"id":null,"anchorname":"DEPARTMENT OF TRANSPORTATION","address":"1015 POE TOWN STREET","bldgnbr":"1015","predir":"N/A","streetname":"POE TOWN","streettype":"STREET","suffdir":"N/A","city":"GRUNDY","state_code":"VA","zip5":"24614","latitude":"37.2829770000000000","longitude":"-82.110619000000000","publicwifi":"U","url":"N/A","broadband_type_id":null}
{"id":null,"anchorname":"SOUTHSIDE VIRGINIA COMMUNITY COLLEGE - CHRISTANNA","address":"109 CAMPUS DRIVE","bldgnbr":"109","predir":"N/A","streetname":"CAMPUS","streettype":"DRIVE","suffdir":"N/A","city":"ALBERTA","state_code":"VA","zip5":"23821","latitude":"36.8390227240000000","longitude":"-77.917995485000000","publicwifi":"U","url":"N/A","broadband_type_id":6}
{"id":null,"anchorname":"SAINT PAUL'S COLLEGE","address":"115 COLLEGE DRIVE","bldgnbr":"115","predir":"N/A","streetname":"COLLEGE","streettype":"DRIVE","suffdir":"N/A","city":"LAWRENCEVILLE","state_code":"VA","zip5":"23868","latitude":"36.7619015340000000","longitude":"-77.850130535000000","publicwifi":"U","url":"N/A","broadband_type_id":6}
{"id":null,"anchorname":"BRUNSWICK COUNTY PUBLIC SCHOOLS","address":"1718 FARMERS FIELD ROAD","bldgnbr":"1718","predir":"N/A","streetname":"FARMERS FIELD","streettype":"ROAD","suffdir":"N/A","city":"LAWRENCEVILLE","state_code":"VA","zip5":"23868","latitude":"36.8100704030000000","longitude":"-77.772830308000000","publicwifi":"U","url":"N/A","broadband_type_id":6}
{"id":null,"anchorname":"BRUNSWICK COUNTY LIBRARY","address":"133 WEST HICKS STREET","bldgnbr":"133","predir":"WEST","streetname":"HICKS","streettype":"STREET","suffdir":"N/A","city":"LAWRENCEVILLE","state_code":"VA","zip5":"23868","latitude":"36.7578600000000000","longitude":"-77.847570000000000","publicwifi":"U","url":"N/A","broadband_type_id":6}
{"id":null,"anchorname":"MEHERRIN REGIONAL LIBRARY BOOKMOBILE","address":"133 WEST HICKS STREET","bldgnbr":"133","predir":"N/A","streetname":"HICKS","streettype":"STREET","suffdir":"N/A","city":"LAWRENCEVILLE","state_code":"VA","zip5":"23868","latitude":"36.7577785840000000","longitude":"-77.848063640000000","publicwifi":"U","url":"N/A","broadband_type_id":6}
