{"id":null,"anchorname":"WAVERLY CENTRAL HIGH SCHOOL","address":"1325 HWY 70 W WAVERLY, TN 37185","bldgnbr":"1325","predir":null,"streetname":"HWY 70 W","streettype":null,"suffdir":null,"city":"WAVERLY","state_code":"TN","zip5":"37185","latitude":"36.0784720000000000","longitude":"-87.854356000000000","publicwifi":"U","url":null,"broadband_type_id":6}
{"id":null,"anchorname":"WAVERLY HEALTH CARE AND REHABILITATION CENTER, INC.","address":"895 POWERS BOULEVARD WAVERLY, TN 37185","bldgnbr":"895","predir":null,"streetname":"POWERS BOULEVARD","streettype":null,"suffdir":null,"city":"WAVERLY","state_code":"TN","zip5":"37185","latitude":"36.1048730000000000","longitude":"-87.766700000000000","publicwifi":"U","url":null,"broadband_type_id":3}
{"id":null,"anchorname":"WAVERLY JR HIGH SCHOOL","address":"520 E MAIN ST WAVERLY, TN 37185","bldgnbr":"520","predir":null,"streetname":"E MAIN ST","streettype":null,"suffdir":null,"city":"WAVERLY","state_code":"TN","zip5":"37185","latitude":"36.0823680000000000","longitude":"-87.782155000000000","publicwifi":"U","url":null,"broadband_type_id":6}
{"id":null,"anchorname":"WAVERLY FIRE DEPT","address":"103 EAST MAIN STREET WAVERLY, TN 37185","bldgnbr":"103","predir":null,"streetname":"EAST MAIN STREET","streettype":null,"suffdir":null,"city":"WAVERLY","state_code":"TN","zip5":"37185","latitude":"36.0834000000000000","longitude":"-87.793200000000000","publicwifi":"U","url":null,"broadband_type_id":5}
{"id":null,"anchorname":"WAVERLY POLICE DEPARTMENT","address":"103 EAST MAIN STREET WAVERLY, TN 37185","bldgnbr":"103","predir":null,"streetname":"EAST MAIN STREET","streettype":null,"suffdir":null,"city":"WAVERLY","state_code":"TN","zip5":"37185","latitude":"36.0833650000000000","longitude":"-87.793199000000000","publicwifi":"U","url":null,"broadband_type_id":4}
{"id":null,"anchorname":"HUMPHREYS COUNTY NURSING HOME","address":"670 HIGHWAY 13 SOUTH WAVERLY, TN 37185","bldgnbr":"670","predir":null,"streetname":"HIGHWAY 13 SOUTH","streettype":null,"suffdir":null,"city":"WAVERLY","state_code":"TN","zip5":"37185","latitude":"36.0750930000000000","longitude":"-87.792300000000000","publicwifi":"U","url":null,"broadband_type_id":3}
{"id":null,"anchorname":"THREE RIVERS HOSPITAL","address":"451 HIGHWAY 13 SOUTH WAVERLY, TN 37185","bldgnbr":"451","predir":null,"streetname":"HIGHWAY 13 SOUTH","streettype":null,"suffdir":null,"city":"WAVERLY","state_code":"TN","zip5":"37185","latitude":"36.0779880000000000","longitude":"-87.794500000000000","publicwifi":"U","url":null,"broadband_type_id":3}
{"id":null,"anchorname":"HUMPHREYS CO. SHERIFF OFFICE","address":"112 THOMPSON STREET WAVERLY, TN 37185","bldgnbr":"112","predir":null,"streetname":"THOMPSON STREET","streettype":null,"suffdir":null,"city":"WAVERLY","state_code":"TN","zip5":"37185","latitude":"36.0824300000000000","longitude":"-87.796598000000000","publicwifi":"U","url":null,"broadband_type_id":4}
{"id":null,"anchorname":"HUMPHREYS COUNTY FIRE DEPT","address":"585 HWY 13 S WAVERLY, TN 37185","bldgnbr":"585","predir":null,"streetname":"HWY 13 S","streettype":null,"suffdir":null,"city":"WAVERLY","state_code":"TN","zip5":"37185","latitude":"36.0746080000000000","longitude":"-87.792360000000000","publicwifi":"U","url":null,"broadband_type_id":5}
{"id":null,"anchorname":"JACKSON COUNTY MIDDLE SCHOOL","address":"170 BLUE DEVIL LA GAINESBORO, TN 38562","bldgnbr":"170","predir":null,"streetname":"BLUE DEVIL LA","streettype":null,"suffdir":null,"city":"GAINESBORO","state_code":"TN","zip5":"38562","latitude":"36.3878080000000000","longitude":"-85.662014000000000","publicwifi":"U","url":null,"broadband_type_id":6}
{"id":null,"anchorname":"JACKSON COUNTY HIGH SCHOOL","address":"190 BLUE DEVIL LN GAINESBORO, TN 38562","bldgnbr":"190","predir":null,"streetname":"BLUE DEVIL LN","streettype":null,"suffdir":null,"city":"GAINESBORO","state_code":"TN","zip5":"38562","latitude":"36.3874510000000000","longitude":"-85.662627000000000","publicwifi":"U","url":null,"broadband_type_id":6}
{"id":null,"anchorname":"WEST END VOLUNTEER FIRE DEPT","address":"711 EAST FORK ROAD WHITLEYVILLE, TN 38588","bldgnbr":"711","predir":null,"streetname":"EAST FORK ROAD","streettype":null,"suffdir":null,"city":"WHITLEYVILLE","state_code":"TN","zip5":"38588","latitude":"36.4003000000000000","longitude":"-85.788400000000000","publicwifi":"U","url":null,"broadband_type_id":5}
{"id":null,"anchorname":"SOUTH SIDE VOLUNTEER FIRE DEPT","address":"202 JOHNSON SUBDIVISION LANE GARINESBORO, TN 38562","bldgnbr":"202","predir":null,"streetname":"JOHNSON SUBDIVISION LANE","streettype":null,"suffdir":null,"city":"GARINESBORO","state_code":"TN","zip5":"38562","latitude":"36.2640000000000000","longitude":"-85.614100000000000","publicwifi":"U","url":null,"broadband_type_id":5}
{"id":null,"anchorname":"FLYNN'S LICK VOLUNTEER FIRE DEPT","address":"2804 GRANVILLE HWY. GAINESBORO, TN 38562","bldgnbr":"2804","predir":null,"streetname":"GRANVILLE HWY.","streettype":null,"suffdir":null,"city":"GAINESBORO","state_code":"TN","zip5":"38562","latitude":"36.3213000000000000","longitude":"-85.712600000000000","publicwifi":"U","url":null,"broadband_type_id":5}
{"id":null,"anchorname":"GRANVILLE VOLUNTEER FIRE DEPT","address":"110 LAKEVIEW LANE GRANVILLE, TN 38564","bldgnbr":"110","predir":null,"streetname":"LAKEVIEW LANE","streettype":null,"suffdir":null,"city":"GRANVILLE","state_code":"TN","zip5":"38564","latitude":"36.2684000000000000","longitude":"-85.798700000000000","publicwifi":"U","url":null,"broadband_type_id":5}
{"id":null,"anchorname":"DIALYSIS AT DEBORAH","address":"107 Trenton Road,Browns Mills NJ 08015","bldgnbr":"107","predir":null,"streetname":"Trenton Road","streettype":null,"suffdir":null,"city":"Browns Mills","state_code":"NJ","zip5":"08015","latitude":"39.9735200000000000","longitude":"-74.583809000000000","publicwifi":"U","url":null,"broadband_type_id":6}
{"id":null,"anchorname":"PRIMARY COLORS LEARNING CENTER","address":"248 PENNYPACKER DRIVE, WILLINGBORO NJ 08046","bldgnbr":"248","predir":null,"streetname":"PENNYPACKER DRIVE","streettype":null,"suffdir":null,"city":"WILLINGBORO","state_code":"NJ","zip5":"08046","latitude":"40.0437620000000000","longitude":"-74.905960000000000","publicwifi":"U","url":null,"broadband_type_id":6}
{"id":null,"anchorname":"FUTURE SCHOLARS EARLY LEARNING CENTER","address":"1351 Route 38, Bldg B Hainesport, NJ 08036-2728 United States","bldgnbr":"1351","predir":null,"streetname":"Route 38","streettype":null,"suffdir":null,"city":"Hainesport","state_code":"NJ","zip5":"08036","latitude":"39.9755580000000000","longitude":"-74.837908000000000","publicwifi":"U","url":null,"broadband_type_id":6}
{"id":null,"anchorname":"JACKSON COUNTY UCHRA","address":"238-A NORTH GRUNDY QUARLES HIGHWAY GAINESBORO, TN 38562","bldgnbr":"238","predir":null,"streetname":"NORTH GRUNDY QUARLES HIGHWAY","streettype":null,"suffdir":null,"city":"GAINESBORO","state_code":"TN","zip5":"38562","latitude":"36.3604560000000000","longitude":"-85.653937000000000","publicwifi":"U","url":null,"broadband_type_id":1}
{"id":null,"anchorname":"JACKSON COUNTY EXTENSION","address":"757 GRUNDY QUARLES HWY. S. GAINESBORO, TN 38562","bldgnbr":"757","predir":null,"streetname":"GRUNDY QUARLES HWY. S.","streettype":null,"suffdir":null,"city":"GAINESBORO","state_code":"TN","zip5":"38562","latitude":"36.3369920000000000","longitude":"-85.656572000000000","publicwifi":"U","url":null,"broadband_type_id":1}
{"id":null,"anchorname":"JACKSON COUNTY ADULT EDUCATION","address":"711 SCHOOL DRIVE GAINESBORO, TN 38562","bldgnbr":"711","predir":null,"streetname":"SCHOOL DRIVE","streettype":null,"suffdir":null,"city":"GAINESBORO","state_code":"TN","zip5":"38562","latitude":"36.3469000000000000","longitude":"-85.657100000000000","publicwifi":"U","url":null,"broadband_type_id":6}
{"id":null,"anchorname":"GAINESBORO ELEMENTARY","address":"611 MAIN ST GAINESBORO, TN 38562","bldgnbr":"611","predir":null,"streetname":"MAIN ST","streettype":null,"suffdir":null,"city":"GAINESBORO","state_code":"TN","zip5":"38562","latitude":"36.3502070000000000","longitude":"-85.658302000000000","publicwifi":"U","url":null,"broadband_type_id":6}
{"id":null,"anchorname":"JACKSON COUNTY E911","address":"316 NORTH MURRAY STREET GAINESBORO, TN 38562","bldgnbr":"316","predir":null,"streetname":"NORTH MURRAY STREET","streettype":null,"suffdir":null,"city":"GAINESBORO","state_code":"TN","zip5":"38562","latitude":"36.3577040000000000","longitude":"-85.656293000000000","publicwifi":"U","url":null,"broadband_type_id":1}
{"id":null,"anchorname":"JACKSON COUNTY DHS","address":"307 SOUTH MURRAY STREET GAINESBORO, TN 38562","bldgnbr":"307","predir":null,"streetname":"SOUTH MURRAY STREET","streettype":null,"suffdir":null,"city":"GAINESBORO","state_code":"TN","zip5":"38562","latitude":"36.3548710000000000","longitude":"-85.656814000000000","publicwifi":"U","url":null,"broadband_type_id":6}
{"id":null,"anchorname":"JEFFERSON CITY P \u0026 P OFFICE","address":"665 EAST BROADWAY BOULEVARD JEFFERSON CITY, TN 37760","bldgnbr":"665","predir":null,"streetname":"EAST BROADWAY BOULEVARD","streettype":null,"suffdir":null,"city":"JEFFERSON CITY","state_code":"TN","zip5":"37760","latitude":"36.1286280000000000","longitude":"-83.463539000000000","publicwifi":"U","url":null,"broadband_type_id":1}
{"id":null,"anchorname":"TALBOTT ELEMENTARY","address":"848 TALBOTT KANSAS RD TALBOTT, TN 37877","bldgnbr":"848","predir":null,"streetname":"TALBOTT KANSAS RD","streettype":null,"suffdir":null,"city":"TALBOTT","state_code":"TN","zip5":"37877","latitude":"36.1351770000000000","longitude":"-83.404197000000000","publicwifi":"U","url":null,"broadband_type_id":6}
{"id":null,"anchorname":"HERITAGE CHRISTIAN ACADEMY","address":"316 WEST OLD ANDREW JOHNSON HW JEFFERSON CITY, TN 37760","bldgnbr":"316","predir":null,"streetname":"WEST OLD ANDREW JOHNSON HW","streettype":null,"suffdir":null,"city":"JEFFERSON CITY","state_code":"TN","zip5":"37760","latitude":"36.1187480000000000","longitude":"-83.505769000000000","publicwifi":"U","url":null,"broadband_type_id":6}
{"id":null,"anchorname":"BLUE SPRINGS CHRISTIAN ACADEMY","address":"3265 BLUE SPRINGS RD STRAWBERRY PLAINS, TN 37871","bldgnbr":"3265","predir":null,"streetname":"BLUE SPRINGS RD","streettype":null,"suffdir":null,"city":"STRAWBERRY PLAINS","state_code":"TN","zip5":"37871","latitude":"36.0575450000000000","longitude":"-83.646134000000000","publicwifi":"U","url":null,"broadband_type_id":6}
{"id":null,"anchorname":"RUSH STRONG ELEMENTARY","address":"3081 W OLD ANDREW JOHNSON HWY STRAWBERRY PLAINS, TN 37871","bldgnbr":"3081","predir":null,"streetname":"W OLD ANDREW JOHNSON HW","streettype":null,"suffdir":null,"city":"STRAWBERRY PLAINS","state_code":"TN","zip5":"37871","latitude":"36.0636500000000000","longitude":"-83.684609000000000","publicwifi":"U","url":null,"broadband_type_id":6}
{"id":null,"anchorname":"JEFFERSON ELEMENTARY","address":"321 W BROADWAY BL JEFFERSON CITY, TN 37760","bldgnbr":"321","predir":null,"streetname":"W BROADWAY BL","streettype":null,"suffdir":null,"city":"JEFFERSON CITY","state_code":"TN","zip5":"37760","latitude":"36.1111350000000000","longitude":"-83.509078000000000","publicwifi":"U","url":null,"broadband_type_id":6}
{"id":null,"anchorname":"JACKSON COUNTY HEALTH DEPARTMENT","address":"744 SCHOOL DRIVE GAINESBORO, TN 38562","bldgnbr":"744","predir":null,"streetname":"SCHOOL DRIVE","streettype":null,"suffdir":null,"city":"GAINESBORO","state_code":"TN","zip5":"38562","latitude":"36.3460120000000000","longitude":"-85.654737000000000","publicwifi":"U","url":null,"broadband_type_id":3}
{"id":null,"anchorname":"JACKSON COUNTY COURTHOUSE","address":"101 HULL AVENUE GAINESBORO, TN 38562","bldgnbr":"101","predir":null,"streetname":"HULL AVENUE","streettype":null,"suffdir":null,"city":"GAINESBORO","state_code":"TN","zip5":"38562","latitude":"36.3554640000000000","longitude":"-85.659162000000000","publicwifi":"U","url":null,"broadband_type_id":1}
{"id":null,"anchorname":"CHARLES RALPH HOLLAND MEMORIAL LIBRARY","address":"205 WEST HULL AVENUE GAINESBORO, TN 38562","bldgnbr":"205","predir":null,"streetname":"WEST HULL AVENUE","streettype":null,"suffdir":null,"city":"GAINESBORO","state_code":"TN","zip5":"38562","latitude":"36.3552650000000000","longitude":"-85.660254000000000","publicwifi":"U","url":null,"broadband_type_id":6}
{"id":null,"anchorname":"FAIRVIEW VOLUNTEER FIRE DEPT","address":"132 NEW HOPE RD. HILHAM, TN 38568","bldgnbr":"132","predir":null,"streetname":"NEW HOPE RD.","streettype":null,"suffdir":null,"city":"HILHAM","state_code":"TN","zip5":"38568","latitude":"36.3907000000000000","longitude":"-85.511700000000000","publicwifi":"U","url":null,"broadband_type_id":5}
{"id":null,"anchorname":"MABRY HEALTH CARE \u0026 REHAB CENTER","address":"1340 NORTH GRUNDY QUARLES HIGHWAY GAINESBORO, TN 38562","bldgnbr":"1340","predir":null,"streetname":"NORTH GRUNDY QUARLES HIGHWAY","streettype":null,"suffdir":null,"city":"GAINESBORO","state_code":"TN","zip5":"38562","latitude":"36.3868770000000000","longitude":"-85.636800000000000","publicwifi":"U","url":null,"broadband_type_id":3}
{"id":null,"anchorname":"WHITE PINE PUBLIC LIBRARY","address":"1708 MAIN STREET WHITE PINE, TN 37890","bldgnbr":"1708","predir":null,"streetname":"MAIN STREET","streettype":null,"suffdir":null,"city":"WHITE PINE","state_code":"TN","zip5":"37890","latitude":"36.1081340000000000","longitude":"-83.285821000000000","publicwifi":"U","url":null,"broadband_type_id":6}
{"id":null,"anchorname":"WHITE PINE VOLUNTEER FIRE DEPT","address":"3208 SCHOOL STREET WHITE PINE, TN 37890","bldgnbr":"3208","predir":null,"streetname":"SCHOOL STREET","streettype":null,"suffdir":null,"city":"WHITE PINE","state_code":"TN","zip5":"37890","latitude":"36.1081000000000000","longitude":"-83.287800000000000","publicwifi":"U","url":null,"broadband_type_id":5}
{"id":null,"anchorname":"BANEBERRY VOLUNTEER FIRE DEPT","address":"521 HARRISON FERRY RD. BANEBERRY, TN 37890","bldgnbr":"521","predir":null,"streetname":"HARRISON FERRY RD.","streettype":null,"suffdir":null,"city":"BANEBERRY","state_code":"TN","zip5":"37890","latitude":"36.0484000000000000","longitude":"-83.271200000000000","publicwifi":"U","url":null,"broadband_type_id":5}
{"id":null,"anchorname":"KANSAS TALBOTT VFD","address":"1352 TALBOTT KANSAS RD TALBOTT, TN 37877","bldgnbr":"1352","predir":null,"streetname":"TALBOTT KANSAS RD","streettype":null,"suffdir":null,"city":"TALBOTT","state_code":"TN","zip5":"37877","latitude":"36.1107000000000000","longitude":"-83.385200000000000","publicwifi":"U","url":null,"broadband_type_id":5}
{"id":null,"anchorname":"CARSON-NEWMAN COLLEGE","address":"1646 S RUSSELL AVE JEFFERSON CITY, TN 37760","bldgnbr":"1646","predir":null,"streetname":"S RUSSELL AVE","streettype":null,"suffdir":null,"city":"JEFFERSON CITY","state_code":"TN","zip5":"37760","latitude":"36.1222000000000000","longitude":"-83.490891000000000","publicwifi":"U","url":null,"broadband_type_id":6}
{"id":null,"anchorname":"JEFFERSON CITY PUBLIC LIBRARY","address":"1427 RUSSELL AVENUE JEFFERSON CITY, TN 37760","bldgnbr":"1427","predir":null,"streetname":"RUSSELL AVENUE","streettype":null,"suffdir":null,"city":"JEFFERSON CITY","state_code":"TN","zip5":"37760","latitude":"36.1168360000000000","longitude":"-83.494062000000000","publicwifi":"U","url":null,"broadband_type_id":6}
{"id":null,"anchorname":"JEFFERSON CITY POLICE DEPARTMENT","address":"112 WEST BROADWAY JEFFERSON CITY, TN 37760","bldgnbr":"112","predir":null,"streetname":"WEST BROADWAY","streettype":null,"suffdir":null,"city":"JEFFERSON CITY","state_code":"TN","zip5":"37760","latitude":"36.1147880000000000","longitude":"-83.494826000000000","publicwifi":"U","url":null,"broadband_type_id":4}
{"id":null,"anchorname":"LIFE CARE CENTER OF JEFFERSON CITY","address":"336 WEST OLD ANDREW JOHNSON HIGHWA JEFFERSON CITY, TN 37760","bldgnbr":"336","predir":null,"streetname":"WEST OLD ANDREW JOHNSON HIGHWA","streettype":null,"suffdir":null,"city":"JEFFERSON CITY","state_code":"TN","zip5":"37760","latitude":"36.1179340000000000","longitude":"-83.507100000000000","publicwifi":"U","url":null,"broadband_type_id":3}
{"id":null,"anchorname":"JEFFERSON CITY HEALTH AND REHABILITATION CENTER","address":"283 WEST BROADWAY BOULEVARD JEFFERSON CITY, TN 37760","bldgnbr":"283","predir":null,"streetname":"WEST BROADWAY BOULEVARD","streettype":null,"suffdir":null,"city":"JEFFERSON CITY","state_code":"TN","zip5":"37760","latitude":"36.1119780000000000","longitude":"-83.506600000000000","publicwifi":"U","url":null,"broadband_type_id":3}
{"id":null,"anchorname":"PARROTT-WOOD MEMORIAL LIBRARY","address":"3133 W OLD ANDREW JOHNSON HWY STRAWBERRY PLAINS, TN 37871-0399","bldgnbr":"3133","predir":null,"streetname":"W OLD ANDREW JOHNSON HWY","streettype":null,"suffdir":null,"city":"STRAWBERRY PLAINS","state_code":"TN","zip5":"37871","latitude":"36.0630750000000000","longitude":"-83.685919000000000","publicwifi":"U","url":null,"broadband_type_id":6}
{"id":null,"anchorname":"LAKEWAY CENTRAL VOLUNTEER FIRE DEPT","address":"1020 DEVOTIE ROAD JEFFERSON CITY, TN 37760","bldgnbr":"1020","predir":null,"streetname":"DEVOTIE ROAD","streettype":null,"suffdir":null,"city":"JEFFERSON CITY","state_code":"TN","zip5":"37760","latitude":"36.0953000000000000","longitude":"-83.476600000000000","publicwifi":"U","url":null,"broadband_type_id":5}
{"id":null,"anchorname":"JEFFERSON MIDDLE SCHOOL","address":"361 WEST BROADWAY BL JEFFERSON CITY, TN 37760","bldgnbr":"361","predir":null,"streetname":"WEST BROADWAY BL","streettype":null,"suffdir":null,"city":"JEFFERSON CITY","state_code":"TN","zip5":"37760","latitude":"36.1106100000000000","longitude":"-83.511218000000000","publicwifi":"U","url":null,"broadband_type_id":6}
{"id":null,"anchorname":"ST. MARY'S JEFFERSON MEMORIAL HOSPITAL ,INC.","address":"110 HOSPITAL DRIVE JEFFERSON CITY, TN 37760","bldgnbr":"110","predir":null,"streetname":"HOSPITAL DRIVE","streettype":null,"suffdir":null,"city":"JEFFERSON CITY","state_code":"TN","zip5":"37760","latitude":"36.1101200000000000","longitude":"-83.514000000000000","publicwifi":"U","url":null,"broadband_type_id":3}
{"id":null,"anchorname":"DCS - INTERNAL AFFAIRS OFFICE - NEW MARKET","address":"585 WEST HIGHWAY 11 EAST NEW MARKET, TN 37820","bldgnbr":"585","predir":null,"streetname":"WEST HIGHWAY 11 EAST","streettype":null,"suffdir":null,"city":"NEW MARKET","state_code":"TN","zip5":"37820","latitude":"36.1069230000000000","longitude":"-83.527521000000000","publicwifi":"U","url":null,"broadband_type_id":null}
{"id":null,"anchorname":"DCS - NEW MARKET OFFICE","address":"613 WEST HIGHWAY 11 EAST NEW MARKET, TN 37820","bldgnbr":"613","predir":null,"streetname":"WEST HIGHWAY 11 EAST","streettype":null,"suffdir":null,"city":"NEW MARKET","state_code":"TN","zip5":"37820","latitude":"36.1065780000000000","longitude":"-83.529066000000000","publicwifi":"U","url":null,"broadband_type_id":null}
{"id":null,"anchorname":"DA GENERAL OFFICE - DANDRIDGE","address":"1252 GAY STREET DANDRIDGE, TN 37725","bldgnbr":"1252","predir":null,"streetname":"GAY STREET","streettype":null,"suffdir":null,"city":"DANDRIDGE","state_code":"TN","zip5":"37725","latitude":"36.0143690000000000","longitude":"-83.414346000000000","publicwifi":"U","url":null,"broadband_type_id":null}
{"id":null,"anchorname":"TOWN OF DANDRIDGE","address":"131 EAST MAIN STREET DANDRIDGE, TN 37725","bldgnbr":"131","predir":null,"streetname":"EAST MAIN STREET","streettype":null,"suffdir":null,"city":"DANDRIDGE","state_code":"TN","zip5":"37725","latitude":"36.0155090000000000","longitude":"-83.413918000000000","publicwifi":"U","url":null,"broadband_type_id":null}
{"id":null,"anchorname":"TIMOTHY CHRISTIAN ACADEMY","address":"1341 Woodlane Rd Eastampton, NJ 08060-9640 United States","bldgnbr":"1341","predir":null,"streetname":"Woodlane Rd Eastampton","streettype":null,"suffdir":null,"city":"Eastampton","state_code":"NJ","zip5":"08060","latitude":"40.0024680000000000","longitude":"-74.753433000000000","publicwifi":"U","url":null,"broadband_type_id":6}
{"id":null,"anchorname":"MT  VIEW WAREHOUSE - DANDRIDGE","address":"839 DAWN LANE DANDRIDGE, TN 37725","bldgnbr":"839","predir":null,"streetname":"DAWN LANE","streettype":null,"suffdir":null,"city":"DANDRIDGE","state_code":"TN","zip5":"37725","latitude":"36.0289720000000000","longitude":"-83.421214000000000","publicwifi":"U","url":null,"broadband_type_id":null}
{"id":null,"anchorname":"MOUNTAINVIEW YOUTH DEVELOPMENT CENTER - DANDRIDGE","address":"809 PEAL LANE DANDRIDGE, TN 37725","bldgnbr":"809","predir":null,"streetname":"PEAL LANE","streettype":null,"suffdir":null,"city":"DANDRIDGE","state_code":"TN","zip5":"37725","latitude":"36.0311380000000000","longitude":"-83.416710000000000","publicwifi":"U","url":null,"broadband_type_id":2}
{"id":null,"anchorname":"DANDRIDGE ELEMENTARY","address":"780 S HIGHWAY 92 DANDRIDGE, TN 37725","bldgnbr":"780","predir":null,"streetname":"S HIGHWAY 92","streettype":null,"suffdir":null,"city":"DANDRIDGE","state_code":"TN","zip5":"37725","latitude":"36.0315070000000000","longitude":"-83.427921000000000","publicwifi":"U","url":null,"broadband_type_id":6}
{"id":null,"anchorname":"JEFFERSON CO. JUSTICE CENTER","address":"765 JUSTICE CENTER DRIVE DANDRIDGE, TN 37725","bldgnbr":"765","predir":null,"streetname":"JUSTICE CENTER DRIVE","streettype":null,"suffdir":null,"city":"DANDRIDGE","state_code":"TN","zip5":"37725","latitude":"36.0153840000000000","longitude":"-83.415808000000000","publicwifi":"U","url":null,"broadband_type_id":null}
{"id":null,"anchorname":"JEFFERSON COUNTY OFFICE - DHS","address":"1050 SOUTH HWY 92 DANDRIDGE, TN 37725","bldgnbr":"1050","predir":null,"streetname":"SOUTH HWY 92","streettype":null,"suffdir":null,"city":"DANDRIDGE","state_code":"TN","zip5":"37725","latitude":"36.0171750000000000","longitude":"-83.420911000000000","publicwifi":"U","url":null,"broadband_type_id":6}
{"id":null,"anchorname":"TDOT - JEFFERSON COUNTY MAINTENANCE GARAGE","address":"822 OLD HIGHWAY 92 DANDRIDGE, TN 37725","bldgnbr":"822","predir":null,"streetname":"OLD HIGHWAY 92","streettype":null,"suffdir":null,"city":"DANDRIDGE","state_code":"TN","zip5":"37725","latitude":"36.0278160000000000","longitude":"-83.429813000000000","publicwifi":"U","url":null,"broadband_type_id":1}
{"id":null,"anchorname":"TENNESSEE HIGHWAY PATROL - JEFFERSON CO. OFFICE","address":"816 OLD HIGHWAY 92 (DOT GARAGE) DANDRIDGE, TN 37725","bldgnbr":"816","predir":null,"streetname":"OLD HIGHWAY 92 (DOT GARAGE)","streettype":null,"suffdir":null,"city":"DANDRIDGE","state_code":"TN","zip5":"37725","latitude":"36.0276700000000000","longitude":"-83.429832000000000","publicwifi":"U","url":null,"broadband_type_id":4}
{"id":null,"anchorname":"DANDRIDGE HEAD START","address":"546 PATRIOT DR JEFFERSON CITY, TN 37760","bldgnbr":"546","predir":null,"streetname":"PATRIOT DR","streettype":null,"suffdir":null,"city":"JEFFERSON CITY","state_code":"TN","zip5":"37760","latitude":"36.0386750000000000","longitude":"-83.445599000000000","publicwifi":"U","url":null,"broadband_type_id":null}
{"id":null,"anchorname":"JEFFERSON COUNTY CLERK - DL","address":"214 WEST MAIN STREET DANDRIDGE, TN 37725","bldgnbr":"214","predir":null,"streetname":"WEST MAIN STREET","streettype":null,"suffdir":null,"city":"DANDRIDGE","state_code":"TN","zip5":"37725","latitude":"36.0154220000000000","longitude":"-83.416172000000000","publicwifi":"U","url":null,"broadband_type_id":1}
{"id":null,"anchorname":"DISTRICT PUBLIC DEFENDER OFFICE - DANDRIDGE","address":"1222 CIRCLE DRIVE DANDRIDGE, TN 37725","bldgnbr":"1222","predir":null,"streetname":"CIRCLE DRIVE","streettype":null,"suffdir":null,"city":"DANDRIDGE","state_code":"TN","zip5":"37725","latitude":"36.0142620000000000","longitude":"-83.415956000000000","publicwifi":"U","url":null,"broadband_type_id":6}
{"id":null,"anchorname":"JEFFERSON COUNTY ADULT EDUCATION","address":"201 WEST DUMPLIN VALLEY ROAD JEFFERSON CITY, TN 37760","bldgnbr":"201","predir":null,"streetname":"WEST DUMPLIN VALLEY ROAD","streettype":null,"suffdir":null,"city":"JEFFERSON CITY","state_code":"TN","zip5":"37760","latitude":"36.0501000000000000","longitude":"-83.472100000000000","publicwifi":"U","url":null,"broadband_type_id":6}
{"id":null,"anchorname":"COVENANT CHRISTIAN ACADEMY","address":"2223 CHESTNUT HILL SCHOOL RD DANDRIDGE, TN 37725","bldgnbr":"2223","predir":null,"streetname":"CHESTNUT HILL SCHOOL RD","streettype":null,"suffdir":null,"city":"DANDRIDGE","state_code":"TN","zip5":"37725","latitude":"35.9306720000000000","longitude":"-83.335944000000000","publicwifi":"U","url":null,"broadband_type_id":6}
{"id":null,"anchorname":"SHADY VALLEY ELEMENTARY","address":"423 HWY 133 SHADY VALLEY, TN 37683","bldgnbr":"423","predir":null,"streetname":"HWY 133","streettype":null,"suffdir":null,"city":"SHADY VALLEY","state_code":"TN","zip5":"37683","latitude":"36.6071240000000000","longitude":"-81.810259000000000","publicwifi":"U","url":null,"broadband_type_id":6}
{"id":null,"anchorname":"DOE ELEMENTARY","address":"7164 HIGHWAY 67 WEST MOUNTAIN CITY, TN 37683","bldgnbr":"7164","predir":null,"streetname":"HIGHWAY 67 WEST","streettype":null,"suffdir":null,"city":"MOUNTAIN CITY","state_code":"TN","zip5":"37683","latitude":"36.4413330000000000","longitude":"-81.908099000000000","publicwifi":"U","url":null,"broadband_type_id":6}
{"id":null,"anchorname":"JOHNSON CO. ELECTION OFFICE","address":"158 ELECTION AVENUE MOUNTAIN CITY, TN 37683","bldgnbr":"158","predir":null,"streetname":"ELECTION AVENUE","streettype":null,"suffdir":null,"city":"MOUNTAIN CITY","state_code":"TN","zip5":"37683","latitude":"36.4680020000000000","longitude":"-81.804278000000000","publicwifi":"U","url":null,"broadband_type_id":null}
{"id":null,"anchorname":"TDOT - JOHNSON COUNTY MAINTENANCE GARAGE","address":"250 DOTSON LANE MOUNTAIN CITY, TN 37688","bldgnbr":"250","predir":null,"streetname":"DOTSON LANE","streettype":null,"suffdir":null,"city":"MOUNTAIN CITY","state_code":"TN","zip5":"37688","latitude":"36.4384110000000000","longitude":"-81.799476000000000","publicwifi":"U","url":null,"broadband_type_id":1}
{"id":null,"anchorname":"ROAN CREEK ELEMENTARY","address":"2410 ROAN CREEK RD MOUNTAIN CITY, TN 37683","bldgnbr":"2410","predir":null,"streetname":"ROAN CREEK RD","streettype":null,"suffdir":null,"city":"MOUNTAIN CITY","state_code":"TN","zip5":"37683","latitude":"36.4178030000000000","longitude":"-81.835885000000000","publicwifi":"U","url":null,"broadband_type_id":6}
{"id":null,"anchorname":"JEFFERSON COUNTY NURSING HOME","address":"914 INDUSTRIAL PARK ROAD DANDRIDGE, TN 37725","bldgnbr":"914","predir":null,"streetname":"INDUSTRIAL PARK ROAD","streettype":null,"suffdir":null,"city":"DANDRIDGE","state_code":"TN","zip5":"37725","latitude":"36.0292360000000000","longitude":"-83.429000000000000","publicwifi":"U","url":null,"broadband_type_id":3}
{"id":null,"anchorname":"JEFFERSON COUNTY COURTHOUSE","address":"202 WEST MAIN STREET DANDRIDGE, TN 37725","bldgnbr":"202","predir":null,"streetname":"WEST MAIN STREET","streettype":null,"suffdir":null,"city":"DANDRIDGE","state_code":"TN","zip5":"37725","latitude":"36.0151290000000000","longitude":"-83.415870000000000","publicwifi":"U","url":null,"broadband_type_id":1}
{"id":null,"anchorname":"DANDRIDGE MEMORIAL LIBRARY","address":"1235 CIRCLE DRIVE DANDRIDGE, TN 37725","bldgnbr":"1235","predir":null,"streetname":"CIRCLE DRIVE","streettype":null,"suffdir":null,"city":"DANDRIDGE","state_code":"TN","zip5":"37725","latitude":"36.0140800000000000","longitude":"-83.415398000000000","publicwifi":"U","url":null,"broadband_type_id":6}
{"id":null,"anchorname":"JEFFERSON COUNTY ADULT HIGH SCHOOL","address":"201 WEST DUMPLIN VALLEY RD DANDRIDGE, TN 37725","bldgnbr":"201","predir":null,"streetname":"WEST DUMPLIN VALLEY RD","streettype":null,"suffdir":null,"city":"DANDRIDGE","state_code":"TN","zip5":"37725","latitude":"36.0509540000000000","longitude":"-83.471321000000000","publicwifi":"U","url":null,"broadband_type_id":6}
{"id":null,"anchorname":"JEFFERSON CO HIGH SCHOOL","address":"115 W DUMPLIN VALLEY RD DANDRIDGE, TN 37725","bldgnbr":"115","predir":null,"streetname":"W DUMPLIN VALLEY RD","streettype":null,"suffdir":null,"city":"DANDRIDGE","state_code":"TN","zip5":"37725","latitude":"36.0538170000000000","longitude":"-83.466698000000000","publicwifi":"U","url":null,"broadband_type_id":6}
{"id":null,"anchorname":"RURAL MEDICAL SERVICES Ã› CHESTNUT HILL","address":"3885 HWY 411 DANDRIDGE, TN 37725","bldgnbr":"3885","predir":null,"streetname":"HWY 411","streettype":null,"suffdir":null,"city":"DANDRIDGE","state_code":"TN","zip5":"37725","latitude":"35.9336460000000000","longitude":"-83.330300000000000","publicwifi":"U","url":null,"broadband_type_id":3}
{"id":null,"anchorname":"SHADY VALLEY VOLUNTEER FIRE DEPT","address":"10114 HIGHWAY 421 N. SHADY VALLEY, TN 37688","bldgnbr":"10114","predir":null,"streetname":"HIGHWAY 421 N.","streettype":null,"suffdir":null,"city":"SHADY VALLEY","state_code":"TN","zip5":"37688","latitude":"36.5216000000000000","longitude":"-81.932800000000000","publicwifi":"U","url":null,"broadband_type_id":5}
{"id":null,"anchorname":"DOE VALLEY VOLUNTEER FIRE DEPT","address":"283 SLABTOWN ROAD MOUNTAIN CITY, TN 37683","bldgnbr":"283","predir":null,"streetname":"SLABTOWN ROAD","streettype":null,"suffdir":null,"city":"MOUNTAIN CITY","state_code":"TN","zip5":"37683","latitude":"36.4506000000000000","longitude":"-81.899400000000000","publicwifi":"U","url":null,"broadband_type_id":5}
{"id":null,"anchorname":"DRY RUN VOLUNTEER FIRE DEPT","address":"5646 BIG DRY RUN ROAD BUTLER, TN 37640","bldgnbr":"5646","predir":null,"streetname":"BIG DRY RUN ROAD","streettype":null,"suffdir":null,"city":"BUTLER","state_code":"TN","zip5":"37640","latitude":"36.3368000000000000","longitude":"-81.906600000000000","publicwifi":"U","url":null,"broadband_type_id":5}
{"id":null,"anchorname":"JOHNSON COUNTY HEALTH DEPARTMENT","address":"715 WEST MAIN STREET MOUNTAIN CITY, TN 37683","bldgnbr":"715","predir":null,"streetname":"WEST MAIN STREET","streettype":null,"suffdir":null,"city":"MOUNTAIN CITY","state_code":"TN","zip5":"37683","latitude":"36.4766830000000000","longitude":"-81.812337000000000","publicwifi":"U","url":null,"broadband_type_id":3}
{"id":null,"anchorname":"JOHNSON CO HIGH SCHOOL","address":"510 FAIRGROUND LA MOUNTAIN CITY, TN 37683","bldgnbr":"510","predir":null,"streetname":"FAIRGROUND LA","streettype":null,"suffdir":null,"city":"MOUNTAIN CITY","state_code":"TN","zip5":"37683","latitude":"36.4808360000000000","longitude":"-81.799271000000000","publicwifi":"U","url":null,"broadband_type_id":6}
{"id":null,"anchorname":"JOHNSON CO MIDDLE SCHOOL","address":"500 FAIRGROUND LA MOUNTAIN CITY, TN 37683","bldgnbr":"500","predir":null,"streetname":"FAIRGROUND LA","streettype":null,"suffdir":null,"city":"MOUNTAIN CITY","state_code":"TN","zip5":"37683","latitude":"36.4807720000000000","longitude":"-81.799323000000000","publicwifi":"U","url":null,"broadband_type_id":6}
{"id":null,"anchorname":"KNOXVILLE SUPREME COURT","address":"501 WEST MAIN STREET KNOXVILLE, TN 37902","bldgnbr":"501","predir":null,"streetname":"WEST MAIN STREET","streettype":null,"suffdir":null,"city":"KNOXVILLE","state_code":"TN","zip5":"37902","latitude":"35.9609500000000000","longitude":"-83.918416000000000","publicwifi":"U","url":null,"broadband_type_id":1}
{"id":null,"anchorname":"CVS/PHARMACY #2094","address":"71 SPRINGSIDE ROAD","bldgnbr":"71","predir":null,"streetname":"SPRINGSIDE ROAD","streettype":null,"suffdir":null,"city":"WESTAMPTON","state_code":"NJ","zip5":"08060","latitude":"40.0233000000000000","longitude":"-74.857100000000000","publicwifi":"U","url":null,"broadband_type_id":3}
{"id":null,"anchorname":"JOHNSON COUNTY ADULT EDUCATION","address":"211 NORTH CHURCH STREET MOUNTAIN CITY, TN 37683","bldgnbr":"211","predir":null,"streetname":"NORTH CHURCH STREET","streettype":null,"suffdir":null,"city":"MOUNTAIN CITY","state_code":"TN","zip5":"37683","latitude":"36.4758000000000000","longitude":"-81.803900000000000","publicwifi":"U","url":null,"broadband_type_id":6}
{"id":null,"anchorname":"JOHNSON COUNTY ASSESSORS OFFICE","address":"210 COLLEGE STREET MOUNTAIN CITY, TN 37683","bldgnbr":"210","predir":null,"streetname":"COLLEGE STREET","streettype":null,"suffdir":null,"city":"MOUNTAIN CITY","state_code":"TN","zip5":"37683","latitude":"36.4762430000000000","longitude":"-81.805459000000000","publicwifi":"U","url":null,"broadband_type_id":6}
{"id":null,"anchorname":"JOHNSON COUNTY EXTENSION","address":"212 COLLEGE STREET MOUNTAIN CITY, TN 37683","bldgnbr":"212","predir":null,"streetname":"COLLEGE STREET","streettype":null,"suffdir":null,"city":"MOUNTAIN CITY","state_code":"TN","zip5":"37683","latitude":"36.4762430000000000","longitude":"-81.805459000000000","publicwifi":"U","url":null,"broadband_type_id":1}
{"id":null,"anchorname":"JOHNSON COUNTY","address":"222 WEST MAIN STREET MOUNTAIN CITY, TN 37683","bldgnbr":"222","predir":null,"streetname":"WEST MAIN STREET","streettype":null,"suffdir":null,"city":"MOUNTAIN CITY","state_code":"TN","zip5":"37683","latitude":"36.4756760000000000","longitude":"-81.806277000000000","publicwifi":"U","url":null,"broadband_type_id":1}
{"id":null,"anchorname":"JOHNSON COUNTY CLERK'S OFFICE DL","address":"222 WEST MAIN STREET MOUNTAIN CITY, TN 37683","bldgnbr":"222","predir":null,"streetname":"WEST MAIN STREET","streettype":null,"suffdir":null,"city":"MOUNTAIN CITY","state_code":"TN","zip5":"37683","latitude":"36.4750600000000000","longitude":"-81.806011000000000","publicwifi":"U","url":null,"broadband_type_id":1}
{"id":null,"anchorname":"LAUREL ELEMENTARY","address":"300 GENTRY CREEK RD LAUREL BLOOMERY, TN 37680","bldgnbr":"300","predir":null,"streetname":"GENTRY CREEK RD","streettype":null,"suffdir":null,"city":"LAUREL BLOOMERY","state_code":"TN","zip5":"37680","latitude":"36.5657170000000000","longitude":"-81.756032000000000","publicwifi":"U","url":null,"broadband_type_id":6}
{"id":null,"anchorname":"LABOR \u0026 WORKFORCE - MOUNTAIN CITY","address":"358 HOSPITAL ROAD MOUNTAIN CITY, TN 37683","bldgnbr":"358","predir":null,"streetname":"HOSPITAL ROAD","streettype":null,"suffdir":null,"city":"MOUNTAIN CITY","state_code":"TN","zip5":"37683","latitude":"36.5046170000000000","longitude":"-81.826134000000000","publicwifi":"U","url":null,"broadband_type_id":2}
{"id":null,"anchorname":"JOHNSON CO. DHS","address":"370 COLD SPRINGS ROAD MOUNTAIN CITY, TN 37683","bldgnbr":"370","predir":null,"streetname":"COLD SPRINGS ROAD","streettype":null,"suffdir":null,"city":"MOUNTAIN CITY","state_code":"TN","zip5":"37683","latitude":"36.4909540000000000","longitude":"-81.812019000000000","publicwifi":"U","url":null,"broadband_type_id":6}
{"id":null,"anchorname":"KNOXVILLE HUB","address":"531 HENLEY STREET KNOXVILLE, TN 37902","bldgnbr":"531","predir":null,"streetname":"HENLEY STREET","streettype":null,"suffdir":null,"city":"KNOXVILLE","state_code":"TN","zip5":"37902","latitude":"35.9627480000000000","longitude":"-83.922328000000000","publicwifi":"U","url":null,"broadband_type_id":null}
{"id":null,"anchorname":"FBI OFFICE - KNOXVILLE","address":"710 LOCUST STREET KNOXVILLE, TN 37902","bldgnbr":"710","predir":null,"streetname":"LOCUST STREET","streettype":null,"suffdir":null,"city":"KNOXVILLE","state_code":"TN","zip5":"37902","latitude":"35.9621190000000000","longitude":"-83.920332000000000","publicwifi":"U","url":null,"broadband_type_id":null}
{"id":null,"anchorname":"EAST TENNESSEE HISTORY CENTER","address":"601 S. GAY STREET KNOXVILLE, TN 37902","bldgnbr":"601","predir":null,"streetname":"S. GAY STREET","streettype":null,"suffdir":null,"city":"KNOXVILLE","state_code":"TN","zip5":"37902","latitude":"35.9643010000000000","longitude":"-83.917730000000000","publicwifi":"U","url":null,"broadband_type_id":6}
{"id":null,"anchorname":"KNOX COUNTY CHILD SUPPORT","address":"507 SOUTH GAY STREET KNOXVILLE, TN 37902","bldgnbr":"507","predir":null,"streetname":"SOUTH GAY STREET","streettype":null,"suffdir":null,"city":"KNOXVILLE","state_code":"TN","zip5":"37902","latitude":"35.9652030000000000","longitude":"-83.918290000000000","publicwifi":"U","url":null,"broadband_type_id":1}
{"id":null,"anchorname":"4TH CIRCUIT \u0026 CHANCERY - KNOXVILLE","address":"400 MAIN STREET KNOXVILLE, TN 37902","bldgnbr":"400","predir":null,"streetname":"MAIN STREET","streettype":null,"suffdir":null,"city":"KNOXVILLE","state_code":"TN","zip5":"37902","latitude":"35.9613270000000000","longitude":"-83.917301000000000","publicwifi":"U","url":null,"broadband_type_id":null}
{"id":null,"anchorname":"MCCLUNG, E.TN HISTORY CENTER \u0026 KNOX ARCHIVES","address":"601 SOUTH GAY STREET KNOXVILLE, TN 37902-2505","bldgnbr":"601","predir":null,"streetname":"SOUTH GAY STREET","streettype":null,"suffdir":null,"city":"KNOXVILLE","state_code":"TN","zip5":"37902","latitude":"35.9642320000000000","longitude":"-83.917775000000000","publicwifi":"U","url":null,"broadband_type_id":6}
{"id":null,"anchorname":"KNOX COUNTY - OFFICE OF INFORMATION TECHNOLOGY","address":"400 MAIN STREET KNOXVILLE, TN 37902","bldgnbr":"400","predir":null,"streetname":"MAIN STREET","streettype":null,"suffdir":null,"city":"KNOXVILLE","state_code":"TN","zip5":"37902","latitude":"35.9609100000000000","longitude":"-83.917204000000000","publicwifi":"U","url":null,"broadband_type_id":1}
{"id":null,"anchorname":"MTN. CITY EXTENDED HOURS HEALTH CENTER","address":"1901 S. SHADY STREET MOUNTAIN CITY, TN 37683","bldgnbr":"1901","predir":null,"streetname":"S. SHADY STREET","streettype":null,"suffdir":null,"city":"MOUNTAIN CITY","state_code":"TN","zip5":"37683","latitude":"36.4530820000000000","longitude":"-81.797096000000000","publicwifi":"U","url":null,"broadband_type_id":3}
{"id":null,"anchorname":"JOHNSON COUNTY HEALTH CENTER","address":"1901 SOUTH SHADY STREET MOUNTAIN CIT, TN 37683","bldgnbr":"1901","predir":null,"streetname":"SOUTH SHADY STREET","streettype":null,"suffdir":null,"city":"MOUNTAIN CIT","state_code":"TN","zip5":"37683","latitude":"36.4490080000000000","longitude":"-81.797500000000000","publicwifi":"U","url":null,"broadband_type_id":3}
{"id":null,"anchorname":"JOHNSON COUNTY PUBLIC LIBRARY","address":"219 NORTH CHURCH STREET MOUNTAIN CITY, TN 37683","bldgnbr":"219","predir":null,"streetname":"NORTH CHURCH STREET","streettype":null,"suffdir":null,"city":"MOUNTAIN CITY","state_code":"TN","zip5":"37683","latitude":"36.4758110000000000","longitude":"-81.803885000000000","publicwifi":"U","url":null,"broadband_type_id":6}
{"id":null,"anchorname":"FIRST DISTRICT VOLUNTEER FIRE DEPT","address":"7176 HIGHWAY 91 NORTH LAUREL BLOOMERY, TN 37680","bldgnbr":"7176","predir":null,"streetname":"HIGHWAY 91 NORTH","streettype":null,"suffdir":null,"city":"LAUREL BLOOMERY","state_code":"TN","zip5":"37680","latitude":"36.5671000000000000","longitude":"-81.759400000000000","publicwifi":"U","url":null,"broadband_type_id":5}
{"id":null,"anchorname":"TN CAREER CENTER - MOUNTAIN CITY","address":"358 HOSPITAL ROAD MOUNTAIN CITY, TN 37683","bldgnbr":"358","predir":null,"streetname":"HOSPITAL ROAD","streettype":null,"suffdir":null,"city":"MOUNTAIN CITY","state_code":"TN","zip5":"37683","latitude":"36.5046000000000000","longitude":"-81.826100000000000","publicwifi":"U","url":null,"broadband_type_id":3}
{"id":null,"anchorname":"SECOND DISTRICT VOLUNTEER FIRE DEPT","address":"1018 JENKINS HOLLOW RD. MOUNTAIN CITY, TN 37683","bldgnbr":"1018","predir":null,"streetname":"JENKINS HOLLOW RD.","streettype":null,"suffdir":null,"city":"MOUNTAIN CITY","state_code":"TN","zip5":"37683","latitude":"36.5094000000000000","longitude":"-81.810600000000000","publicwifi":"U","url":null,"broadband_type_id":5}
{"id":null,"anchorname":"TN VALLEY AUTHORITY POLICE - KNOXVILLE","address":"400 WEST SUMMITT HILL DRIVE KNOXVILLE, TN 37902","bldgnbr":"400","predir":null,"streetname":"WEST SUMMITT HILL DRIVE","streettype":null,"suffdir":null,"city":"KNOXVILLE","state_code":"TN","zip5":"37902","latitude":"35.9668220000000000","longitude":"-83.920511000000000","publicwifi":"U","url":null,"broadband_type_id":4}
{"id":null,"anchorname":"LINCOLN MEMORIAL DUNCAN SCHOOL OF LAW","address":"601 WEST SUMMIT HILL DRIVE KNOXVILLE, TN 37902","bldgnbr":"601","predir":null,"streetname":"WEST SUMMIT HILL DRIVE","streettype":null,"suffdir":null,"city":"KNOXVILLE","state_code":"TN","zip5":"37902","latitude":"35.9653800000000000","longitude":"-83.923326000000000","publicwifi":"U","url":null,"broadband_type_id":6}
{"id":null,"anchorname":"KNOX COUNTY PUBLIC LIBRARY","address":"500 W CHURCH AVE KNOXVILLE, TN 37902","bldgnbr":"500","predir":null,"streetname":"W CHURCH AVE","streettype":null,"suffdir":null,"city":"KNOXVILLE","state_code":"TN","zip5":"37902","latitude":"35.9626390000000000","longitude":"-83.919323000000000","publicwifi":"U","url":null,"broadband_type_id":6}
{"id":null,"anchorname":"THE UNIVERSITY OF TENNESSEE INSTITUTE FOR PUBLIC SERVICE","address":"105 STUDENT SERVICES BUILDING KNOXVILLE, TN 37996","bldgnbr":"105","predir":null,"streetname":"STUDENT SERVICES BUILDING","streettype":null,"suffdir":null,"city":"KNOXVILLE","state_code":"TN","zip5":"37996","latitude":"35.9614000000000000","longitude":"-83.920200000000000","publicwifi":"U","url":null,"broadband_type_id":6}
{"id":null,"anchorname":"BAPTIST HOSPITAL OF EAST TENNESSEE","address":"137 BLOUNT AVENUE KNOXVILLE, TN 37920","bldgnbr":"137","predir":null,"streetname":"BLOUNT AVENUE","streettype":null,"suffdir":null,"city":"KNOXVILLE","state_code":"TN","zip5":"37920","latitude":"35.9556040000000000","longitude":"-83.914700000000000","publicwifi":"U","url":null,"broadband_type_id":3}
{"id":null,"anchorname":"THE UNIVERSITY OF TENNESSEE","address":"527 ANDY HOLT TOWER KNOXVILLE, TN 37996","bldgnbr":"527","predir":null,"streetname":"ANDY HOLT TOWER","streettype":null,"suffdir":null,"city":"KNOXVILLE","state_code":"TN","zip5":"37996","latitude":"35.9571000000000000","longitude":"-83.925767000000000","publicwifi":"U","url":null,"broadband_type_id":6}
{"id":null,"anchorname":"KNOX COUNTY REGISTER OF DEEDS","address":"400 MAIN AVENUE KNOXVILLE, TN 37902","bldgnbr":"400","predir":null,"streetname":"MAIN AVENUE","streettype":null,"suffdir":null,"city":"KNOXVILLE","state_code":"TN","zip5":"37902","latitude":"35.9607940000000000","longitude":"-83.917446000000000","publicwifi":"U","url":null,"broadband_type_id":6}
{"id":null,"anchorname":"6TH JUDICAL DISTRICT - KNOXVILLE","address":"300 WEST MAIN STREET KNOXVILLE, TN 37902","bldgnbr":"300","predir":null,"streetname":"WEST MAIN STREET","streettype":null,"suffdir":null,"city":"KNOXVILLE","state_code":"TN","zip5":"37902","latitude":"35.9617500000000000","longitude":"-83.916222000000000","publicwifi":"U","url":null,"broadband_type_id":6}
{"id":null,"anchorname":"CITY OF KNOXVILLE","address":"400 MAIN STREET KNOXVILLE, TN 37902","bldgnbr":"400","predir":null,"streetname":"MAIN STREET","streettype":null,"suffdir":null,"city":"KNOXVILLE","state_code":"TN","zip5":"37902","latitude":"35.9609100000000000","longitude":"-83.917204000000000","publicwifi":"U","url":null,"broadband_type_id":1}
{"id":null,"anchorname":"SOUTH KNOXVILLE ELEMENTARY","address":"801 SEVIER AV KNOXVILLE, TN 37920","bldgnbr":"801","predir":null,"streetname":"SEVIER AV","streettype":null,"suffdir":null,"city":"KNOXVILLE","state_code":"TN","zip5":"37920","latitude":"35.9536370000000000","longitude":"-83.895885000000000","publicwifi":"U","url":null,"broadband_type_id":6}
{"id":null,"anchorname":"HILLCREST SOUTH","address":"1758 HILLWOOD DRIVE KNOXVILLE, TN 37920","bldgnbr":"1758","predir":null,"streetname":"HILLWOOD DRIVE","streettype":null,"suffdir":null,"city":"KNOXVILLE","state_code":"TN","zip5":"37920","latitude":"35.9577300000000000","longitude":"-83.892600000000000","publicwifi":"U","url":null,"broadband_type_id":6}
{"id":null,"anchorname":"UT KNOXVILLE STOKELY MGMT CENTER","address":"915 VOLUNTEER BOULEVARD KNOXVILLE, TN 37996","bldgnbr":"915","predir":null,"streetname":"VOLUNTEER BOULEVARD","streettype":null,"suffdir":null,"city":"KNOXVILLE","state_code":"TN","zip5":"37996","latitude":"35.9562750000000000","longitude":"-83.930950000000000","publicwifi":"U","url":null,"broadband_type_id":null}
{"id":null,"anchorname":"LOURDES IMAGING CENTER","address":"231 Van Sciver Pkwy Willingboro, NJ 08046-1132 United States","bldgnbr":"231","predir":null,"streetname":"Van Sciver Pkwy Willingboro","streettype":null,"suffdir":null,"city":"Willingboro","state_code":"NJ","zip5":"08046","latitude":"40.0423010000000000","longitude":"-74.878952000000000","publicwifi":"U","url":null,"broadband_type_id":6}
{"id":null,"anchorname":"BEAUMONT ELEMENTARY/MAGNET","address":"1211 BEAUMONT AV KNOXVILLE, TN 37921","bldgnbr":"1211","predir":null,"streetname":"BEAUMONT AV","streettype":null,"suffdir":null,"city":"KNOXVILLE","state_code":"TN","zip5":"37921","latitude":"35.9758440000000000","longitude":"-83.940971000000000","publicwifi":"U","url":null,"broadband_type_id":6}
{"id":null,"anchorname":"KNOXVILLE P \u0026 P OFFICE","address":"1426 ELM STREET KNOXVILLE, TN 37921","bldgnbr":"1426","predir":null,"streetname":"ELM STREET","streettype":null,"suffdir":null,"city":"KNOXVILLE","state_code":"TN","zip5":"37921","latitude":"35.9790980000000000","longitude":"-83.938714000000000","publicwifi":"U","url":null,"broadband_type_id":null}
{"id":null,"anchorname":"CHRISTENBERRY ELEMENTARY","address":"927 OGLEWOOD KNOXVILLE, TN 37917","bldgnbr":"927","predir":null,"streetname":"OGLEWOOD","streettype":null,"suffdir":null,"city":"KNOXVILLE","state_code":"TN","zip5":"37917","latitude":"35.9951060000000000","longitude":"-83.929523000000000","publicwifi":"U","url":null,"broadband_type_id":6}
{"id":null,"anchorname":"ST. MARY'S AMBULATORY SURGERY CENTER","address":"1515 ST. MARY'S STREET KNOXVILLE, TN 37917","bldgnbr":"1515","predir":null,"streetname":"ST. MARY'S STREET","streettype":null,"suffdir":null,"city":"KNOXVILLE","state_code":"TN","zip5":"37917","latitude":"35.9914090000000000","longitude":"-83.924300000000000","publicwifi":"U","url":null,"broadband_type_id":null}
{"id":null,"anchorname":"AUSTIN EAST HIGH/MAGNET","address":"2800 M L KING JR AV KNOXVILLE, TN 37914","bldgnbr":"2800","predir":null,"streetname":"M L KING JR AV","streettype":null,"suffdir":null,"city":"KNOXVILLE","state_code":"TN","zip5":"37914","latitude":"35.9890520000000000","longitude":"-83.888405000000000","publicwifi":"U","url":null,"broadband_type_id":6}
{"id":null,"anchorname":"KNOX COUNTY CLERK DL OFFICE","address":"2364 MARTIN LUTHER KING JR. BOULEVARD KNOXVILLE, TN 37915","bldgnbr":"2364","predir":null,"streetname":"MARTIN LUTHER KING JR. BOULEVARD","streettype":null,"suffdir":null,"city":"KNOXVILLE","state_code":"TN","zip5":"37915","latitude":"35.9808070000000000","longitude":"-83.896176000000000","publicwifi":"U","url":null,"broadband_type_id":1}
{"id":null,"anchorname":"SARAH MOORE GREENE ELEMENTARY / MAGNET","address":"3001 BROOKS RD KNOXVILLE, TN 37914","bldgnbr":"3001","predir":null,"streetname":"BROOKS RD","streettype":null,"suffdir":null,"city":"KNOXVILLE","state_code":"TN","zip5":"37914","latitude":"35.9804550000000000","longitude":"-83.876012000000000","publicwifi":"U","url":null,"broadband_type_id":6}
{"id":null,"anchorname":"DOGWOOD ELEMENTARY","address":"705 TIPTON AV KNOXVILLE, TN 37920","bldgnbr":"705","predir":null,"streetname":"TIPTON AV","streettype":null,"suffdir":null,"city":"KNOXVILLE","state_code":"TN","zip5":"37920","latitude":"35.9463140000000000","longitude":"-83.902410000000000","publicwifi":"U","url":null,"broadband_type_id":6}
{"id":null,"anchorname":"KNOX COUNTY JUVENILE COURT","address":"3323 DIVISION STREET KNOXVILLE, TN 37919","bldgnbr":"3323","predir":null,"streetname":"DIVISION STREET","streettype":null,"suffdir":null,"city":"KNOXVILLE","state_code":"TN","zip5":"37919","latitude":"35.9553290000000000","longitude":"-83.961476000000000","publicwifi":"U","url":null,"broadband_type_id":1}
{"id":null,"anchorname":"KNOXVILLE VET CENTER","address":"2817 EAST MAGNOLIA BOULEVARD KNOXVILLE, TN 37914","bldgnbr":"2817","predir":null,"streetname":"EAST MAGNOLIA BOULEVARD","streettype":null,"suffdir":null,"city":"KNOXVILLE","state_code":"TN","zip5":"37914","latitude":"35.9906450000000000","longitude":"-83.890456000000000","publicwifi":"U","url":null,"broadband_type_id":null}
{"id":null,"anchorname":"TENNESSEE TECHNOLOGY CENTER - KNOXVILLE","address":"1100 LIBERTY STREET KNOXVILLE, TN 37919","bldgnbr":"1100","predir":null,"streetname":"LIBERTY STREET","streettype":null,"suffdir":null,"city":"KNOXVILLE","state_code":"TN","zip5":"37919","latitude":"35.9575000000000000","longitude":"-83.965500000000000","publicwifi":"U","url":null,"broadband_type_id":6}
{"id":null,"anchorname":"TN INFANT PARENT SV","address":"2726 ISLAND HOME BL KNOXVILLE, TN 37920","bldgnbr":"2726","predir":null,"streetname":"ISLAND HOME BL","streettype":null,"suffdir":null,"city":"KNOXVILLE","state_code":"TN","zip5":"37920","latitude":"35.9590870000000000","longitude":"-83.879877000000000","publicwifi":"U","url":null,"broadband_type_id":null}
{"id":null,"anchorname":"CHILDHELP USA - DCS - KNOXVILLE","address":"2505 KINGSTON PIKE KNOXVILLE, TN 37919","bldgnbr":"2505","predir":null,"streetname":"KINGSTON PIKE","streettype":null,"suffdir":null,"city":"KNOXVILLE","state_code":"TN","zip5":"37919","latitude":"35.9521270000000000","longitude":"-83.944307000000000","publicwifi":"U","url":null,"broadband_type_id":null}
{"id":null,"anchorname":"VETERANS AFFAIRS","address":"601 CONCORD STREET KNOXVILLE, TN 37919","bldgnbr":"601","predir":null,"streetname":"CONCORD STREET","streettype":null,"suffdir":null,"city":"KNOXVILLE","state_code":"TN","zip5":"37919","latitude":"35.9527260000000000","longitude":"-83.947511000000000","publicwifi":"U","url":null,"broadband_type_id":null}
{"id":null,"anchorname":"TEMA KNOXVILLE","address":"803 N. CONCORD DRIVE KNOXVILLE, TN 37919","bldgnbr":"803","predir":null,"streetname":"N. CONCORD DRIVE","streettype":null,"suffdir":null,"city":"KNOXVILLE","state_code":"TN","zip5":"37919","latitude":"35.9601090000000000","longitude":"-83.953602000000000","publicwifi":"U","url":null,"broadband_type_id":null}
{"id":null,"anchorname":"F C A KNOXVILLE","address":"704 WASHBURN RD KNOXVILLE, TN 37919","bldgnbr":"704","predir":null,"streetname":"WASHBURN RD","streettype":null,"suffdir":null,"city":"KNOXVILLE","state_code":"TN","zip5":"37919","latitude":"35.9501710000000000","longitude":"-83.975322000000000","publicwifi":"U","url":null,"broadband_type_id":null}
{"id":null,"anchorname":"UT PARKING SERVICES - KNOXVILLE","address":"2121 STEPHENSON DRIVE KNOXVILLE, TN 37996","bldgnbr":"2121","predir":null,"streetname":"STEPHENSON DRIVE","streettype":null,"suffdir":null,"city":"KNOXVILLE","state_code":"TN","zip5":"37996","latitude":"35.9460210000000000","longitude":"-83.929442000000000","publicwifi":"U","url":null,"broadband_type_id":2}
{"id":null,"anchorname":"FULTON HIGH SCHOOL","address":"2509 NORTH BROADWAY KNOXVILLE, TN 37917","bldgnbr":"2509","predir":null,"streetname":"NORTH BROADWAY","streettype":null,"suffdir":null,"city":"KNOXVILLE","state_code":"TN","zip5":"37917","latitude":"35.9951040000000000","longitude":"-83.921737000000000","publicwifi":"U","url":null,"broadband_type_id":6}
{"id":null,"anchorname":"ST  MARY'S HOSPITAL - KNOXVILLE","address":"900 EAST OAK HILL AVENUE KNOXVILLE, TN 37917","bldgnbr":"900","predir":null,"streetname":"EAST OAK HILL AVENUE","streettype":null,"suffdir":null,"city":"KNOXVILLE","state_code":"TN","zip5":"37917","latitude":"35.9922100000000000","longitude":"-83.928129000000000","publicwifi":"U","url":null,"broadband_type_id":3}
{"id":null,"anchorname":"ST. MARY'S HEALTH SYSTEM","address":"900 EAST OAK HILL AVENUE KNOXVILLE, TN 37917","bldgnbr":"900","predir":null,"streetname":"EAST OAK HILL AVENUE","streettype":null,"suffdir":null,"city":"KNOXVILLE","state_code":"TN","zip5":"37917","latitude":"35.9921410000000000","longitude":"-83.928100000000000","publicwifi":"U","url":null,"broadband_type_id":3}
{"id":null,"anchorname":"NORTH KNOXVILLE BRANCH LIBRARY","address":"2901 OCOEE TRAIL KNOXVILLE, TN 37917-3260","bldgnbr":"2901","predir":null,"streetname":"OCOEE TRAIL","streettype":null,"suffdir":null,"city":"KNOXVILLE","state_code":"TN","zip5":"37917","latitude":"36.0008170000000000","longitude":"-83.922643000000000","publicwifi":"U","url":null,"broadband_type_id":6}
{"id":null,"anchorname":"BEREAN CHRISTIAN SCHOOL","address":"2329 PROSSER RD KNOXVILLE, TN 37914","bldgnbr":"2329","predir":null,"streetname":"PROSSER RD","streettype":null,"suffdir":null,"city":"KNOXVILLE","state_code":"TN","zip5":"37914","latitude":"36.0104190000000000","longitude":"-83.892639000000000","publicwifi":"U","url":null,"broadband_type_id":6}
{"id":null,"anchorname":"HOLSTON HEALTH \u0026 REHABILITATION CENTER","address":"3916 BOYDS BRIDGE PIKE KNOXVILLE, TN 37914","bldgnbr":"3916","predir":null,"streetname":"BOYDS BRIDGE PIKE","streettype":null,"suffdir":null,"city":"KNOXVILLE","state_code":"TN","zip5":"37914","latitude":"35.9845880000000000","longitude":"-83.860200000000000","publicwifi":"U","url":null,"broadband_type_id":3}
{"id":null,"anchorname":"KNOXVILLE SCHOOL FOR DEAF - ADMIN BLDG","address":"2725 ISLAND HOME BOULEVARD KNOXVILLE, TN 37920","bldgnbr":"2725","predir":null,"streetname":"ISLAND HOME BOULEVARD","streettype":null,"suffdir":null,"city":"KNOXVILLE","state_code":"TN","zip5":"37920","latitude":"35.9590160000000000","longitude":"-83.879547000000000","publicwifi":"U","url":null,"broadband_type_id":6}
{"id":null,"anchorname":"TENNESSEE ELEMENTARY SCHOOL FOR DEAF","address":"2725 ISLAND HOME BL KNOXVILLE, TN 37920","bldgnbr":"2725","predir":null,"streetname":"ISLAND HOME BL","streettype":null,"suffdir":null,"city":"KNOXVILLE","state_code":"TN","zip5":"37920","latitude":"35.9591970000000000","longitude":"-83.879868000000000","publicwifi":"U","url":null,"broadband_type_id":6}
{"id":null,"anchorname":"TENNESSEE HIGH SCHOOL FOR DEAF","address":"2725 ISLAND HOME BLVD (BLDG 401) KNOXVILLE, TN 37920","bldgnbr":"2725","predir":null,"streetname":"ISLAND HOME BLVD (BLDG 401)","streettype":null,"suffdir":null,"city":"KNOXVILLE","state_code":"TN","zip5":"37920","latitude":"35.9581690000000000","longitude":"-83.875854000000000","publicwifi":"U","url":null,"broadband_type_id":6}
{"id":null,"anchorname":"TENNESSEE MIDDLE SCHOOL FOR DEAF","address":"2725 ISLAND HOME BLVD KNOXVILLE, TN 37920","bldgnbr":"2725","predir":null,"streetname":"ISLAND HOME BLVD","streettype":null,"suffdir":null,"city":"KNOXVILLE","state_code":"TN","zip5":"37920","latitude":"35.9581690000000000","longitude":"-83.875854000000000","publicwifi":"U","url":null,"broadband_type_id":6}
{"id":null,"anchorname":"TN SCHOOL FOR DEAF MIDDLE SCHOOL","address":"2725 ISLAND HOME BLVD NASHVILLE, TN 37920","bldgnbr":"2725","predir":null,"streetname":"ISLAND HOME BLVD","streettype":null,"suffdir":null,"city":"NASHVILLE","state_code":"TN","zip5":"37920","latitude":"35.9592590000000000","longitude":"-83.879955000000000","publicwifi":"U","url":null,"broadband_type_id":6}
{"id":null,"anchorname":"TN SCHOOL FOR THE DEAF ELEMENTARY SCHOOL #2","address":"2725 ISLAND HOME BLVD (BLDG 420) KNOXVILLE, TN 37920","bldgnbr":"2725","predir":null,"streetname":"ISLAND HOME BLVD (BLDG 420)","streettype":null,"suffdir":null,"city":"KNOXVILLE","state_code":"TN","zip5":"37920","latitude":"35.9581690000000000","longitude":"-83.875854000000000","publicwifi":"U","url":null,"broadband_type_id":6}
{"id":null,"anchorname":"SOUTH DOYLE MIDDLE SCHOOL","address":"3900 DECATUR RD KNOXVILLE, TN 37920","bldgnbr":"3900","predir":null,"streetname":"DECATUR RD","streettype":null,"suffdir":null,"city":"KNOXVILLE","state_code":"TN","zip5":"37920","latitude":"35.9430100000000000","longitude":"-83.893331000000000","publicwifi":"U","url":null,"broadband_type_id":6}
{"id":null,"anchorname":"SOUTH KNOXVILLE BRANCH LIBRARY","address":"4500 CHAPMAN HIGHWAY KNOXVILLE, TN 37920","bldgnbr":"4500","predir":null,"streetname":"CHAPMAN HIGHWAY","streettype":null,"suffdir":null,"city":"KNOXVILLE","state_code":"TN","zip5":"37920","latitude":"35.9327690000000000","longitude":"-83.903901000000000","publicwifi":"U","url":null,"broadband_type_id":6}
{"id":null,"anchorname":"VOLUNTEER WOMEN'S MEDICAL CLINIC","address":"313 CONCORD STREET KNOXVILLE, TN 37919","bldgnbr":"313","predir":null,"streetname":"CONCORD STREET","streettype":null,"suffdir":null,"city":"KNOXVILLE","state_code":"TN","zip5":"37919","latitude":"35.9573880000000000","longitude":"-83.951300000000000","publicwifi":"U","url":null,"broadband_type_id":3}
{"id":null,"anchorname":"KNOXVILLE ADVENTIST SCHOOL","address":"3615 KINGSTON PK KNOXVILLE, TN 37919","bldgnbr":"3615","predir":null,"streetname":"KINGSTON PK","streettype":null,"suffdir":null,"city":"KNOXVILLE","state_code":"TN","zip5":"37919","latitude":"35.9474630000000000","longitude":"-83.961405000000000","publicwifi":"U","url":null,"broadband_type_id":6}
{"id":null,"anchorname":"SAM E. HILL FAMILY/COMMUNITY CENTER","address":"1725 DELAWARE AV KNOXVILLE, TN 37921","bldgnbr":"1725","predir":null,"streetname":"DELAWARE AV","streettype":null,"suffdir":null,"city":"KNOXVILLE","state_code":"TN","zip5":"37921","latitude":"35.9823290000000000","longitude":"-83.958811000000000","publicwifi":"U","url":null,"broadband_type_id":1}
{"id":null,"anchorname":"FAIR GARDEN FAMILY/COMMUNITY CENTER","address":"400 FERN ST KNOXVILLE, TN 37914","bldgnbr":"400","predir":null,"streetname":"FERN ST","streettype":null,"suffdir":null,"city":"KNOXVILLE","state_code":"TN","zip5":"37914","latitude":"35.9955440000000000","longitude":"-83.873397000000000","publicwifi":"U","url":null,"broadband_type_id":1}
{"id":null,"anchorname":"KNOXVILLE EAC","address":"2700 MIDDLEBROOK PIKE KNOXVILLE, TN 37921","bldgnbr":"2700","predir":null,"streetname":"MIDDLEBROOK PIKE","streettype":null,"suffdir":null,"city":"KNOXVILLE","state_code":"TN","zip5":"37921","latitude":"35.9639440000000000","longitude":"-83.956286000000000","publicwifi":"U","url":null,"broadband_type_id":null}
{"id":null,"anchorname":"TDEC KNOXVILLE FIELD OFFICE","address":"3711 MIDDLEBROOK PIKE KNOXVILLE, TN 37919","bldgnbr":"3711","predir":null,"streetname":"MIDDLEBROOK PIKE","streettype":null,"suffdir":null,"city":"KNOXVILLE","state_code":"TN","zip5":"37919","latitude":"35.9624340000000000","longitude":"-83.970145000000000","publicwifi":"U","url":null,"broadband_type_id":null}
{"id":null,"anchorname":"SURGICAL CENTER OF BURLINGTON COUNTY, INC.","address":"225 Sunset Rd Willingboro, NJ 08046-1109 United States","bldgnbr":"225","predir":null,"streetname":"Sunset Rd Willingboro","streettype":null,"suffdir":null,"city":"Willingboro","state_code":"NJ","zip5":"08046","latitude":"40.0486180000000000","longitude":"-74.882309000000000","publicwifi":"U","url":null,"broadband_type_id":1}
{"id":null,"anchorname":"LOURDES MT. LAUREL DIALYSIS","address":"130 Gaither Dr, Ste 172 Mt Laurel, NJ 08054-1702 United States","bldgnbr":"130","predir":null,"streetname":"Gaither Dr","streettype":null,"suffdir":null,"city":"Mt Laurel","state_code":"NJ","zip5":"08054","latitude":"39.9383810000000000","longitude":"-74.950928000000000","publicwifi":"U","url":null,"broadband_type_id":6}
{"id":null,"anchorname":"WEST VIEW ELEMENTARY","address":"1714 MINGLE AV KNOXVILLE, TN 37921","bldgnbr":"1714","predir":null,"streetname":"MINGLE AV","streettype":null,"suffdir":null,"city":"KNOXVILLE","state_code":"TN","zip5":"37921","latitude":"35.9665800000000000","longitude":"-83.958381000000000","publicwifi":"U","url":null,"broadband_type_id":6}
{"id":null,"anchorname":"KNOXVILLE CENTER DLTS - STATION 705","address":"3010 SOUTH MALL ROAD KNOXVILLE, TN 37924","bldgnbr":"3010","predir":null,"streetname":"SOUTH MALL ROAD","streettype":null,"suffdir":null,"city":"KNOXVILLE","state_code":"TN","zip5":"37924","latitude":"36.0295910000000000","longitude":"-83.875084000000000","publicwifi":"U","url":null,"broadband_type_id":null}
{"id":null,"anchorname":"RULE CHRISTIAN ACADEMY","address":"1210 HEISKELL AV KNOXVILLE, TN 37921","bldgnbr":"1210","predir":null,"streetname":"HEISKELL AV","streettype":null,"suffdir":null,"city":"KNOXVILLE","state_code":"TN","zip5":"37921","latitude":"35.9888860000000000","longitude":"-83.955831000000000","publicwifi":"U","url":null,"broadband_type_id":6}
{"id":null,"anchorname":"CHILHOWEE INTERMEDIATE","address":"5005 ASHEVILLE HW KNOXVILLE, TN 37914","bldgnbr":"5005","predir":null,"streetname":"ASHEVILLE HW","streettype":null,"suffdir":null,"city":"KNOXVILLE","state_code":"TN","zip5":"37914","latitude":"36.0062080000000000","longitude":"-83.852453000000000","publicwifi":"U","url":null,"broadband_type_id":null}
{"id":null,"anchorname":"REGIONAL OBSTETRICAL CONSULTANTS - KNOXVILLE","address":"1924 ALCOA HWY SOUTH KNOXVILLE, TN 37920","bldgnbr":"1924","predir":null,"streetname":"ALCOA HWY SOUTH","streettype":null,"suffdir":null,"city":"KNOXVILLE","state_code":"TN","zip5":"37920","latitude":"35.9398590000000000","longitude":"-83.943070000000000","publicwifi":"U","url":null,"broadband_type_id":null}
{"id":null,"anchorname":"ALCOHOLIC AND BEVERAGE COMMISSION - KNOXVILLE","address":"4420 WHITTLE SPRINGS ROAD KNOXVILLE, TN 37917","bldgnbr":"4420","predir":null,"streetname":"WHITTLE SPRINGS ROAD","streettype":null,"suffdir":null,"city":"KNOXVILLE","state_code":"TN","zip5":"37917","latitude":"36.0154180000000000","longitude":"-83.919197000000000","publicwifi":"U","url":null,"broadband_type_id":6}
{"id":null,"anchorname":"SPRING HILL ELEMENTARY","address":"4711 MILDRED DR KNOXVILLE, TN 37914","bldgnbr":"4711","predir":null,"streetname":"MILDRED DR","streettype":null,"suffdir":null,"city":"KNOXVILLE","state_code":"TN","zip5":"37914","latitude":"36.0184480000000000","longitude":"-83.874483000000000","publicwifi":"U","url":null,"broadband_type_id":6}
{"id":null,"anchorname":"FREEDOM CHRISTIAN ACADEMY","address":"4615 ASHEVILLE HW KNOXVILLE, TN 37914","bldgnbr":"4615","predir":null,"streetname":"ASHEVILLE HW","streettype":null,"suffdir":null,"city":"KNOXVILLE","state_code":"TN","zip5":"37914","latitude":"36.0047830000000000","longitude":"-83.861277000000000","publicwifi":"U","url":null,"broadband_type_id":6}
{"id":null,"anchorname":"MOORELAND HEIGHTS ELEMENTARY","address":"5315 MAGAZINE RD KNOXVILLE, TN 37920","bldgnbr":"5315","predir":null,"streetname":"MAGAZINE RD","streettype":null,"suffdir":null,"city":"KNOXVILLE","state_code":"TN","zip5":"37920","latitude":"35.9181160000000000","longitude":"-83.899720000000000","publicwifi":"U","url":null,"broadband_type_id":6}
{"id":null,"anchorname":"DIV OF PROP ASSESSMENT REG OFF - KNOXVILLE","address":"5401 KINGSTON PIKE KNOXVILLE, TN 37919","bldgnbr":"5401","predir":null,"streetname":"KINGSTON PIKE","streettype":null,"suffdir":null,"city":"KNOXVILLE","state_code":"TN","zip5":"37919","latitude":"35.9367760000000000","longitude":"-83.991414000000000","publicwifi":"U","url":null,"broadband_type_id":6}
{"id":null,"anchorname":"BEARDEN ELEMENTARY","address":"5717 KINGSTON PK KNOXVILLE, TN 37919","bldgnbr":"5717","predir":null,"streetname":"KINGSTON PK","streettype":null,"suffdir":null,"city":"KNOXVILLE","state_code":"TN","zip5":"37919","latitude":"35.9342730000000000","longitude":"-83.996869000000000","publicwifi":"U","url":null,"broadband_type_id":6}
{"id":null,"anchorname":"KNOX ADAPTIVE EDUCATION CENTER","address":"5719 KINGSTON PK KNOXVILLE, TN 37919","bldgnbr":"5719","predir":null,"streetname":"KINGSTON PK","streettype":null,"suffdir":null,"city":"KNOXVILLE","state_code":"TN","zip5":"37919","latitude":"35.9342650000000000","longitude":"-83.996903000000000","publicwifi":"U","url":null,"broadband_type_id":6}
{"id":null,"anchorname":"KNOXVILLE LOCAL PLANNING OFFICE","address":"5401 KINGSTON PIKE KNOXVILLE, TN 37919","bldgnbr":"5401","predir":null,"streetname":"KINGSTON PIKE","streettype":null,"suffdir":null,"city":"KNOXVILLE","state_code":"TN","zip5":"37919","latitude":"35.9367760000000000","longitude":"-83.991414000000000","publicwifi":"U","url":null,"broadband_type_id":null}
{"id":null,"anchorname":"KNOX COUNTY CSA","address":"413 NORTH SHORE DRIVE KNOXVILLE, TN 37919","bldgnbr":"413","predir":null,"streetname":"NORTH SHORE DRIVE","streettype":null,"suffdir":null,"city":"KNOXVILLE","state_code":"TN","zip5":"37919","latitude":"35.9347340000000000","longitude":"-84.002673000000000","publicwifi":"U","url":null,"broadband_type_id":1}
{"id":null,"anchorname":"THE ENDOSCOPY CENTER","address":"801 WEISGARBER ROAD KNOXVILLE, TN 37950","bldgnbr":"801","predir":null,"streetname":"WEISGARBER ROAD","streettype":null,"suffdir":null,"city":"KNOXVILLE","state_code":"TN","zip5":"37950","latitude":"35.9385900000000000","longitude":"-84.009500000000000","publicwifi":"U","url":null,"broadband_type_id":null}
{"id":null,"anchorname":"EYE SURGERY CENTER OF EAST TENNESSEE","address":"1124 WEISGARBER ROAD KNOXVILLE, TN 37909","bldgnbr":"1124","predir":null,"streetname":"WEISGARBER ROAD","streettype":null,"suffdir":null,"city":"KNOXVILLE","state_code":"TN","zip5":"37909","latitude":"35.9438620000000000","longitude":"-84.011400000000000","publicwifi":"U","url":null,"broadband_type_id":6}
{"id":null,"anchorname":"EAST TN REGIONAL OFFICE ANNEX - KNOXVILLE","address":"4310 PAPERMILL ROAD KNOXVILLE, TN 37916","bldgnbr":"4310","predir":null,"streetname":"PAPERMILL ROAD","streettype":null,"suffdir":null,"city":"KNOXVILLE","state_code":"TN","zip5":"37916","latitude":"35.9534230000000000","longitude":"-83.981731000000000","publicwifi":"U","url":null,"broadband_type_id":null}
{"id":null,"anchorname":"RICHARD YOAKLEY SCHOOL","address":"4415 WASHINGTON PK KNOXVILLE, TN 37917","bldgnbr":"4415","predir":null,"streetname":"WASHINGTON PK","streettype":null,"suffdir":null,"city":"KNOXVILLE","state_code":"TN","zip5":"37917","latitude":"36.0256050000000000","longitude":"-83.884669000000000","publicwifi":"U","url":null,"broadband_type_id":6}
{"id":null,"anchorname":"WHITTLE SPRINGS MIDDLE SCHOOL","address":"2700 WHITE OAK LA KNOXVILLE, TN 37917","bldgnbr":"2700","predir":null,"streetname":"WHITE OAK LA","streettype":null,"suffdir":null,"city":"KNOXVILLE","state_code":"TN","zip5":"37917","latitude":"36.0144460000000000","longitude":"-83.918724000000000","publicwifi":"U","url":null,"broadband_type_id":6}
{"id":null,"anchorname":"BURLINGTON BRANCH LIBRARY","address":"4614 ASHEVILLE HIGHWAY KNOXVILLE, TN 37914","bldgnbr":"4614","predir":null,"streetname":"ASHEVILLE HIGHWAY","streettype":null,"suffdir":null,"city":"KNOXVILLE","state_code":"TN","zip5":"37914","latitude":"36.0045850000000000","longitude":"-83.861185000000000","publicwifi":"U","url":null,"broadband_type_id":6}
{"id":null,"anchorname":"THE UNIVERSITY OF TENNESSEE MEMORIAL HOSPITAL","address":"1924 ALCOA HIGHWAY KNOXVILLE, TN 37920","bldgnbr":"1924","predir":null,"streetname":"ALCOA HIGHWAY","streettype":null,"suffdir":null,"city":"KNOXVILLE","state_code":"TN","zip5":"37920","latitude":"35.9383400000000000","longitude":"-83.948700000000000","publicwifi":"U","url":null,"broadband_type_id":3}
{"id":null,"anchorname":"UNIVERSITY AMBULATORY SURGICAL CENTER","address":"1924 ALCOA HIGHWAY KNOXVILLE, TN 37916","bldgnbr":"1924","predir":null,"streetname":"ALCOA HIGHWAY","streettype":null,"suffdir":null,"city":"KNOXVILLE","state_code":"TN","zip5":"37916","latitude":"35.9383400000000000","longitude":"-83.948700000000000","publicwifi":"U","url":null,"broadband_type_id":6}
{"id":null,"anchorname":"EAST TN REG HEALTH OFFICE - KNOXVILLE","address":"1522 CHEROKEE TRAIL KNOXVILLE, TN 37920","bldgnbr":"1522","predir":null,"streetname":"CHEROKEE TRAIL","streettype":null,"suffdir":null,"city":"KNOXVILLE","state_code":"TN","zip5":"37920","latitude":"35.9353550000000000","longitude":"-83.939082000000000","publicwifi":"U","url":null,"broadband_type_id":3}
{"id":null,"anchorname":"UT MEDICAL CENTER - KNOXVILLE","address":"1924 ALCOA HIGHWAY KNOXVILLE, TN 37920","bldgnbr":"1924","predir":null,"streetname":"ALCOA HIGHWAY","streettype":null,"suffdir":null,"city":"KNOXVILLE","state_code":"TN","zip5":"37920","latitude":"35.9320010000000000","longitude":"-83.948588000000000","publicwifi":"U","url":null,"broadband_type_id":3}
{"id":null,"anchorname":"WEST HIGH SCHOOL","address":"3326 SUTHERLAND AV KNOXVILLE, TN 37919","bldgnbr":"3326","predir":null,"streetname":"SUTHERLAND AV","streettype":null,"suffdir":null,"city":"KNOXVILLE","state_code":"TN","zip5":"37919","latitude":"35.9496000000000000","longitude":"-83.973414000000000","publicwifi":"U","url":null,"broadband_type_id":6}
{"id":null,"anchorname":"KNOXVILLE MONTESSORI SCHOOL","address":"4311 KINGSTON PK KNOXVILLE, TN 37919","bldgnbr":"4311","predir":null,"streetname":"KINGSTON PK","streettype":null,"suffdir":null,"city":"KNOXVILLE","state_code":"TN","zip5":"37919","latitude":"35.9418410000000000","longitude":"-83.976105000000000","publicwifi":"U","url":null,"broadband_type_id":6}
{"id":null,"anchorname":"SOUTH COLLEGE","address":"3904 LONAS ROAD KNOXVILLE, TN 37909","bldgnbr":"3904","predir":null,"streetname":"LONAS ROAD","streettype":null,"suffdir":null,"city":"KNOXVILLE","state_code":"TN","zip5":"37909","latitude":"35.9591750000000000","longitude":"-83.977402000000000","publicwifi":"U","url":null,"broadband_type_id":6}
{"id":null,"anchorname":"POND GAP ELEMENTARY","address":"1400 HOLLYWOOD DR KNOXVILLE, TN 37909","bldgnbr":"1400","predir":null,"streetname":"HOLLYWOOD DR","streettype":null,"suffdir":null,"city":"KNOXVILLE","state_code":"TN","zip5":"37909","latitude":"35.9523690000000000","longitude":"-83.982281000000000","publicwifi":"U","url":null,"broadband_type_id":6}
{"id":null,"anchorname":"1ST WAY OF BURLINGTON COUNTY INC","address":"215 Sunset Road Suite 304,Willingboro NJ 08046","bldgnbr":"215","predir":null,"streetname":"Sunset Road","streettype":null,"suffdir":null,"city":"Willingboro","state_code":"NJ","zip5":"08046","latitude":"40.0484580000000000","longitude":"-74.884010000000000","publicwifi":"U","url":null,"broadband_type_id":1}
{"id":null,"anchorname":"LOURDES MT LAUREL DIALYSIS","address":"130 Gaither Drive, Suite 172,Mount Laurel NJ 08054","bldgnbr":"130","predir":null,"streetname":"Gaither Drive","streettype":null,"suffdir":null,"city":"Mt Laurel","state_code":"NJ","zip5":"08054","latitude":"39.9383810000000000","longitude":"-74.950928000000000","publicwifi":"U","url":null,"broadband_type_id":6}
{"id":null,"anchorname":"INSKIP ELEMENTARY","address":"4701 HIGH SCHOOL ST KNOXVILLE, TN 37912","bldgnbr":"4701","predir":null,"streetname":"HIGH SCHOOL ST","streettype":null,"suffdir":null,"city":"KNOXVILLE","state_code":"TN","zip5":"37912","latitude":"36.0111280000000000","longitude":"-83.959217000000000","publicwifi":"U","url":null,"broadband_type_id":6}
{"id":null,"anchorname":"TENNESSEE BUSINESS ENTERPRISE","address":"4131 APPALACHIAN WAY KNOXVILLE, TN 37918","bldgnbr":"4131","predir":null,"streetname":"APPALACHIAN WAY","streettype":null,"suffdir":null,"city":"KNOXVILLE","state_code":"TN","zip5":"37918","latitude":"36.0098800000000000","longitude":"-83.939814000000000","publicwifi":"U","url":null,"broadband_type_id":6}
{"id":null,"anchorname":"ROCKY HILL ELEMENTARY","address":"1200 MORRELL RD KNOXVILLE, TN 37919","bldgnbr":"1200","predir":null,"streetname":"MORRELL RD","streettype":null,"suffdir":null,"city":"KNOXVILLE","state_code":"TN","zip5":"37919","latitude":"35.9074530000000000","longitude":"-84.023342000000000","publicwifi":"U","url":null,"broadband_type_id":6}
{"id":null,"anchorname":"THP - 1ST DISTRICT - KNOXVILLE","address":"7601 KINGSTON PIKE KNOXVILLE, TN 37919","bldgnbr":"7601","predir":null,"streetname":"KINGSTON PIKE","streettype":null,"suffdir":null,"city":"KNOXVILLE","state_code":"TN","zip5":"37919","latitude":"35.9285650000000000","longitude":"-84.036290000000000","publicwifi":"U","url":null,"broadband_type_id":6}
{"id":null,"anchorname":"WEST KNOXVILLE DL/THP OFFICE","address":"430 MONTBROOK LANE KNOXVILLE, TN 37919","bldgnbr":"430","predir":null,"streetname":"MONTBROOK LANE","streettype":null,"suffdir":null,"city":"KNOXVILLE","state_code":"TN","zip5":"37919","latitude":"35.9174310000000000","longitude":"-84.052919000000000","publicwifi":"U","url":null,"broadband_type_id":6}
{"id":null,"anchorname":"WEST END KINDERGARTEN","address":"8301 E. WALKER SPRINGS LA KNOXVILLE, TN 37923","bldgnbr":"8301","predir":null,"streetname":"E. WALKER SPRINGS LA","streettype":null,"suffdir":null,"city":"KNOXVILLE","state_code":"TN","zip5":"37923","latitude":"35.9270500000000000","longitude":"-84.052138000000000","publicwifi":"U","url":null,"broadband_type_id":6}
{"id":null,"anchorname":"KNOXVILLE LEGAL OFFICE","address":"322 NANCY LYNN LANE KNOXVILLE, TN 37919","bldgnbr":"322","predir":null,"streetname":"NANCY LYNN LANE","streettype":null,"suffdir":null,"city":"KNOXVILLE","state_code":"TN","zip5":"37919","latitude":"35.9266680000000000","longitude":"-84.007656000000000","publicwifi":"U","url":null,"broadband_type_id":null}
{"id":null,"anchorname":"WEST HILLS ELEMENTARY","address":"409 VANOSDALE RD KNOXVILLE, TN 37919","bldgnbr":"409","predir":null,"streetname":"VANOSDALE RD","streettype":null,"suffdir":null,"city":"KNOXVILLE","state_code":"TN","zip5":"37919","latitude":"35.9330010000000000","longitude":"-84.038391000000000","publicwifi":"U","url":null,"broadband_type_id":6}
{"id":null,"anchorname":"BALL CAMP ELEMENTARY","address":"9801 MIDDLEBROOK PK KNOXVILLE, TN 37931","bldgnbr":"9801","predir":null,"streetname":"MIDDLEBROOK PK","streettype":null,"suffdir":null,"city":"KNOXVILLE","state_code":"TN","zip5":"37931","latitude":"35.9520250000000000","longitude":"-84.120382000000000","publicwifi":"U","url":null,"broadband_type_id":6}
{"id":null,"anchorname":"WEST END ACADEMY","address":"5311 MC KAMY RD KNOXVILLE, TN 37921","bldgnbr":"5311","predir":null,"streetname":"MC KAMY RD","streettype":null,"suffdir":null,"city":"KNOXVILLE","state_code":"TN","zip5":"37921","latitude":"35.9669280000000000","longitude":"-84.036845000000000","publicwifi":"U","url":null,"broadband_type_id":6}
{"id":null,"anchorname":"KNOX COUNTY CLERK DL OFFICE - CEDAR BLUFF","address":"1028 OLD CEDAR BLUFF ROAD KNOXVILLE, TN 37923","bldgnbr":"1028","predir":null,"streetname":"OLD CEDAR BLUFF ROAD","streettype":null,"suffdir":null,"city":"KNOXVILLE","state_code":"TN","zip5":"37923","latitude":"35.9399600000000000","longitude":"-84.092402000000000","publicwifi":"U","url":null,"broadband_type_id":1}
{"id":null,"anchorname":"SYLVAN LEARNING CENTER 1001","address":"9050A EXECUTIVE PARK DR KNOXVILLE, TN 37923","bldgnbr":"9050","predir":null,"streetname":"EXECUTIVE PARK DR","streettype":null,"suffdir":null,"city":"KNOXVILLE","state_code":"TN","zip5":"37923","latitude":"35.9212710000000000","longitude":"-84.084540000000000","publicwifi":"U","url":null,"broadband_type_id":6}
{"id":null,"anchorname":"EAST TENNESSEE COMMUNITY OPEN MRI, LLC","address":"300 PROSPERITY DRIVE KNOXVILLE, TN 37923","bldgnbr":"300","predir":null,"streetname":"PROSPERITY DRIVE","streettype":null,"suffdir":null,"city":"KNOXVILLE","state_code":"TN","zip5":"37923","latitude":"35.9227350000000000","longitude":"-84.079500000000000","publicwifi":"U","url":null,"broadband_type_id":6}
{"id":null,"anchorname":"THOMPSON CANCER SURVIVAL CENTER WEST","address":"9711 SHERRILL BOULEVARD KNOXVILLE, TN 37932","bldgnbr":"9711","predir":null,"streetname":"SHERRILL BOULEVARD","streettype":null,"suffdir":null,"city":"KNOXVILLE","state_code":"TN","zip5":"37932","latitude":"35.9152590000000000","longitude":"-84.108100000000000","publicwifi":"U","url":null,"broadband_type_id":6}
{"id":null,"anchorname":"KNOXVILLE FIELD OFFICE - FINANCIAL INSTITUTIONS","address":"9047 EXECUTIVE PARK DRIVE KNOXVILLE, TN 37923","bldgnbr":"9047","predir":null,"streetname":"EXECUTIVE PARK DRIVE","streettype":null,"suffdir":null,"city":"KNOXVILLE","state_code":"TN","zip5":"37923","latitude":"35.9213980000000000","longitude":"-84.084395000000000","publicwifi":"U","url":null,"broadband_type_id":null}
{"id":null,"anchorname":"CHRISTIAN ACADEMY OF KNOXVILLE","address":"529 ACADEMY WAY KNOXVILLE, TN 37923","bldgnbr":"529","predir":null,"streetname":"ACADEMY WAY","streettype":null,"suffdir":null,"city":"KNOXVILLE","state_code":"TN","zip5":"37923","latitude":"35.9266830000000000","longitude":"-84.102220000000000","publicwifi":"U","url":null,"broadband_type_id":6}
{"id":null,"anchorname":"CEDAR BLUFF PRIMARY","address":"705 NORTH CEDAR BLUFF RD KNOXVILLE, TN 37923","bldgnbr":"705","predir":null,"streetname":"NORTH CEDAR BLUFF RD","streettype":null,"suffdir":null,"city":"KNOXVILLE","state_code":"TN","zip5":"37923","latitude":"35.9315980000000000","longitude":"-84.095211000000000","publicwifi":"U","url":null,"broadband_type_id":null}
{"id":null,"anchorname":"NORTHWEST MIDDLE SCHOOL","address":"5301 PLEASANT RIDGE RD KNOXVILLE, TN 37912","bldgnbr":"5301","predir":null,"streetname":"PLEASANT RIDGE RD","streettype":null,"suffdir":null,"city":"KNOXVILLE","state_code":"TN","zip5":"37912","latitude":"35.9879660000000000","longitude":"-84.000946000000000","publicwifi":"U","url":null,"broadband_type_id":6}
{"id":null,"anchorname":"APOSTOLIC CHRISTIAN SCHOOL","address":"5020 PLEASANT RIDGE RD KNOXVILLE, TN 37912","bldgnbr":"5020","predir":null,"streetname":"PLEASANT RIDGE RD","streettype":null,"suffdir":null,"city":"KNOXVILLE","state_code":"TN","zip5":"37912","latitude":"35.9863900000000000","longitude":"-83.988305000000000","publicwifi":"U","url":null,"broadband_type_id":6}
{"id":null,"anchorname":"FOUNTAIN CITY BRANCH LIBRARY","address":"5300 STANTON ROAD KNOXVILLE, TN 37918","bldgnbr":"5300","predir":null,"streetname":"STANTON ROAD","streettype":null,"suffdir":null,"city":"KNOXVILLE","state_code":"TN","zip5":"37918","latitude":"36.0364380000000000","longitude":"-83.927443000000000","publicwifi":"U","url":null,"broadband_type_id":6}
{"id":null,"anchorname":"CENTRAL HIGH SCHOOL","address":"5321 JACKSBORO PK KNOXVILLE, TN 37918","bldgnbr":"5321","predir":null,"streetname":"JACKSBORO PK","streettype":null,"suffdir":null,"city":"KNOXVILLE","state_code":"TN","zip5":"37918","latitude":"36.0392090000000000","longitude":"-83.921637000000000","publicwifi":"U","url":null,"broadband_type_id":6}
{"id":null,"anchorname":"FOUNTAINHEAD COLLEGE OF TECHNOLOGY","address":"3203 TAZEWELL PIKE KNOXVILLE, TN 37918","bldgnbr":"3203","predir":null,"streetname":"TAZEWELL PIKE","streettype":null,"suffdir":null,"city":"KNOXVILLE","state_code":"TN","zip5":"37918","latitude":"36.0278090000000000","longitude":"-83.922410000000000","publicwifi":"U","url":null,"broadband_type_id":6}
{"id":null,"anchorname":"BEARDEN HIGH SCHOOL","address":"8352 KINGSTON PK KNOXVILLE, TN 37919","bldgnbr":"8352","predir":null,"streetname":"KINGSTON PK","streettype":null,"suffdir":null,"city":"KNOXVILLE","state_code":"TN","zip5":"37919","latitude":"35.9243960000000000","longitude":"-84.053391000000000","publicwifi":"U","url":null,"broadband_type_id":6}
{"id":null,"anchorname":"OAK MONT SCHOOL","address":"8042 GLEASON RD KNOXVILLE, TN 37919","bldgnbr":"8042","predir":null,"streetname":"GLEASON RD","streettype":null,"suffdir":null,"city":"KNOXVILLE","state_code":"TN","zip5":"37919","latitude":"35.9193680000000000","longitude":"-84.047231000000000","publicwifi":"U","url":null,"broadband_type_id":6}
{"id":null,"anchorname":"BRAKEBILL NURSING HOMES, INC.","address":"5837 LYONS VIEW PIKE KNOXVILLE, TN 37919","bldgnbr":"5837","predir":null,"streetname":"LYONS VIEW PIKE","streettype":null,"suffdir":null,"city":"KNOXVILLE","state_code":"TN","zip5":"37919","latitude":"35.9250720000000000","longitude":"-83.993400000000000","publicwifi":"U","url":null,"broadband_type_id":3}
{"id":null,"anchorname":"WEST KNOXVILLE BRANCH LIBRARY","address":"100 GOLF CLUB ROAD KNOXVILLE, TN 37919","bldgnbr":"100","predir":null,"streetname":"GOLF CLUB ROAD","streettype":null,"suffdir":null,"city":"KNOXVILLE","state_code":"TN","zip5":"37919","latitude":"35.9323260000000000","longitude":"-84.017632000000000","publicwifi":"U","url":null,"broadband_type_id":6}
{"id":null,"anchorname":"STANFORD EISENBURG KNOXVILLE JEWISH DAY SCHOOL","address":"7148 WELLINGTON DR KNOXVILLE, TN 37919","bldgnbr":"7148","predir":null,"streetname":"WELLINGTON DR","streettype":null,"suffdir":null,"city":"KNOXVILLE","state_code":"TN","zip5":"37919","latitude":"35.9271380000000000","longitude":"-84.023065000000000","publicwifi":"U","url":null,"broadband_type_id":6}
{"id":null,"anchorname":"SHANNONDALE HEALTH CARE CENTER","address":"7424 MIDDLEBROOK PIKE KNOXVILLE, TN 37803","bldgnbr":"7424","predir":null,"streetname":"MIDDLEBROOK PIKE","streettype":null,"suffdir":null,"city":"KNOXVILLE","state_code":"TN","zip5":"37803","latitude":"35.9441760000000000","longitude":"-84.029400000000000","publicwifi":"U","url":null,"broadband_type_id":3}
{"id":null,"anchorname":"WEST HILLS BAPTIST PRESCHOOL AND KINDERGARTEN","address":"409 WINSTON RD KNOXVILLE, TN 37909","bldgnbr":"409","predir":null,"streetname":"WINSTON RD","streettype":null,"suffdir":null,"city":"KNOXVILLE","state_code":"TN","zip5":"37909","latitude":"35.9299150000000000","longitude":"-84.047027000000000","publicwifi":"U","url":null,"broadband_type_id":6}
{"id":null,"anchorname":"AMHERST ELEMENTARY SCHOOL","address":"7205 BALL CAMP PK KNOXVILLE, TN 37931","bldgnbr":"7205","predir":null,"streetname":"BALL CAMP PK","streettype":null,"suffdir":null,"city":"KNOXVILLE","state_code":"TN","zip5":"37931","latitude":"35.9736440000000000","longitude":"-84.061726000000000","publicwifi":"U","url":null,"broadband_type_id":6}
{"id":null,"anchorname":"CEDAR BLUFF MIDDLE SCHOOL","address":"707 NORTH CEDAR BLUFF RD KNOXVILLE, TN 37923","bldgnbr":"707","predir":null,"streetname":"NORTH CEDAR BLUFF RD","streettype":null,"suffdir":null,"city":"KNOXVILLE","state_code":"TN","zip5":"37923","latitude":"35.9317520000000000","longitude":"-84.095206000000000","publicwifi":"U","url":null,"broadband_type_id":6}
{"id":null,"anchorname":"HEALTHSOUTH KNOXVILLE SURGERY CENTER","address":"9300 PARK WEST BOULEVARD KNOXVILLE, TN 37923","bldgnbr":"9300","predir":null,"streetname":"PARK WEST BOULEVARD","streettype":null,"suffdir":null,"city":"KNOXVILLE","state_code":"TN","zip5":"37923","latitude":"35.9177120000000000","longitude":"-84.098200000000000","publicwifi":"U","url":null,"broadband_type_id":3}
{"id":null,"anchorname":"WEBB SCHOOL OF KNOXVILLE","address":"9800 WEBB SCHOOL DR KNOXVILLE, TN 37923","bldgnbr":"9800","predir":null,"streetname":"WEBB SCHOOL DR","streettype":null,"suffdir":null,"city":"KNOXVILLE","state_code":"TN","zip5":"37923","latitude":"35.9215030000000000","longitude":"-84.121013000000000","publicwifi":"U","url":null,"broadband_type_id":6}
{"id":null,"anchorname":"LAKE BROOK ACADEMY","address":"3006 LAKE BROOK BL KNOXVILLE, TN 37919","bldgnbr":"3006","predir":null,"streetname":"LAKE BROOK BL","streettype":null,"suffdir":null,"city":"KNOXVILLE","state_code":"TN","zip5":"37919","latitude":"35.9468580000000000","longitude":"-84.030125000000000","publicwifi":"U","url":null,"broadband_type_id":6}
{"id":null,"anchorname":"WEGMANS MT. LAUREL PHARMACY #008","address":"2 Centerton Road Mt. Laurel","bldgnbr":"2","predir":null,"streetname":"Centerton Road","streettype":null,"suffdir":null,"city":"Mt. Laurel","state_code":"NJ","zip5":"08054","latitude":"39.9677752000000000","longitude":"-74.916615400000000","publicwifi":"U","url":null,"broadband_type_id":3}
{"id":null,"anchorname":"EAST TN STATE VETERANS CEMETERY","address":"2200 EAST GOVERNOR JOHN SEVIER HWY KNOXVILLE, TN 37920","bldgnbr":"2200","predir":null,"streetname":"EAST GOVERNOR JOHN SEVIER HWY","streettype":null,"suffdir":null,"city":"KNOXVILLE","state_code":"TN","zip5":"37920","latitude":"35.9515550000000000","longitude":"-83.807245000000000","publicwifi":"U","url":null,"broadband_type_id":1}
{"id":null,"anchorname":"HILLCREST WEST","address":"6801 MIDDLEBROOK PIKE KNOXVILLE, TN 37909","bldgnbr":"6801","predir":null,"streetname":"MIDDLEBROOK PIKE","streettype":null,"suffdir":null,"city":"KNOXVILLE","state_code":"TN","zip5":"37909","latitude":"35.9489800000000000","longitude":"-84.016600000000000","publicwifi":"U","url":null,"broadband_type_id":6}
{"id":null,"anchorname":"EAST TENNESSEE DIAGNOSTIC CENTER","address":"1450 DOWELL SPRINGS BLVD KNOXVILLE, TN 37909","bldgnbr":"1450","predir":null,"streetname":"DOWELL SPRINGS BLVD","streettype":null,"suffdir":null,"city":"KNOXVILLE","state_code":"TN","zip5":"37909","latitude":"35.9494200000000000","longitude":"-84.024100000000000","publicwifi":"U","url":null,"broadband_type_id":6}
{"id":null,"anchorname":"PLEASANT RIDGE ELEMENTARY","address":"3013 WALNOAKS RD KNOXVILLE, TN 37921","bldgnbr":"3013","predir":null,"streetname":"WALNOAKS RD","streettype":null,"suffdir":null,"city":"KNOXVILLE","state_code":"TN","zip5":"37921","latitude":"35.9924390000000000","longitude":"-84.005609000000000","publicwifi":"U","url":null,"broadband_type_id":6}
{"id":null,"anchorname":"NORWOOD ELEMENTARY","address":"1909 MERCHANT DR KNOXVILLE, TN 37912","bldgnbr":"1909","predir":null,"streetname":"MERCHANT DR","streettype":null,"suffdir":null,"city":"KNOXVILLE","state_code":"TN","zip5":"37912","latitude":"35.9996170000000000","longitude":"-83.989459000000000","publicwifi":"U","url":null,"broadband_type_id":6}
{"id":null,"anchorname":"STERCHI ELEMENTARY","address":"900 OAKLETT DR KNOXVILLE, TN 37912","bldgnbr":"900","predir":null,"streetname":"OAKLETT DR","streettype":null,"suffdir":null,"city":"KNOXVILLE","state_code":"TN","zip5":"37912","latitude":"36.0271800000000000","longitude":"-83.964244000000000","publicwifi":"U","url":null,"broadband_type_id":6}
{"id":null,"anchorname":"TRINITY CHRISTIAN ACADEMY","address":"5830 HAYNES STERCHI RD KNOXVILLE, TN 37754","bldgnbr":"5830","predir":null,"streetname":"HAYNES STERCHI RD","streettype":null,"suffdir":null,"city":"KNOXVILLE","state_code":"TN","zip5":"37754","latitude":"36.0239610000000000","longitude":"-83.969921000000000","publicwifi":"U","url":null,"broadband_type_id":6}
{"id":null,"anchorname":"LAKESIDE ACADEMY","address":"6628 CENTRAL AVENUE PK KNOXVILLE, TN 37920","bldgnbr":"6628","predir":null,"streetname":"CENTRAL AVENUE PK","streettype":null,"suffdir":null,"city":"KNOXVILLE","state_code":"TN","zip5":"37920","latitude":"36.0239130000000000","longitude":"-83.989453000000000","publicwifi":"U","url":null,"broadband_type_id":6}
{"id":null,"anchorname":"HILLCREST NORTH","address":"5321 BEVERLY PARK CIRCLE KNOXVILLE, TN 37918","bldgnbr":"5321","predir":null,"streetname":"BEVERLY PARK CIRCLE","streettype":null,"suffdir":null,"city":"KNOXVILLE","state_code":"TN","zip5":"37918","latitude":"36.0612570000000000","longitude":"-83.890600000000000","publicwifi":"U","url":null,"broadband_type_id":6}
{"id":null,"anchorname":"SHANNONDALE ELEMENTARY","address":"5316 SHANNONDALE RD KNOXVILLE, TN 37918","bldgnbr":"5316","predir":null,"streetname":"SHANNONDALE RD","streettype":null,"suffdir":null,"city":"KNOXVILLE","state_code":"TN","zip5":"37918","latitude":"36.0492770000000000","longitude":"-83.904139000000000","publicwifi":"U","url":null,"broadband_type_id":6}
{"id":null,"anchorname":"SUNNYVIEW PRIMARY","address":"412 BAGWELL RD KNOXVILLE, TN 37924","bldgnbr":"412","predir":null,"streetname":"BAGWELL RD","streettype":null,"suffdir":null,"city":"KNOXVILLE","state_code":"TN","zip5":"37924","latitude":"36.0247340000000000","longitude":"-83.802235000000000","publicwifi":"U","url":null,"broadband_type_id":null}
{"id":null,"anchorname":"RITTA ELEMENTARY","address":"6228 WASHINGTON PK KNOXVILLE, TN 37918","bldgnbr":"6228","predir":null,"streetname":"WASHINGTON PK","streettype":null,"suffdir":null,"city":"KNOXVILLE","state_code":"TN","zip5":"37918","latitude":"36.0611680000000000","longitude":"-83.861122000000000","publicwifi":"U","url":null,"broadband_type_id":6}
{"id":null,"anchorname":"CARTER ELEMENTARY","address":"9304 COLLEGE LA STRAWBERRY PLAINS, TN 37871","bldgnbr":"9304","predir":null,"streetname":"COLLEGE LA","streettype":null,"suffdir":null,"city":"STRAWBERRY PLAINS","state_code":"TN","zip5":"37871","latitude":"36.0250320000000000","longitude":"-83.717722000000000","publicwifi":"U","url":null,"broadband_type_id":6}
{"id":null,"anchorname":"NEW HOPEWELL ELEMENTARY","address":"757 KIMBERLIN HGTS RD KNOXVILLE, TN 37920","bldgnbr":"757","predir":null,"streetname":"KIMBERLIN HGTS RD","streettype":null,"suffdir":null,"city":"KNOXVILLE","state_code":"TN","zip5":"37920","latitude":"35.9229760000000000","longitude":"-83.812766000000000","publicwifi":"U","url":null,"broadband_type_id":6}
{"id":null,"anchorname":"TBI KNOXVILLE","address":"1791 NEALS COMMERCE LANE KNOXVILLE, TN 37914","bldgnbr":"1791","predir":null,"streetname":"NEALS COMMERCE LANE","streettype":null,"suffdir":null,"city":"KNOXVILLE","state_code":"TN","zip5":"37914","latitude":"35.9954150000000000","longitude":"-83.784221000000000","publicwifi":"U","url":null,"broadband_type_id":null}
{"id":null,"anchorname":"STRAWBERRY PLAINS DL STATION - KNOXVILLE","address":"7320 REGION LANE KNOXVILLE, TN 37914","bldgnbr":"7320","predir":null,"streetname":"REGION LANE","streettype":null,"suffdir":null,"city":"KNOXVILLE","state_code":"TN","zip5":"37914","latitude":"36.0022470000000000","longitude":"-83.771530000000000","publicwifi":"U","url":null,"broadband_type_id":null}
{"id":null,"anchorname":"TDOT - REGION 1 KNOXVILLE","address":"7345 REGION LANE KNOXVILLE, TN 37901","bldgnbr":"7345","predir":null,"streetname":"REGION LANE","streettype":null,"suffdir":null,"city":"KNOXVILLE","state_code":"TN","zip5":"37901","latitude":"36.0016980000000000","longitude":"-83.770765000000000","publicwifi":"U","url":null,"broadband_type_id":null}
{"id":null,"anchorname":"TBI KNOXVILLE - VIDEO","address":"1791 NEALS COMMERCE LANE KNOXVILLE, TN 37914","bldgnbr":"1791","predir":null,"streetname":"NEALS COMMERCE LANE","streettype":null,"suffdir":null,"city":"KNOXVILLE","state_code":"TN","zip5":"37914","latitude":"35.9660540000000000","longitude":"-83.747840000000000","publicwifi":"U","url":null,"broadband_type_id":null}
{"id":null,"anchorname":"GAP CREEK ELEMENTARY","address":"1920 KIMBERLIN HTS RD KNOXVILLE, TN 37920","bldgnbr":"1920","predir":null,"streetname":"KIMBERLIN HTS RD","streettype":null,"suffdir":null,"city":"KNOXVILLE","state_code":"TN","zip5":"37920","latitude":"35.9256970000000000","longitude":"-83.765089000000000","publicwifi":"U","url":null,"broadband_type_id":6}
{"id":null,"anchorname":"BEARDEN MIDDLE SCHOOL","address":"1000 FRANCIS RD KNOXVILLE, TN 37909","bldgnbr":"1000","predir":null,"streetname":"FRANCIS RD","streettype":null,"suffdir":null,"city":"KNOXVILLE","state_code":"TN","zip5":"37909","latitude":"35.9434460000000000","longitude":"-84.037196000000000","publicwifi":"U","url":null,"broadband_type_id":6}
{"id":null,"anchorname":"RIDGEDALE ALTERNATIVE SCHOOL","address":"4600 RIDGEDALE RD KNOXVILLE, TN 37921","bldgnbr":"4600","predir":null,"streetname":"RIDGEDALE RD","streettype":null,"suffdir":null,"city":"KNOXVILLE","state_code":"TN","zip5":"37921","latitude":"35.9855260000000000","longitude":"-84.032709000000000","publicwifi":"U","url":null,"broadband_type_id":6}
{"id":null,"anchorname":"NORWOOD BRANCH LIBRARY","address":"1110 MERCHANTS DRIVE KNOXVILLE, TN 37912-4704","bldgnbr":"1110","predir":null,"streetname":"MERCHANTS DRIVE","streettype":null,"suffdir":null,"city":"KNOXVILLE","state_code":"TN","zip5":"37912","latitude":"36.0028220000000000","longitude":"-83.983383000000000","publicwifi":"U","url":null,"broadband_type_id":6}
{"id":null,"anchorname":"ST JOSEPH SCHOOL","address":"1810 HOWARD RD KNOXVILLE, TN 37918","bldgnbr":"1810","predir":null,"streetname":"HOWARD RD","streettype":null,"suffdir":null,"city":"KNOXVILLE","state_code":"TN","zip5":"37918","latitude":"36.0291560000000000","longitude":"-83.950032000000000","publicwifi":"U","url":null,"broadband_type_id":6}
{"id":null,"anchorname":"GRESHAM MIDDLE SCHOOL","address":"500 GRESHAM RD KNOXVILLE, TN 37918","bldgnbr":"500","predir":null,"streetname":"GRESHAM RD","streettype":null,"suffdir":null,"city":"KNOXVILLE","state_code":"TN","zip5":"37918","latitude":"36.0390720000000000","longitude":"-83.933912000000000","publicwifi":"U","url":null,"broadband_type_id":6}
{"id":null,"anchorname":"NATURE'S WAY MONTESSORI SCHOOL","address":"4710 MURPHY RD KNOXVILLE, TN 37918","bldgnbr":"4710","predir":null,"streetname":"MURPHY RD","streettype":null,"suffdir":null,"city":"KNOXVILLE","state_code":"TN","zip5":"37918","latitude":"36.0562520000000000","longitude":"-83.878072000000000","publicwifi":"U","url":null,"broadband_type_id":6}
{"id":null,"anchorname":"GARDEN MONTESSORI SCHOOL","address":"3225 GARDEN DR KNOXVILLE, TN 37918","bldgnbr":"3225","predir":null,"streetname":"GARDEN DR","streettype":null,"suffdir":null,"city":"KNOXVILLE","state_code":"TN","zip5":"37918","latitude":"36.0413660000000000","longitude":"-83.928026000000000","publicwifi":"U","url":null,"broadband_type_id":6}
{"id":null,"anchorname":"KNOXVILLE SHERIFF OFFICE","address":"5001 MALONEYVILLE ROAD KNOXVILLE, TN 37918","bldgnbr":"5001","predir":null,"streetname":"MALONEYVILLE ROAD","streettype":null,"suffdir":null,"city":"KNOXVILLE","state_code":"TN","zip5":"37918","latitude":"36.0865670000000000","longitude":"-83.835957000000000","publicwifi":"U","url":null,"broadband_type_id":4}
{"id":null,"anchorname":"HOLSTON MIDDLE SCHOOL","address":"600 CHILHOWEE DR KNOXVILLE, TN 37924","bldgnbr":"600","predir":null,"streetname":"CHILHOWEE DR","streettype":null,"suffdir":null,"city":"KNOXVILLE","state_code":"TN","zip5":"37924","latitude":"36.0146880000000000","longitude":"-83.855367000000000","publicwifi":"U","url":null,"broadband_type_id":6}
{"id":null,"anchorname":"CARTER HIGH SCHOOL","address":"210 N CARTER SCHOOL RD STRAWBERRY PLAINS, TN 37871","bldgnbr":"210","predir":null,"streetname":"N CARTER SCHOOL RD","streettype":null,"suffdir":null,"city":"STRAWBERRY PLAINS","state_code":"TN","zip5":"37871","latitude":"36.0072370000000000","longitude":"-83.696933000000000","publicwifi":"U","url":null,"broadband_type_id":6}
{"id":null,"anchorname":"CARTER MIDDLE SCHOOL","address":"204 NORTH CARTER SCHOOL RD STRAWBERRY PLAINS, TN 37871","bldgnbr":"204","predir":null,"streetname":"NORTH CARTER SCHOOL RD","streettype":null,"suffdir":null,"city":"STRAWBERRY PLAINS","state_code":"TN","zip5":"37871","latitude":"36.0070710000000000","longitude":"-83.696713000000000","publicwifi":"U","url":null,"broadband_type_id":6}
{"id":null,"anchorname":"CARTER BRANCH LIBRARY","address":"9036 ASHEVILLE HIGHWAY KNOXVILLE, TN 37924","bldgnbr":"9036","predir":null,"streetname":"ASHEVILLE HIGHWAY","streettype":null,"suffdir":null,"city":"KNOXVILLE","state_code":"TN","zip5":"37924","latitude":"36.0254740000000000","longitude":"-83.727639000000000","publicwifi":"U","url":null,"broadband_type_id":6}
{"id":null,"anchorname":"JOHNSON UNIVERSITY","address":"7900 JOHNSON DRIVE KNOXVILLE, TN 37998","bldgnbr":"7900","predir":null,"streetname":"JOHNSON DRIVE","streettype":null,"suffdir":null,"city":"KNOXVILLE","state_code":"TN","zip5":"37998","latitude":"35.9369740000000000","longitude":"-83.749588000000000","publicwifi":"U","url":null,"broadband_type_id":6}
{"id":null,"anchorname":"SOUTH DOYLE HIGH SCHOOL","address":"2020 TIPTON STATION RD KNOXVILLE, TN 37920","bldgnbr":"2020","predir":null,"streetname":"TIPTON STATION RD","streettype":null,"suffdir":null,"city":"KNOXVILLE","state_code":"TN","zip5":"37920","latitude":"35.8883650000000000","longitude":"-83.885716000000000","publicwifi":"U","url":null,"broadband_type_id":6}
{"id":null,"anchorname":"HOWARD PINKSTON BRANCH LIBRARY","address":"7732 MARTIN MILL PIKE KNOXVILLE, TN 37920","bldgnbr":"7732","predir":null,"streetname":"MARTIN MILL PIKE","streettype":null,"suffdir":null,"city":"KNOXVILLE","state_code":"TN","zip5":"37920","latitude":"35.8798740000000000","longitude":"-83.897001000000000","publicwifi":"U","url":null,"broadband_type_id":6}
{"id":null,"anchorname":"WALKER ACADEMY","address":"1110 LOVELL RD KNOXVILLE, TN 37932","bldgnbr":"1110","predir":null,"streetname":"LOVELL RD","streettype":null,"suffdir":null,"city":"KNOXVILLE","state_code":"TN","zip5":"37932","latitude":"35.9234100000000000","longitude":"-84.148754000000000","publicwifi":"U","url":null,"broadband_type_id":6}
{"id":null,"anchorname":"HOUSE OF COURAGE","address":"2636 MARYVILLE PK KNOXVILLE, TN 37920","bldgnbr":"2636","predir":null,"streetname":"MARYVILLE PK","streettype":null,"suffdir":null,"city":"KNOXVILLE","state_code":"TN","zip5":"37920","latitude":"35.9094880000000000","longitude":"-83.937656000000000","publicwifi":"U","url":null,"broadband_type_id":null}
{"id":null,"anchorname":"KNOXVILLE AGRICULTURE OFFICE","address":"3211 ALCOA HIGHWAY KNOXVILLE, TN 37920","bldgnbr":"3211","predir":null,"streetname":"ALCOA HIGHWAY","streettype":null,"suffdir":null,"city":"KNOXVILLE","state_code":"TN","zip5":"37920","latitude":"35.8938600000000000","longitude":"-83.952932000000000","publicwifi":"U","url":null,"broadband_type_id":null}
{"id":null,"anchorname":"TARGET PHARMACY #1917","address":"4 CENTERTON RD","bldgnbr":"4","predir":null,"streetname":"CENTERTON RD","streettype":null,"suffdir":null,"city":"MOUNT LAUREL","state_code":"NJ","zip5":"08054","latitude":"39.9505868000000000","longitude":"-74.876113200000000","publicwifi":"U","url":null,"broadband_type_id":3}
{"id":null,"anchorname":"KNOXVILLE EYE SURGERY CENTER, LLC","address":"140 CAPITAL DRIVE KNOXVILLE, TN 37922","bldgnbr":"140","predir":null,"streetname":"CAPITAL DRIVE","streettype":null,"suffdir":null,"city":"KNOXVILLE","state_code":"TN","zip5":"37922","latitude":"35.9030550000000000","longitude":"-84.112600000000000","publicwifi":"U","url":null,"broadband_type_id":null}
{"id":null,"anchorname":"FOX LEARNING CENTER","address":"1329 Route 38 Hainesport, NJ 08036-2755 United States","bldgnbr":"1329","predir":null,"streetname":"Route 38 Hainesport","streettype":null,"suffdir":null,"city":"Hainesport","state_code":"NJ","zip5":"08036","latitude":"39.9744970000000000","longitude":"-74.841970000000000","publicwifi":"U","url":null,"broadband_type_id":6}
{"id":null,"anchorname":"LUMBERTON DIALYSIS","address":"1261 Route 38 Suite B,Hainesport NJ 08036-5016","bldgnbr":"1261","predir":null,"streetname":"Route 38","streettype":null,"suffdir":null,"city":"Hainesport","state_code":"NJ","zip5":"08036","latitude":"39.9727700000000000","longitude":"-74.850656000000000","publicwifi":"U","url":null,"broadband_type_id":6}
{"id":null,"anchorname":"CHILDREN'S WEST SURGERY CENTER, LLC","address":"1020 CHILDREN'S WAY KNOXVILLE, TN 37922","bldgnbr":"1020","predir":null,"streetname":"CHILDREN'S WAY","streettype":null,"suffdir":null,"city":"KNOXVILLE","state_code":"TN","zip5":"37922","latitude":"35.8753400000000000","longitude":"-84.097700000000000","publicwifi":"U","url":null,"broadband_type_id":6}
{"id":null,"anchorname":"LITTLE CREEK SANITARIUM","address":"1811 LITTLE CREEK LANE KNOXVILLE, TN 37922","bldgnbr":"1811","predir":null,"streetname":"LITTLE CREEK LANE","streettype":null,"suffdir":null,"city":"KNOXVILLE","state_code":"TN","zip5":"37922","latitude":"35.8729930000000000","longitude":"-84.049700000000000","publicwifi":"U","url":null,"broadband_type_id":null}
{"id":null,"anchorname":"A L LOTTS ELEMENTARY","address":"9320 WESTLAND DR KNOXVILLE, TN 37922","bldgnbr":"9320","predir":null,"streetname":"WESTLAND DR","streettype":null,"suffdir":null,"city":"KNOXVILLE","state_code":"TN","zip5":"37922","latitude":"35.8849960000000000","longitude":"-84.082063000000000","publicwifi":"U","url":null,"broadband_type_id":6}
{"id":null,"anchorname":"BLUE GRASS ELEMENTARY","address":"8901 BLUE GRASS RD KNOXVILLE, TN 37922","bldgnbr":"8901","predir":null,"streetname":"BLUE GRASS RD","streettype":null,"suffdir":null,"city":"KNOXVILLE","state_code":"TN","zip5":"37922","latitude":"35.8760480000000000","longitude":"-84.059839000000000","publicwifi":"U","url":null,"broadband_type_id":6}
