{"id":null,"anchorname":"HURON CITY SCHOOLS","address":"712  CLEVELAND RD E HURON, OH 44839-1871","bldgnbr":"712","predir":null,"streetname":"CLEVELAND RD E","streettype":null,"suffdir":null,"city":"HURON","state_code":"OH","zip5":"44839","latitude":"41.3890900000000000","longitude":"-82.545170000000000","publicwifi":"U","url":null,"broadband_type_id":6}
{"id":null,"anchorname":"ADMIRALS POINT NURSING AND REHAB CENTER","address":"1920 CLEVELAND RD W HURON, OH 44839","bldgnbr":"1920","predir":null,"streetname":"CLEVELAND RD W","streettype":null,"suffdir":null,"city":"HURON","state_code":"OH","zip5":"44839","latitude":"41.4082900000000000","longitude":"-82.587830000000000","publicwifi":"U","url":null,"broadband_type_id":3}
{"id":null,"anchorname":"WOODLANDS INTERMEDIATE SCHOOL","address":"1810 MAPLE AVE HURON, OH 44839","bldgnbr":"1810","predir":null,"streetname":"MAPLE AVE","streettype":null,"suffdir":null,"city":"HURON","state_code":"OH","zip5":"44839","latitude":"41.4066320000000000","longitude":"-82.585371000000000","publicwifi":"U","url":null,"broadband_type_id":6}
{"id":null,"anchorname":"HURON HIGH SCHOOL","address":"710 CLEVELAND RD W HURON, OH 44839","bldgnbr":"710","predir":null,"streetname":"CLEVELAND RD W","streettype":null,"suffdir":null,"city":"HURON","state_code":"OH","zip5":"44839","latitude":"41.3981400000000000","longitude":"-82.564540000000000","publicwifi":"U","url":null,"broadband_type_id":6}
{"id":null,"anchorname":"HURON POLICE DEPARTMENT","address":"417 MAIN ST HURON, OH 44839-1652","bldgnbr":"417","predir":null,"streetname":"MAIN ST","streettype":null,"suffdir":null,"city":"HURON","state_code":"OH","zip5":"44839","latitude":"41.3921500000000000","longitude":"-82.557160000000000","publicwifi":"U","url":null,"broadband_type_id":4}
{"id":null,"anchorname":"HURON DIVISION OF FIRE","address":"417 MAIN STREET HURON, OH 44839","bldgnbr":"417","predir":null,"streetname":"MAIN STREET","streettype":null,"suffdir":null,"city":"HURON","state_code":"OH","zip5":"44839","latitude":"41.3921500000000000","longitude":"-82.557160000000000","publicwifi":"U","url":null,"broadband_type_id":5}
{"id":null,"anchorname":"HURON PUBLIC LIBRARY","address":"333 WILLIAMS ST HURON, OH 44839-1650","bldgnbr":"333","predir":null,"streetname":"WILLIAMS ST","streettype":null,"suffdir":null,"city":"HURON","state_code":"OH","zip5":"44839","latitude":"41.3937400000000000","longitude":"-82.557020000000000","publicwifi":"Y","url":null,"broadband_type_id":6}
{"id":null,"anchorname":"CEDAR POINT POLICE DEPARTMENT","address":"1 CAUSEWAY DRIVE SANDUSKY, OH 44871","bldgnbr":"1","predir":null,"streetname":"CAUSEWAY DRIVE","streettype":null,"suffdir":null,"city":"SANDUSKY","state_code":"OH","zip5":"44871","latitude":"41.4802400000000000","longitude":"-82.684740000000000","publicwifi":"U","url":null,"broadband_type_id":4}
{"id":null,"anchorname":"CEDAR POINT EMERGENCY MEDICAL SERVICES","address":"1 CEDAR POINT DRIVE SANDUSKY, OH 44870","bldgnbr":"1","predir":null,"streetname":"CEDAR POINT DRIVE","streettype":null,"suffdir":null,"city":"SANDUSKY","state_code":"OH","zip5":"44870","latitude":"41.4802400000000000","longitude":"-82.684740000000000","publicwifi":"U","url":null,"broadband_type_id":3}
{"id":null,"anchorname":"CEDAR POINT POLICE DEPARTMENT","address":"1 CEDAR POINT DRIVE SANDUSKY, OH 44870","bldgnbr":"1","predir":null,"streetname":"CEDAR POINT DRIVE","streettype":null,"suffdir":null,"city":"SANDUSKY","state_code":"OH","zip5":"44870","latitude":"41.4802400000000000","longitude":"-82.684740000000000","publicwifi":"U","url":null,"broadband_type_id":4}
{"id":null,"anchorname":"KELLEYS ISLAND EMERGENCY MEDICAL SERVICES","address":"120 DIVISION STREET KELLEYS ISLAND, OH 43438","bldgnbr":"120","predir":null,"streetname":"DIVISION STREET","streettype":null,"suffdir":null,"city":"KELLEYS ISLAND","state_code":"OH","zip5":"43438","latitude":"41.5935100000000000","longitude":"-82.711160000000000","publicwifi":"U","url":null,"broadband_type_id":3}
{"id":null,"anchorname":"KELLEYS ISLAND POLICE DEPARTMENT","address":"122 DIVISION ST KELLEYS ISLAND, OH 43438","bldgnbr":"122","predir":null,"streetname":"DIVISION ST","streettype":null,"suffdir":null,"city":"KELLEYS ISLAND","state_code":"OH","zip5":"43438","latitude":"41.5935400000000000","longitude":"-82.711150000000000","publicwifi":"U","url":null,"broadband_type_id":4}
{"id":null,"anchorname":"KELLEYS ISLAND BRANCH LIBRARY","address":"528 DIVISION ST KELLEYS ISLAND, OH 43438","bldgnbr":"528","predir":null,"streetname":"DIVISION ST","streettype":null,"suffdir":null,"city":"KELLEYS ISLAND","state_code":"OH","zip5":"43438","latitude":"41.6037900000000000","longitude":"-82.708620000000000","publicwifi":"Y","url":null,"broadband_type_id":6}
{"id":null,"anchorname":"KELLEYS ISLAND FIRE DEPARTMENT","address":"121 ADDISON ROAD KELLEYS ISLAND, OH 43438","bldgnbr":"121","predir":null,"streetname":"ADDISON ROAD","streettype":null,"suffdir":null,"city":"KELLEYS ISLAND","state_code":"OH","zip5":"43438","latitude":"41.5955100000000000","longitude":"-82.704970000000000","publicwifi":"U","url":null,"broadband_type_id":5}
{"id":null,"anchorname":"SANDUSKY FIRE DEPARTMENT STATION 3","address":"2034 5TH STREET SANDUSKY, OH 44870","bldgnbr":"2034","predir":null,"streetname":"5TH STREET","streettype":null,"suffdir":null,"city":"SANDUSKY","state_code":"OH","zip5":"44870","latitude":"41.4466800000000000","longitude":"-82.678130000000000","publicwifi":"U","url":null,"broadband_type_id":5}
{"id":null,"anchorname":"ONTARIO ELEMENTARY SCHOOL","address":"924 ONTARIO ST SANDUSKY, OH 44870","bldgnbr":"924","predir":null,"streetname":"ONTARIO ST","streettype":null,"suffdir":null,"city":"SANDUSKY","state_code":"OH","zip5":"44870","latitude":"41.4494400000000000","longitude":"-82.691040000000000","publicwifi":"U","url":null,"broadband_type_id":6}
{"id":null,"anchorname":"SANDUSKY MUNICIPAL COURT","address":"222 MEIGS ST SANDUSKY, OH 44870-2835","bldgnbr":"222","predir":null,"streetname":"MEIGS ST","streettype":null,"suffdir":null,"city":"SANDUSKY","state_code":"OH","zip5":"44870","latitude":"41.4588200000000000","longitude":"-82.699830000000000","publicwifi":"U","url":null,"broadband_type_id":1}
{"id":null,"anchorname":"Village of Whitesboro","address":"10 Moseley Street","bldgnbr":"10","predir":null,"streetname":"Moseley","streettype":"Street","suffdir":null,"city":"Whitesboro","state_code":"NY","zip5":"13492","latitude":"43.1248135590000000","longitude":"-75.294574918000000","publicwifi":"U","url":null,"broadband_type_id":6}
{"id":null,"anchorname":"VIEWPOINT RETIREMENT CENTER","address":"215 E SHORELINE DR SANDUSKY, OH 44870","bldgnbr":"215","predir":null,"streetname":"E SHORELINE DR","streettype":null,"suffdir":null,"city":"SANDUSKY","state_code":"OH","zip5":"44870","latitude":"41.4584400000000000","longitude":"-82.710510000000000","publicwifi":"U","url":null,"broadband_type_id":null}
{"id":null,"anchorname":"SANDUSKY YOUTH HOME","address":"421 E WASHINGTON ST SANDUSKY, OH 44870-2822","bldgnbr":"421","predir":null,"streetname":"E WASHINGTON ST","streettype":null,"suffdir":null,"city":"SANDUSKY","state_code":"OH","zip5":"44870","latitude":"41.4569400000000000","longitude":"-82.705280000000000","publicwifi":"U","url":null,"broadband_type_id":null}
{"id":null,"anchorname":"ERIE COUNTY AUDITOR","address":"247 COLUMBUS AVE SANDUSKY, OH 44870-2630","bldgnbr":"247","predir":null,"streetname":"COLUMBUS AVE","streettype":null,"suffdir":null,"city":"SANDUSKY","state_code":"OH","zip5":"44870","latitude":"41.4557500000000000","longitude":"-82.711960000000000","publicwifi":"U","url":null,"broadband_type_id":1}
{"id":null,"anchorname":"LITTLE MIRACLES CHRISTIAN DC","address":"701 1ST ST SANDUSKY, OH 44870-3859","bldgnbr":"701","predir":null,"streetname":"1ST ST","streettype":null,"suffdir":null,"city":"SANDUSKY","state_code":"OH","zip5":"44870","latitude":"41.4534100000000000","longitude":"-82.698520000000000","publicwifi":"U","url":null,"broadband_type_id":6}
{"id":null,"anchorname":"BOYS/GIRLS CLUB OF SANDUSKY","address":"431 COLUMBUS AVE SANDUSKY, OH 44870-2727","bldgnbr":"431","predir":null,"streetname":"COLUMBUS AVE","streettype":null,"suffdir":null,"city":"SANDUSKY","state_code":"OH","zip5":"44870","latitude":"41.4523800000000000","longitude":"-82.710280000000000","publicwifi":"U","url":null,"broadband_type_id":null}
{"id":null,"anchorname":"ERIE/OTTAWA ADAMHS BOARD","address":"416 COLUMBUS AVE SANDUSKY, OH 44870-2753","bldgnbr":"416","predir":null,"streetname":"COLUMBUS AVE","streettype":null,"suffdir":null,"city":"SANDUSKY","state_code":"OH","zip5":"44870","latitude":"41.4532500000000000","longitude":"-82.709410000000000","publicwifi":"U","url":null,"broadband_type_id":6}
{"id":null,"anchorname":"ERIE COUNTY COURT OF COMMON PLEAS DOMESTIC RELATIONS AND JUVENILE DIVISIONS","address":"323 COLUMBUS AVE SANDUSKY, OH 44870-2602","bldgnbr":"323","predir":null,"streetname":"COLUMBUS AVE","streettype":null,"suffdir":null,"city":"SANDUSKY","state_code":"OH","zip5":"44870","latitude":"41.4541000000000000","longitude":"-82.710690000000000","publicwifi":"U","url":null,"broadband_type_id":6}
{"id":null,"anchorname":"ERIE COUNTY COURT OF COMMON PLEAS PROBATE DIVISION","address":"323 COLUMBUS AVE SANDUSKY, OH 44870-2602","bldgnbr":"323","predir":null,"streetname":"COLUMBUS AVE","streettype":null,"suffdir":null,"city":"SANDUSKY","state_code":"OH","zip5":"44870","latitude":"41.4541000000000000","longitude":"-82.710690000000000","publicwifi":"U","url":null,"broadband_type_id":6}
{"id":null,"anchorname":"ERIE COUNTY COURT OF COMMON PLEAS, GENERAL DIVISION","address":"323 COLUMBUS AVE SANDUSKY, OH 44870-2602","bldgnbr":"323","predir":null,"streetname":"COLUMBUS AVE","streettype":null,"suffdir":null,"city":"SANDUSKY","state_code":"OH","zip5":"44870","latitude":"41.4541000000000000","longitude":"-82.710690000000000","publicwifi":"U","url":null,"broadband_type_id":6}
{"id":null,"anchorname":"VOA-CROSSROADS","address":"1843 SUPERIOR ST SANDUSKY, OH 44870-1825","bldgnbr":"1843","predir":null,"streetname":"SUPERIOR ST","streettype":null,"suffdir":null,"city":"SANDUSKY","state_code":"OH","zip5":"44870","latitude":"41.4399900000000000","longitude":"-82.744210000000000","publicwifi":"U","url":null,"broadband_type_id":null}
{"id":null,"anchorname":"PORTLAND HOUSE","address":"3808 VENICE RD SANDUSKY, OH 44870","bldgnbr":"3808","predir":null,"streetname":"VENICE RD","streettype":null,"suffdir":null,"city":"SANDUSKY","state_code":"OH","zip5":"44870","latitude":"41.4394100000000000","longitude":"-82.753490000000000","publicwifi":"U","url":null,"broadband_type_id":null}
{"id":null,"anchorname":"ERIE COUNTY DETENTION CTR","address":"1338 TIFFIN AVE SANDUSKY, OH 44870-2049","bldgnbr":"1338","predir":null,"streetname":"TIFFIN AVE","streettype":null,"suffdir":null,"city":"SANDUSKY","state_code":"OH","zip5":"44870","latitude":"41.4426100000000000","longitude":"-82.730040000000000","publicwifi":"U","url":null,"broadband_type_id":1}
{"id":null,"anchorname":"ERIE HURON COUNTIES COMMUNITY ACTION COUNCIL","address":"908 S DEPOT ST SANDUSKY, OH 44870-4659","bldgnbr":"908","predir":null,"streetname":"S DEPOT ST","streettype":null,"suffdir":null,"city":"SANDUSKY","state_code":"OH","zip5":"44870","latitude":"41.4394700000000000","longitude":"-82.714220000000000","publicwifi":"U","url":null,"broadband_type_id":6}
{"id":null,"anchorname":"LUTHERAN MEMORIAL HOME","address":"795 BARDSHAR RD SANDUSKY, OH 44870","bldgnbr":"795","predir":null,"streetname":"BARDSHAR RD","streettype":null,"suffdir":null,"city":"SANDUSKY","state_code":"OH","zip5":"44870","latitude":"41.4385500000000000","longitude":"-82.775080000000000","publicwifi":"U","url":null,"broadband_type_id":null}
{"id":null,"anchorname":"ERIE CO DETENTION HOME","address":"1319 TIFFIN AVE SANDUSKY, OH 44870-2038","bldgnbr":"1319","predir":null,"streetname":"TIFFIN AVE","streettype":null,"suffdir":null,"city":"SANDUSKY","state_code":"OH","zip5":"44870","latitude":"41.4445100000000000","longitude":"-82.729350000000000","publicwifi":"U","url":null,"broadband_type_id":null}
{"id":null,"anchorname":"SANDUSKY AREA YMCA","address":"2101 W PERKINS AVE SANDUSKY, OH 44870-2043","bldgnbr":"2101","predir":null,"streetname":"W PERKINS AVE","streettype":null,"suffdir":null,"city":"SANDUSKY","state_code":"OH","zip5":"44870","latitude":"41.4335400000000000","longitude":"-82.729300000000000","publicwifi":"U","url":null,"broadband_type_id":null}
{"id":null,"anchorname":"OHIO BUREAU OF MOTOR VEHICLES","address":"1050 CLEVELAND RD SANDUSKY, OH 44870-4034","bldgnbr":"1050","predir":null,"streetname":"CLEVELAND RD","streettype":null,"suffdir":null,"city":"SANDUSKY","state_code":"OH","zip5":"44870","latitude":"41.4440130000000000","longitude":"-82.696431000000000","publicwifi":"U","url":null,"broadband_type_id":6}
{"id":null,"anchorname":"SANDUSKY HEAD START","address":"908 S DEPOT ST SANDUSKY, OH 44870-4659","bldgnbr":"908","predir":null,"streetname":"S DEPOT ST","streettype":null,"suffdir":null,"city":"SANDUSKY","state_code":"OH","zip5":"44870","latitude":"41.4394700000000000","longitude":"-82.714220000000000","publicwifi":"U","url":null,"broadband_type_id":null}
{"id":null,"anchorname":"REALITY HOUSE","address":"1025 HAYES AVE SANDUSKY, OH 44870-3322","bldgnbr":"1025","predir":null,"streetname":"HAYES AVE","streettype":null,"suffdir":null,"city":"SANDUSKY","state_code":"OH","zip5":"44870","latitude":"41.4467300000000000","longitude":"-82.708720000000000","publicwifi":"U","url":null,"broadband_type_id":null}
{"id":null,"anchorname":"VOLUNTEERS OF AMERICA","address":"1610 CLEVELAND RD SANDUSKY, OH 44870-4374","bldgnbr":"1610","predir":null,"streetname":"CLEVELAND RD","streettype":null,"suffdir":null,"city":"SANDUSKY","state_code":"OH","zip5":"44870","latitude":"41.4423100000000000","longitude":"-82.687600000000000","publicwifi":"U","url":null,"broadband_type_id":null}
{"id":null,"anchorname":"ERIE CO DEPT OF HUMAN SVCS","address":"221 W PARISH ST SANDUSKY, OH 44870-4877","bldgnbr":"221","predir":null,"streetname":"W PARISH ST","streettype":null,"suffdir":null,"city":"SANDUSKY","state_code":"OH","zip5":"44870","latitude":"41.4355900000000000","longitude":"-82.701760000000000","publicwifi":"U","url":null,"broadband_type_id":null}
{"id":null,"anchorname":"SANDUSKY MIDDLE SCHOOL","address":"318 COLUMBUS AVE SANDUSKY, OH 44870","bldgnbr":"318","predir":null,"streetname":"COLUMBUS AVE","streettype":null,"suffdir":null,"city":"SANDUSKY","state_code":"OH","zip5":"44870","latitude":"41.4543830000000000","longitude":"-82.710624000000000","publicwifi":"U","url":null,"broadband_type_id":6}
{"id":null,"anchorname":"SANDUSKY LIBRARY","address":"114 W ADAMS ST SANDUSKY, OH 44870-2751","bldgnbr":"114","predir":null,"streetname":"W ADAMS ST","streettype":null,"suffdir":null,"city":"SANDUSKY","state_code":"OH","zip5":"44870","latitude":"41.4534700000000000","longitude":"-82.710670000000000","publicwifi":"Y","url":null,"broadband_type_id":6}
{"id":null,"anchorname":"AMERICAN RED CROSS FIRELANDS CHAPTER","address":"300 CENTRAL AVENUE SANDUSKY, OH 44870","bldgnbr":"300","predir":null,"streetname":"CENTRAL AVENUE","streettype":null,"suffdir":null,"city":"SANDUSKY","state_code":"OH","zip5":"44870","latitude":"41.4533700000000000","longitude":"-82.712950000000000","publicwifi":"U","url":null,"broadband_type_id":5}
{"id":null,"anchorname":"SANDUSKY CITY SCHOOLS","address":"407  DECATUR ST SANDUSKY, OH 44870-2442","bldgnbr":"407","predir":null,"streetname":"DECATUR ST","streettype":null,"suffdir":null,"city":"SANDUSKY","state_code":"OH","zip5":"44870","latitude":"41.4522700000000000","longitude":"-82.713590000000000","publicwifi":"U","url":null,"broadband_type_id":6}
{"id":null,"anchorname":"SANDUSKY PRACTICAL NURSING","address":"407 DECATUR ST SANDUSKY, OH 44870-2442","bldgnbr":"407","predir":null,"streetname":"DECATUR ST","streettype":null,"suffdir":null,"city":"SANDUSKY","state_code":"OH","zip5":"44870","latitude":"41.4522700000000000","longitude":"-82.713590000000000","publicwifi":"U","url":null,"broadband_type_id":3}
{"id":null,"anchorname":"SANDUSKY FIRE DEPARTMENT STATION 7","address":"3816 VENICE ROAD SANDUSKY, OH 44870","bldgnbr":"3816","predir":null,"streetname":"VENICE ROAD","streettype":null,"suffdir":null,"city":"SANDUSKY","state_code":"OH","zip5":"44870","latitude":"41.4414800000000000","longitude":"-82.754620000000000","publicwifi":"U","url":null,"broadband_type_id":5}
{"id":null,"anchorname":"VENICE HEIGHTS ELEMENTARY SCHOOL","address":"4501 VENICE HEIGHTS BLVD SANDUSKY, OH 44870","bldgnbr":"4501","predir":null,"streetname":"VENICE HEIGHTS BLVD","streettype":null,"suffdir":null,"city":"SANDUSKY","state_code":"OH","zip5":"44870","latitude":"41.4404300000000000","longitude":"-82.766080000000000","publicwifi":"U","url":null,"broadband_type_id":6}
{"id":null,"anchorname":"MILLS ELEMENTARY SCHOOL","address":"1918 MILLS ST SANDUSKY, OH 44870","bldgnbr":"1918","predir":null,"streetname":"MILLS ST","streettype":null,"suffdir":null,"city":"SANDUSKY","state_code":"OH","zip5":"44870","latitude":"41.4370500000000000","longitude":"-82.727170000000000","publicwifi":"U","url":null,"broadband_type_id":6}
{"id":null,"anchorname":"PROVIDENCE CARE CENTER","address":"2025 HAYES AVE SANDUSKY, OH 44870","bldgnbr":"2025","predir":null,"streetname":"HAYES AVE","streettype":null,"suffdir":null,"city":"SANDUSKY","state_code":"OH","zip5":"44870","latitude":"41.4360100000000000","longitude":"-82.713770000000000","publicwifi":"U","url":null,"broadband_type_id":3}
{"id":null,"anchorname":"FIRELANDS REGIONAL MEDICAL CENTER","address":"1111 HAYES AVENUE SANDUSKY, OH 44870","bldgnbr":"1111","predir":null,"streetname":"HAYES AVENUE","streettype":null,"suffdir":null,"city":"SANDUSKY","state_code":"OH","zip5":"44870","latitude":"41.4464100000000000","longitude":"-82.708870000000000","publicwifi":"U","url":null,"broadband_type_id":3}
{"id":null,"anchorname":"PLAYLAND DAY CARE \u0026 PRESCHOOL","address":"1333 SHELBY ST SANDUSKY, OH 44870-3136","bldgnbr":"1333","predir":null,"streetname":"SHELBY ST","streettype":null,"suffdir":null,"city":"SANDUSKY","state_code":"OH","zip5":"44870","latitude":"41.4438700000000000","longitude":"-82.717700000000000","publicwifi":"U","url":null,"broadband_type_id":3}
{"id":null,"anchorname":"OSBORNE ELEMENTARY SCHOOL","address":"920 W OSBORNE ST SANDUSKY, OH 44870","bldgnbr":"920","predir":null,"streetname":"W OSBORNE ST","streettype":null,"suffdir":null,"city":"SANDUSKY","state_code":"OH","zip5":"44870","latitude":"41.4424000000000000","longitude":"-82.715160000000000","publicwifi":"U","url":null,"broadband_type_id":6}
{"id":null,"anchorname":"HANCOCK ELEMENTARY SCHOOL","address":"2314 HANCOCK ST SANDUSKY, OH 44870","bldgnbr":"2314","predir":null,"streetname":"HANCOCK ST","streettype":null,"suffdir":null,"city":"SANDUSKY","state_code":"OH","zip5":"44870","latitude":"41.4356900000000000","longitude":"-82.695650000000000","publicwifi":"U","url":null,"broadband_type_id":6}
{"id":null,"anchorname":"Missouri Mines Historic Site - Power House","address":"75 State Highway 32, Park Hills, MO 63601","bldgnbr":"75","predir":null,"streetname":"State Hwy 32","streettype":null,"suffdir":null,"city":"Park Hills","state_code":"MO","zip5":"63601","latitude":"37.8377491200000000","longitude":"-90.508412348000000","publicwifi":"U","url":"http://mostateparks.com/location/56331/powerhouse-museum","broadband_type_id":6}
{"id":null,"anchorname":"NORTH POINT EDUCATIONAL SERVICE CENTER","address":"2900  COLUMBUS AVENUE SANDUSKY, OH 44870","bldgnbr":"2900","predir":null,"streetname":"COLUMBUS AVENUE","streettype":null,"suffdir":null,"city":"SANDUSKY","state_code":"OH","zip5":"44870","latitude":"41.4269330000000000","longitude":"-82.694390000000000","publicwifi":"U","url":null,"broadband_type_id":6}
{"id":null,"anchorname":"ERIE COUNTY EMA","address":"2900 COLUMBUS AVENUE SANDUSKY, OH 44870","bldgnbr":"2900","predir":null,"streetname":"COLUMBUS AVENUE","streettype":null,"suffdir":null,"city":"SANDUSKY","state_code":"OH","zip5":"44870","latitude":"41.4269800000000000","longitude":"-82.692870000000000","publicwifi":"U","url":null,"broadband_type_id":1}
{"id":null,"anchorname":"OHIO VETERANS HOME-SEACREST GIFFEN","address":"3416 COLUMBUS AVE SANDUSKY, OH 44870","bldgnbr":"3416","predir":null,"streetname":"COLUMBUS AVE","streettype":null,"suffdir":null,"city":"SANDUSKY","state_code":"OH","zip5":"44870","latitude":"41.4179200000000000","longitude":"-82.683630000000000","publicwifi":"U","url":null,"broadband_type_id":6}
{"id":null,"anchorname":"KIDDIE KORRAL","address":"1809 E PERKINS AVE SANDUSKY, OH 44870-5127","bldgnbr":"1809","predir":null,"streetname":"E PERKINS AVE","streettype":null,"suffdir":null,"city":"SANDUSKY","state_code":"OH","zip5":"44870","latitude":"41.4301500000000000","longitude":"-82.671410000000000","publicwifi":"U","url":null,"broadband_type_id":null}
{"id":null,"anchorname":"AGAPE LOVE MINISTRIES","address":"4013 COLUMBUS AVE SANDUSKY, OH 44870","bldgnbr":"4013","predir":null,"streetname":"COLUMBUS AVE","streettype":null,"suffdir":null,"city":"SANDUSKY","state_code":"OH","zip5":"44870","latitude":"41.4102900000000000","longitude":"-82.685384000000000","publicwifi":"U","url":null,"broadband_type_id":6}
{"id":null,"anchorname":"MILAN ROAD HEAD START","address":"3706 MILAN RD SANDUSKY, OH 44870-5618","bldgnbr":"3706","predir":null,"streetname":"MILAN RD","streettype":null,"suffdir":null,"city":"SANDUSKY","state_code":"OH","zip5":"44870","latitude":"41.4240200000000000","longitude":"-82.678030000000000","publicwifi":"U","url":null,"broadband_type_id":null}
{"id":null,"anchorname":"ERIE COUNTY BOARD OF MR\u0026DD","address":"4405 GALLOWAY RD SANDUSKY, OH 44870-6026","bldgnbr":"4405","predir":null,"streetname":"GALLOWAY RD","streettype":null,"suffdir":null,"city":"SANDUSKY","state_code":"OH","zip5":"44870","latitude":"41.4003100000000000","longitude":"-82.648060000000000","publicwifi":"U","url":null,"broadband_type_id":1}
{"id":null,"anchorname":"ERIE-HURON-OTTAWA EDUCATIONAL SERVICE CENTER","address":"908 TAYLOR RD SANDUSKY, OH 44870-8346","bldgnbr":"908","predir":null,"streetname":"TAYLOR RD","streettype":null,"suffdir":null,"city":"SANDUSKY","state_code":"OH","zip5":"44870","latitude":"41.3917400000000000","longitude":"-82.657480000000000","publicwifi":"U","url":null,"broadband_type_id":6}
{"id":null,"anchorname":"ERIE CO 4-H CAMP","address":"2900 COLUMBUS AVE SANDUSKY, OH 44870-5554","bldgnbr":"2900","predir":null,"streetname":"COLUMBUS AVE","streettype":null,"suffdir":null,"city":"SANDUSKY","state_code":"OH","zip5":"44870","latitude":"41.4269800000000000","longitude":"-82.692870000000000","publicwifi":"U","url":null,"broadband_type_id":null}
{"id":null,"anchorname":"HURON/ERIE SCHL EMPL INS CONS","address":"2902 COLUMBUS AVE SANDUSKY, OH 44870-5553","bldgnbr":"2902","predir":null,"streetname":"COLUMBUS AVE","streettype":null,"suffdir":null,"city":"SANDUSKY","state_code":"OH","zip5":"44870","latitude":"41.4271200000000000","longitude":"-82.694370000000000","publicwifi":"U","url":null,"broadband_type_id":null}
{"id":null,"anchorname":"LITTLE PEOPLE DEV CENTER","address":"1320 E STRUB RD SANDUSKY, OH 44870-5640","bldgnbr":"1320","predir":null,"streetname":"E STRUB RD","streettype":null,"suffdir":null,"city":"SANDUSKY","state_code":"OH","zip5":"44870","latitude":"41.4257300000000000","longitude":"-82.669640000000000","publicwifi":"U","url":null,"broadband_type_id":null}
{"id":null,"anchorname":"KALEIDASCOPE CENTER","address":"4405 GALLOWAY RD SANDUSKY, OH 44870-6026","bldgnbr":"4405","predir":null,"streetname":"GALLOWAY RD","streettype":null,"suffdir":null,"city":"SANDUSKY","state_code":"OH","zip5":"44870","latitude":"41.4003100000000000","longitude":"-82.648060000000000","publicwifi":"U","url":null,"broadband_type_id":null}
{"id":null,"anchorname":"PERKINS","address":"1210  E BOGART RD SANDUSKY, OH 44870-6411","bldgnbr":"1210","predir":null,"streetname":"E BOGART RD","streettype":null,"suffdir":null,"city":"SANDUSKY","state_code":"OH","zip5":"44870","latitude":"41.3956300000000000","longitude":"-82.653790000000000","publicwifi":"U","url":null,"broadband_type_id":null}
{"id":null,"anchorname":"THE COMMONS OF PROVIDENCE","address":"401 STROUSE LN SANDUSKY, OH 44870","bldgnbr":"401","predir":null,"streetname":"STROUSE LN","streettype":null,"suffdir":null,"city":"SANDUSKY","state_code":"OH","zip5":"44870","latitude":"41.4434800000000000","longitude":"-82.775810000000000","publicwifi":"U","url":null,"broadband_type_id":null}
{"id":null,"anchorname":"THE COMMONS OF PROVIDENCE","address":"5000 PROVIDENCE DR SANDUSKY, OH 44870","bldgnbr":"5000","predir":null,"streetname":"PROVIDENCE DR","streettype":null,"suffdir":null,"city":"SANDUSKY","state_code":"OH","zip5":"44870","latitude":"41.4447100000000000","longitude":"-82.775210000000000","publicwifi":"U","url":null,"broadband_type_id":null}
{"id":null,"anchorname":"FIRELANDS REGIONAL MEDICAL CENTER - SOUTH","address":"1912 HAYES AVENUE SANDUSKY, OH 44870","bldgnbr":"1912","predir":null,"streetname":"HAYES AVENUE","streettype":null,"suffdir":null,"city":"SANDUSKY","state_code":"OH","zip5":"44870","latitude":"41.4371800000000000","longitude":"-82.711960000000000","publicwifi":"U","url":null,"broadband_type_id":3}
{"id":null,"anchorname":"SANDUSKY CAREER CENTER","address":"2130 HAYES AVE SANDUSKY, OH 44870","bldgnbr":"2130","predir":null,"streetname":"HAYES AVE","streettype":null,"suffdir":null,"city":"SANDUSKY","state_code":"OH","zip5":"44870","latitude":"41.4351890000000000","longitude":"-82.713792000000000","publicwifi":"U","url":null,"broadband_type_id":3}
{"id":null,"anchorname":"SANDUSKY HIGH SCHOOL","address":"2130A HAYES AVE SANDUSKY, OH 44870","bldgnbr":"2130 A","predir":null,"streetname":"HAYES AVENUE","streettype":null,"suffdir":null,"city":"SANDUSKY","state_code":"OH","zip5":"44870","latitude":"41.4352000000000000","longitude":"-82.713770000000000","publicwifi":"U","url":null,"broadband_type_id":6}
{"id":null,"anchorname":"MEADOWLAWN ELEMENTARY SCHOOL","address":"1313 E STRUB RD SANDUSKY, OH 44870","bldgnbr":"1313","predir":null,"streetname":"E STRUB RD","streettype":null,"suffdir":null,"city":"SANDUSKY","state_code":"OH","zip5":"44870","latitude":"41.4253600000000000","longitude":"-82.670870000000000","publicwifi":"U","url":null,"broadband_type_id":6}
{"id":null,"anchorname":"ERIE COUNTY JAIL-SHERIFFS DEPARTMENT","address":"2800 COLUMBUS AVE SANDUSKY, OH 44870","bldgnbr":"2800","predir":null,"streetname":"COLUMBUS AVE","streettype":null,"suffdir":null,"city":"SANDUSKY","state_code":"OH","zip5":"44870","latitude":"41.4285200000000000","longitude":"-82.692450000000000","publicwifi":"U","url":null,"broadband_type_id":4}
{"id":null,"anchorname":"ERIE COUNTY SHERIFFS OFFICE","address":"2800 COLUMBUS AVENUE SANDUSKY, OH 44870","bldgnbr":"2800","predir":null,"streetname":"COLUMBUS AVENUE","streettype":null,"suffdir":null,"city":"SANDUSKY","state_code":"OH","zip5":"44870","latitude":"41.4285200000000000","longitude":"-82.692450000000000","publicwifi":"U","url":null,"broadband_type_id":4}
{"id":null,"anchorname":"OHIO VETERANS HOME POLICE DEPARTMENT","address":"3614 COLUMBUS AVE SANDUSKY, OH 44870","bldgnbr":"3614","predir":null,"streetname":"COLUMBUS AVE","streettype":null,"suffdir":null,"city":"SANDUSKY","state_code":"OH","zip5":"44870","latitude":"41.4165400000000000","longitude":"-82.688090000000000","publicwifi":"U","url":null,"broadband_type_id":4}
{"id":null,"anchorname":"COMMUNITY OF PARKVUE HEALTHCARE CENTER","address":"3800 BOARDWALK BLVD SANDUSKY, OH 44870","bldgnbr":"3800","predir":null,"streetname":"BOARDWALK BLVD","streettype":null,"suffdir":null,"city":"SANDUSKY","state_code":"OH","zip5":"44870","latitude":"41.4111100000000000","longitude":"-82.659440000000000","publicwifi":"U","url":null,"broadband_type_id":3}
{"id":null,"anchorname":"PARKVUE PLACE RETIREMENT COMMUNITY","address":"3800 BOARDWALK BLVD SANDUSKY, OH 44870","bldgnbr":"3800","predir":null,"streetname":"BOARDWALK BLVD","streettype":null,"suffdir":null,"city":"SANDUSKY","state_code":"OH","zip5":"44870","latitude":"41.4111100000000000","longitude":"-82.659440000000000","publicwifi":"U","url":null,"broadband_type_id":2}
{"id":null,"anchorname":"PERKINS TOWNSHIP FIRE DEPARTMENT STATION 3","address":"4510 MILAN ROAD SANDUSKY, OH 44870","bldgnbr":"4510","predir":null,"streetname":"MILAN ROAD","streettype":null,"suffdir":null,"city":"SANDUSKY","state_code":"OH","zip5":"44870","latitude":"41.4132300000000000","longitude":"-82.668970000000000","publicwifi":"U","url":null,"broadband_type_id":5}
{"id":null,"anchorname":"OHIO BUSINESS COLLEGE","address":"5202 TIMBER COMMONS DRIVE SANDUSKY, OH 44870-5871","bldgnbr":"5202","predir":null,"streetname":"TIMBER COMMONS DRIVE","streettype":null,"suffdir":null,"city":"SANDUSKY","state_code":"OH","zip5":"44870","latitude":"41.4148490000000000","longitude":"-82.667079000000000","publicwifi":"U","url":null,"broadband_type_id":6}
{"id":null,"anchorname":"BRIARFLD OF SNDSKY CONCORD CARE FAC","address":"620 W STRUB RD SANDUSKY, OH 44870","bldgnbr":"620","predir":null,"streetname":"W STRUB RD","streettype":null,"suffdir":null,"city":"SANDUSKY","state_code":"OH","zip5":"44870","latitude":"41.4102500000000000","longitude":"-82.696100000000000","publicwifi":"U","url":null,"broadband_type_id":3}
{"id":null,"anchorname":"FURRY ELEMENTARY SCHOOL","address":"310 DOUGLAS DR SANDUSKY, OH 44870","bldgnbr":"310","predir":null,"streetname":"DOUGLAS DR","streettype":null,"suffdir":null,"city":"SANDUSKY","state_code":"OH","zip5":"44870","latitude":"41.4105500000000000","longitude":"-82.688350000000000","publicwifi":"U","url":null,"broadband_type_id":6}
{"id":null,"anchorname":"PERKINS TOWNSHIP FIRE DEPARTMENT STATION 2","address":"3003 CAMPBELL STREET SANDUSKY, OH 44870","bldgnbr":"3003","predir":null,"streetname":"CAMPBELL STREET","streettype":null,"suffdir":null,"city":"SANDUSKY","state_code":"OH","zip5":"44870","latitude":"41.4229200000000000","longitude":"-82.703530000000000","publicwifi":"U","url":null,"broadband_type_id":5}
{"id":null,"anchorname":"PERKINS HIGH SCHOOL","address":"3714 CAMPBELL ST SANDUSKY, OH 44870","bldgnbr":"3714","predir":null,"streetname":"CAMPBELL ST","streettype":null,"suffdir":null,"city":"SANDUSKY","state_code":"OH","zip5":"44870","latitude":"41.4140900000000000","longitude":"-82.702060000000000","publicwifi":"U","url":null,"broadband_type_id":6}
{"id":null,"anchorname":"PERKINS MIDDLE SCHOOL","address":"3700 SOUTH AVE SANDUSKY, OH 44870","bldgnbr":"3700","predir":null,"streetname":"SOUTH AVE","streettype":null,"suffdir":null,"city":"SANDUSKY","state_code":"OH","zip5":"44870","latitude":"41.4139800000000000","longitude":"-82.697230000000000","publicwifi":"U","url":null,"broadband_type_id":6}
{"id":null,"anchorname":"PERKINS TOWNSHIP POLICE DEPARTMENT","address":"5420 MILAN ROAD SANDUSKY, OH 44870","bldgnbr":"5420","predir":null,"streetname":"MILAN ROAD","streettype":null,"suffdir":null,"city":"SANDUSKY","state_code":"OH","zip5":"44870","latitude":"41.3988200000000000","longitude":"-82.650930000000000","publicwifi":"U","url":null,"broadband_type_id":4}
{"id":null,"anchorname":"BAYVIEW POLICE DEPARTMENT","address":"304 E BAYVIEW DR SANDUSKY, OH 44870-6175","bldgnbr":"304","predir":null,"streetname":"E BAYVIEW DR","streettype":null,"suffdir":null,"city":"SANDUSKY","state_code":"OH","zip5":"44870","latitude":"41.4730000000000000","longitude":"-82.825520000000000","publicwifi":"U","url":null,"broadband_type_id":4}
{"id":null,"anchorname":"BAY VIEW FIRE DEPARTMENT","address":"2312 COMANCHE TRAIL SANDUSKY, OH 44870","bldgnbr":"2312","predir":null,"streetname":"COMANCHE TRAIL","streettype":null,"suffdir":null,"city":"SANDUSKY","state_code":"OH","zip5":"44870","latitude":"41.4650300000000000","longitude":"-82.819860000000000","publicwifi":"U","url":null,"broadband_type_id":5}
{"id":null,"anchorname":"SANDUSKY OSHP","address":"511 FREMONT AVE SANDUSKY, OH 44870-1403","bldgnbr":"511","predir":null,"streetname":"FREMONT AVE","streettype":null,"suffdir":null,"city":"SANDUSKY","state_code":"OH","zip5":"44870","latitude":"41.4436000000000000","longitude":"-82.773590000000000","publicwifi":"U","url":null,"broadband_type_id":null}
{"id":null,"anchorname":"COMMONS OF PROVIDENCE DIMENTIA UNIT","address":"4901 PROVIDENCE DR SANDUSKY, OH 44870","bldgnbr":"4901","predir":null,"streetname":"PROVIDENCE DR","streettype":null,"suffdir":null,"city":"SANDUSKY","state_code":"OH","zip5":"44870","latitude":"41.4444400000000000","longitude":"-82.774040000000000","publicwifi":"U","url":null,"broadband_type_id":null}
{"id":null,"anchorname":"MARGARETTA LOCAL","address":"305  S WASHINGTON ST CASTALIA, OH 44824-9263","bldgnbr":"305","predir":null,"streetname":"S WASHINGTON ST","streettype":null,"suffdir":null,"city":"CASTALIA","state_code":"OH","zip5":"44824","latitude":"41.3969800000000000","longitude":"-82.808150000000000","publicwifi":"U","url":null,"broadband_type_id":null}
{"id":null,"anchorname":"Missouri Hills Campus - Spanish Lake","address":"13312 Bellefontaine Road, Saint Louis MO 63138","bldgnbr":"13312","predir":null,"streetname":"Bellefontaine","streettype":"Road","suffdir":null,"city":"St Louis","state_code":"MO","zip5":"63138","latitude":"38.8278051690000000","longitude":"-90.218891222000000","publicwifi":"U","url":null,"broadband_type_id":6}
{"id":null,"anchorname":"ERIE-HURON-OTTAWA EDUCATIONAL SERVICE CENTER","address":"5714 MILLER RD CASTALIA, OH 44824-9729","bldgnbr":"5714","predir":null,"streetname":"MILLER RD","streettype":null,"suffdir":null,"city":"CASTALIA","state_code":"OH","zip5":"44824","latitude":"41.3795100000000000","longitude":"-82.782600000000000","publicwifi":"U","url":null,"broadband_type_id":6}
{"id":null,"anchorname":"ERIE COUNTY COURT","address":"150 MASON RD W MILAN, OH 44846-9799","bldgnbr":"150","predir":null,"streetname":"MASON RD W","streettype":null,"suffdir":null,"city":"MILAN","state_code":"OH","zip5":"44846","latitude":"41.3326900000000000","longitude":"-82.625960000000000","publicwifi":"U","url":null,"broadband_type_id":1}
{"id":null,"anchorname":"ERIE-HURON-OTTAWA EDUCATIONAL SERVICE CENTER","address":"46 PAWNEE DR MILAN, OH 44846-9764","bldgnbr":"46","predir":null,"streetname":"PAWNEE DR","streettype":null,"suffdir":null,"city":"MILAN","state_code":"OH","zip5":"44846","latitude":"41.2879100000000000","longitude":"-82.601240000000000","publicwifi":"U","url":null,"broadband_type_id":6}
{"id":null,"anchorname":"CASTALIA BRANCH","address":"208 LOWELL ST CASTALIS, OH 44824-9999","bldgnbr":"208","predir":null,"streetname":"LOWELL ST","streettype":null,"suffdir":null,"city":"CASTALIS","state_code":"OH","zip5":"44824","latitude":"41.3986460000000000","longitude":"-82.801989000000000","publicwifi":"U","url":null,"broadband_type_id":null}
{"id":null,"anchorname":"BRIARFIELD OF MILAN","address":"185 MAIN ST S MILAN, OH 44846","bldgnbr":"185","predir":null,"streetname":"MAIN ST S","streettype":null,"suffdir":null,"city":"MILAN","state_code":"OH","zip5":"44846","latitude":"41.2910200000000000","longitude":"-82.600620000000000","publicwifi":"U","url":null,"broadband_type_id":null}
{"id":null,"anchorname":"MILLERSPORT HEAD START CENTER","address":"11850 LANCASTER NEWARK RD NE MILLERSPORT, OH 43046-9747","bldgnbr":"11850","predir":null,"streetname":"LANCASTER NEWARK RD NE","streettype":null,"suffdir":null,"city":"MILLERSPORT","state_code":"OH","zip5":"43046","latitude":"39.9004100000000000","longitude":"-82.562110000000000","publicwifi":"U","url":null,"broadband_type_id":null}
{"id":null,"anchorname":"LIBERTY UNION THURSTON DIGITAL","address":"621  W WASHINGTON ST BALTIMORE, OH 43105-1196","bldgnbr":"621","predir":null,"streetname":"W WASHINGTON ST","streettype":null,"suffdir":null,"city":"BALTIMORE","state_code":"OH","zip5":"43105","latitude":"39.8466100000000000","longitude":"-82.608990000000000","publicwifi":"U","url":null,"broadband_type_id":null}
{"id":null,"anchorname":"MARGARETA TOWNSHIP FIRE AND POLICE DEPARTMENT","address":"113 SOUTH AVENUE CASTALIA, OH 44824","bldgnbr":"113","predir":null,"streetname":"SOUTH AVENUE","streettype":null,"suffdir":null,"city":"CASTALIA","state_code":"OH","zip5":"44824","latitude":"41.3995700000000000","longitude":"-82.808040000000000","publicwifi":"U","url":null,"broadband_type_id":4}
{"id":null,"anchorname":"MARGARETTA TOWNSHIP FIRE DEPARTMENT","address":"113 SOUTH AVENUE CASTALIA, OH 44824","bldgnbr":"113","predir":null,"streetname":"SOUTH AVENUE","streettype":null,"suffdir":null,"city":"CASTALIA","state_code":"OH","zip5":"44824","latitude":"41.3995700000000000","longitude":"-82.808040000000000","publicwifi":"U","url":null,"broadband_type_id":5}
{"id":null,"anchorname":"CASTALIA POLICE DEPARTMENT","address":"126 MAIN STREET CASTALIA, OH 44824","bldgnbr":"126","predir":null,"streetname":"MAIN STREET","streettype":null,"suffdir":null,"city":"CASTALIA","state_code":"OH","zip5":"44824","latitude":"41.3998800000000000","longitude":"-82.808050000000000","publicwifi":"U","url":null,"broadband_type_id":4}
{"id":null,"anchorname":"MARGARETTA HIGH SCHOOL","address":"209 LOWELL ST CASTALIA, OH 44824","bldgnbr":"209","predir":null,"streetname":"LOWELL ST","streettype":null,"suffdir":null,"city":"CASTALIA","state_code":"OH","zip5":"44824","latitude":"41.3988000000000000","longitude":"-82.802060000000000","publicwifi":"U","url":null,"broadband_type_id":6}
{"id":null,"anchorname":"EHOVE CAREER CENTER","address":"316 MASON RD W MILAN, OH 44846","bldgnbr":"316","predir":null,"streetname":"MASON RD W","streettype":null,"suffdir":null,"city":"MILAN","state_code":"OH","zip5":"44846","latitude":"41.3330000000000000","longitude":"-82.628120000000000","publicwifi":"U","url":null,"broadband_type_id":3}
{"id":null,"anchorname":"EHOVE CAREER CENTER","address":"316 MASON RD W MILAN, OH 44846-9500","bldgnbr":"316","predir":null,"streetname":"MASON RD W","streettype":null,"suffdir":null,"city":"MILAN","state_code":"OH","zip5":"44846","latitude":"41.3330000000000000","longitude":"-82.628120000000000","publicwifi":"U","url":null,"broadband_type_id":3}
{"id":null,"anchorname":"GROTON TOWNSHIP FIRE DEPARTMENT","address":"9414 PORTLAND ROAD CASTALIA, OH 44824","bldgnbr":"9414","predir":null,"streetname":"PORTLAND ROAD","streettype":null,"suffdir":null,"city":"CASTALIA","state_code":"OH","zip5":"44824","latitude":"41.3429300000000000","longitude":"-82.790240000000000","publicwifi":"U","url":null,"broadband_type_id":5}
{"id":null,"anchorname":"BELLEVUE ELEMENTARY SCHOOL","address":"1150 CASTALIA ST BELLEVUE, OH 44811","bldgnbr":"1150","predir":null,"streetname":"CASTALIA ST","streettype":null,"suffdir":null,"city":"BELLEVUE","state_code":"OH","zip5":"44811","latitude":"41.2936720000000000","longitude":"-82.833052000000000","publicwifi":"U","url":null,"broadband_type_id":6}
{"id":null,"anchorname":"MILAN TOWNSHIP FIRE DEPARTMENT STATION 2","address":"12599 STATE ROUTE 13 MILAN, OH 44846","bldgnbr":"12599","predir":null,"streetname":"STATE ROUTE 13","streettype":null,"suffdir":null,"city":"MILAN","state_code":"OH","zip5":"44846","latitude":"41.3137000000000000","longitude":"-82.603520000000000","publicwifi":"U","url":null,"broadband_type_id":5}
{"id":null,"anchorname":"MILAN POLICE DEPARTMENT","address":"9 CHURCH ST MILAN, OH 44846","bldgnbr":"9","predir":null,"streetname":"CHURCH ST","streettype":null,"suffdir":null,"city":"MILAN","state_code":"OH","zip5":"44846","latitude":"41.3116000000000000","longitude":"-82.604500000000000","publicwifi":"U","url":null,"broadband_type_id":4}
{"id":null,"anchorname":"NORTH CENTRAL EMERGENCY MEDICAL SERVICES","address":"12513 UNITED STATES ROUTE 250 NORTH MILAN, OH 44846","bldgnbr":"12513","predir":null,"streetname":"UNITED STATES ROUTE 250 NORTH","streettype":null,"suffdir":null,"city":"MILAN","state_code":"OH","zip5":"44846","latitude":"41.3116000000000000","longitude":"-82.604500000000000","publicwifi":"U","url":null,"broadband_type_id":3}
{"id":null,"anchorname":"EDISON HIGH SCHOOL","address":"2603 STATE ROUTE 113 E MILAN, OH 44846","bldgnbr":"2603","predir":null,"streetname":"STATE ROUTE 113 E","streettype":null,"suffdir":null,"city":"MILAN","state_code":"OH","zip5":"44846","latitude":"41.2986400000000000","longitude":"-82.573530000000000","publicwifi":"U","url":null,"broadband_type_id":6}
{"id":null,"anchorname":"MILAN TOWNSHIP FIRE DEPARTMENT STATION 1","address":"1 NORTH CENTER STREET MILAN, OH 44846","bldgnbr":"1","predir":null,"streetname":"NORTH CENTER STREET","streettype":null,"suffdir":null,"city":"MILAN","state_code":"OH","zip5":"44846","latitude":"41.2987700000000000","longitude":"-82.605180000000000","publicwifi":"U","url":null,"broadband_type_id":5}
{"id":null,"anchorname":"MILAN-BERLIN TOWNSHIP PUBLIC LIBRARY","address":"19 E CHURCH ST MILAN, OH 44846-9343","bldgnbr":"19","predir":null,"streetname":"E CHURCH ST","streettype":null,"suffdir":null,"city":"MILAN","state_code":"OH","zip5":"44846","latitude":"41.2977800000000000","longitude":"-82.604990000000000","publicwifi":"Y","url":null,"broadband_type_id":6}
{"id":null,"anchorname":"EDISON ELEMENTARY SCHOOL (FORMERLY MILAN ELEM)","address":"140 MAIN ST S MILAN, OH 44846","bldgnbr":"140","predir":null,"streetname":"MAIN ST S","streettype":null,"suffdir":null,"city":"MILAN","state_code":"OH","zip5":"44846","latitude":"41.2921730000000000","longitude":"-82.601315000000000","publicwifi":"U","url":null,"broadband_type_id":6}
{"id":null,"anchorname":"MILLERSPORT FIRE DEPARTMENT STATION 632","address":"5400 FAIRFIELD BEACH ROAD THORNVILLE, OH 43076","bldgnbr":"5400","predir":null,"streetname":"FAIRFIELD BEACH ROAD","streettype":null,"suffdir":null,"city":"THORNVILLE","state_code":"OH","zip5":"43076","latitude":"39.9105200000000000","longitude":"-82.477430000000000","publicwifi":"U","url":null,"broadband_type_id":5}
{"id":null,"anchorname":"MILLERSPORT ELEMENTARY SCHOOL","address":"11850 LANCASTER ST MILLERSPORT, OH 43046","bldgnbr":"11850","predir":null,"streetname":"LANCASTER ST","streettype":null,"suffdir":null,"city":"MILLERSPORT","state_code":"OH","zip5":"43046","latitude":"39.8950900000000000","longitude":"-82.535070000000000","publicwifi":"U","url":null,"broadband_type_id":6}
{"id":null,"anchorname":"MILLERSPORT JR/SR HIGH SCHOOL","address":"11850 LANCASTER ST MILLERSPORT, OH 43046","bldgnbr":"11850","predir":null,"streetname":"LANCASTER ST","streettype":null,"suffdir":null,"city":"MILLERSPORT","state_code":"OH","zip5":"43046","latitude":"39.8961200000000000","longitude":"-82.534150000000000","publicwifi":"U","url":null,"broadband_type_id":6}
{"id":null,"anchorname":"MILLERSPORT POLICE DEPARTMENT","address":"2267 REFUGEE STREET MILLERSPORT, OH 43046-0536","bldgnbr":"2267","predir":null,"streetname":"REFUGEE STREET","streettype":null,"suffdir":null,"city":"MILLERSPORT","state_code":"OH","zip5":"43046","latitude":"39.8988950000000000","longitude":"-82.538686000000000","publicwifi":"U","url":null,"broadband_type_id":4}
{"id":null,"anchorname":"THURSTON-WALNUT TOWNSHIP FIRE DEPARTMENT","address":"8474 HIGH STREET THURSTON, OH 43157","bldgnbr":"8474","predir":null,"streetname":"HIGH STREET","streettype":null,"suffdir":null,"city":"THURSTON","state_code":"OH","zip5":"43157","latitude":"39.8410000000000000","longitude":"-82.547000000000000","publicwifi":"U","url":null,"broadband_type_id":5}
{"id":null,"anchorname":"HEARTLAND-FAIRFIELD NURSING CENTER","address":"7820 PLEASANTVILLE RD PLEASANTVILLE, OH 43148","bldgnbr":"7820","predir":null,"streetname":"PLEASANTVILLE RD","streettype":null,"suffdir":null,"city":"PLEASANTVILLE","state_code":"OH","zip5":"43148","latitude":"39.8179000000000000","longitude":"-82.508600000000000","publicwifi":"U","url":null,"broadband_type_id":3}
{"id":null,"anchorname":"BASIL JOINT FIRE DISTRICT STATION 610 - HEADQUARTERS","address":"410 WASHINGTON STREET BALTIMORE, OH 43105","bldgnbr":"410","predir":null,"streetname":"WASHINGTON STREET","streettype":null,"suffdir":null,"city":"BALTIMORE","state_code":"OH","zip5":"43105","latitude":"39.8470800000000000","longitude":"-82.606120000000000","publicwifi":"U","url":null,"broadband_type_id":5}
{"id":null,"anchorname":"BALTIMORE POLICE DEPARTMENT","address":"416 W MARKET ST BALTIMORE, OH 43105-1193","bldgnbr":"416","predir":null,"streetname":"W MARKET ST","streettype":null,"suffdir":null,"city":"BALTIMORE","state_code":"OH","zip5":"43105","latitude":"39.8456600000000000","longitude":"-82.605540000000000","publicwifi":"U","url":null,"broadband_type_id":4}
{"id":null,"anchorname":"LIBERTY UNION MIDDLE SCHOOL","address":"994 S MAIN ST BALTIMORE, OH 43105","bldgnbr":"994","predir":null,"streetname":"S MAIN ST","streettype":null,"suffdir":null,"city":"BALTIMORE","state_code":"OH","zip5":"43105","latitude":"39.8467800000000000","longitude":"-82.608910000000000","publicwifi":"U","url":null,"broadband_type_id":6}
{"id":null,"anchorname":"Missouri Hills Campus - Twin Rivers","address":"13316 Bellefontaine Road, Saint Louis MO 63138","bldgnbr":"13316","predir":null,"streetname":"Bellefontaine","streettype":"Road","suffdir":null,"city":"St Louis","state_code":"MO","zip5":"63138","latitude":"38.8262433950000000","longitude":"-90.212453275000000","publicwifi":"U","url":null,"broadband_type_id":6}
{"id":null,"anchorname":"BALTIMORE HEAD START","address":"1818 1/2 BASIL WESTERN RD BALTIMORE, OH 43105-9334","bldgnbr":"1818 1/2","predir":null,"streetname":"BASIL WESTERN RD","streettype":null,"suffdir":null,"city":"BALTIMORE","state_code":"OH","zip5":"43105","latitude":"39.8445800000000000","longitude":"-82.623210000000000","publicwifi":"U","url":null,"broadband_type_id":null}
{"id":null,"anchorname":"Missouri Veteran's Home - St Louis","address":"10600 Lewis and Clark Blvd, St. Louis, MO 63137","bldgnbr":"10600","predir":null,"streetname":"Lewis and Clark","streettype":"Boulevard","suffdir":null,"city":"St Louis","state_code":"MO","zip5":"63137","latitude":"38.7615972220000000","longitude":"-90.236772222000000","publicwifi":"U","url":null,"broadband_type_id":6}
{"id":null,"anchorname":"FAIRFIELD","address":"10591 LITHOPOLIS RD NW CANAL WINCHESTER, OH 43110-8859","bldgnbr":"10591","predir":null,"streetname":"LITHOPOLIS RD NW","streettype":null,"suffdir":null,"city":"CANAL WINCHESTER","state_code":"OH","zip5":"43110","latitude":"39.7891000000000000","longitude":"-82.799920000000000","publicwifi":"U","url":null,"broadband_type_id":null}
{"id":null,"anchorname":"SMALL WONDERS","address":"4485 CARROLL CEMETERY RD CARROLL, OH 43112-9701","bldgnbr":"4485","predir":null,"streetname":"CARROLL CEMETERY RD","streettype":null,"suffdir":null,"city":"CARROLL","state_code":"OH","zip5":"43112","latitude":"39.7949400000000000","longitude":"-82.705390000000000","publicwifi":"U","url":null,"broadband_type_id":null}
{"id":null,"anchorname":"ROCKMILL REHABILITATION CENTRE","address":"3680 DOLSON CT CARROLL, OH 43112","bldgnbr":"3680","predir":null,"streetname":"DOLSON CT","streettype":null,"suffdir":null,"city":"CARROLL","state_code":"OH","zip5":"43112","latitude":"39.7614500000000000","longitude":"-82.667550000000000","publicwifi":"U","url":null,"broadband_type_id":null}
{"id":null,"anchorname":"ROCKMILL SPRINGS","address":"3682 DOLSON CT CARROLL, OH 43112","bldgnbr":"3682","predir":null,"streetname":"DOLSON CT","streettype":null,"suffdir":null,"city":"CARROLL","state_code":"OH","zip5":"43112","latitude":"39.7604000000000000","longitude":"-82.667300000000000","publicwifi":"U","url":null,"broadband_type_id":null}
{"id":null,"anchorname":"LANCASTER OSHP","address":"1125 ETY RD NW LANCASTER, OH 43130-8487","bldgnbr":"1125","predir":null,"streetname":"ETY RD NW","streettype":null,"suffdir":null,"city":"LANCASTER","state_code":"OH","zip5":"43130","latitude":"39.7422800000000000","longitude":"-82.638920000000000","publicwifi":"U","url":null,"broadband_type_id":null}
{"id":null,"anchorname":"BALTIMORE BRANCH LIBRARY","address":"205 E MARKET ST BALTIMORE, OH 43105-1326","bldgnbr":"205","predir":null,"streetname":"E MARKET ST","streettype":null,"suffdir":null,"city":"BALTIMORE","state_code":"OH","zip5":"43105","latitude":"39.8452300000000000","longitude":"-82.599900000000000","publicwifi":"Y","url":null,"broadband_type_id":6}
{"id":null,"anchorname":"BASIL JOINT FIRE DISTRICT STATION 611","address":"11960 STOUDERTOWN ROAD BALTIMORE, OH 43105","bldgnbr":"11960","predir":null,"streetname":"STOUDERTOWN ROAD","streettype":null,"suffdir":null,"city":"BALTIMORE","state_code":"OH","zip5":"43105","latitude":"39.9041500000000000","longitude":"-82.682840000000000","publicwifi":"U","url":null,"broadband_type_id":5}
{"id":null,"anchorname":"DILEY MIDDLE SCHOOL","address":"750 PRESTON TRAILS DR PICKERINGTON, OH 43147","bldgnbr":"750","predir":null,"streetname":"PRESTON TRAILS DR","streettype":null,"suffdir":null,"city":"PICKERINGTON","state_code":"OH","zip5":"43147","latitude":"39.8783700000000000","longitude":"-82.776630000000000","publicwifi":"U","url":null,"broadband_type_id":6}
{"id":null,"anchorname":"SYCAMORE CREEK ELEMENTARY SCHOOL","address":"500 SYCAMORE CREEK ST PICKERINGTON, OH 43147","bldgnbr":"500","predir":null,"streetname":"SYCAMORE CREEK ST","streettype":null,"suffdir":null,"city":"PICKERINGTON","state_code":"OH","zip5":"43147","latitude":"39.8637290000000000","longitude":"-82.766322000000000","publicwifi":"U","url":null,"broadband_type_id":6}
{"id":null,"anchorname":"PICKERINGTON ELEMENTARY SCHOOL","address":"775 LONG RD PICKERINGTON, OH 43147","bldgnbr":"775","predir":null,"streetname":"LONG RD","streettype":null,"suffdir":null,"city":"PICKERINGTON","state_code":"OH","zip5":"43147","latitude":"39.8896500000000000","longitude":"-82.776200000000000","publicwifi":"U","url":null,"broadband_type_id":6}
{"id":null,"anchorname":"PICKERINGTON RIDGEVIEW JUNIOR HIGH SCHOOL","address":"130 HILL RD S PICKERINGTON, OH 43147","bldgnbr":"130","predir":null,"streetname":"HILL RD S","streettype":null,"suffdir":null,"city":"PICKERINGTON","state_code":"OH","zip5":"43147","latitude":"39.8818600000000000","longitude":"-82.759100000000000","publicwifi":"U","url":null,"broadband_type_id":6}
{"id":null,"anchorname":"VIOLET TOWNSHIP FIRE DEPARTMENT STATION 591","address":"21 LOCKVILLE ROAD PICKERINGTON, OH 43147","bldgnbr":"21","predir":null,"streetname":"LOCKVILLE ROAD","streettype":null,"suffdir":null,"city":"PICKERINGTON","state_code":"OH","zip5":"43147","latitude":"39.8836000000000000","longitude":"-82.753330000000000","publicwifi":"U","url":null,"broadband_type_id":5}
{"id":null,"anchorname":"PICKERINGTON POLICE DEPARTMENT","address":"51 E COLUMBUS ST PICKERINGTON, OH 43147-1382","bldgnbr":"51","predir":null,"streetname":"E COLUMBUS ST","streettype":null,"suffdir":null,"city":"PICKERINGTON","state_code":"OH","zip5":"43147","latitude":"39.8838800000000000","longitude":"-82.752220000000000","publicwifi":"U","url":null,"broadband_type_id":4}
{"id":null,"anchorname":"PICKERINGTON HIGH SCHOOL CENTRAL","address":"300 OPPORTUNITY WAY PICKERINGTON, OH 43147","bldgnbr":"300","predir":null,"streetname":"OPPORTUNITY WAY","streettype":null,"suffdir":null,"city":"PICKERINGTON","state_code":"OH","zip5":"43147","latitude":"39.8760900000000000","longitude":"-82.753960000000000","publicwifi":"U","url":null,"broadband_type_id":6}
{"id":null,"anchorname":"PICKERINGTON PUBLIC LIBRARY","address":"201 OPPORTUNITY WAY PICKERINGTON, OH 43147-1296","bldgnbr":"201","predir":null,"streetname":"OPPORTUNITY WAY","streettype":null,"suffdir":null,"city":"PICKERINGTON","state_code":"OH","zip5":"43147","latitude":"39.8743600000000000","longitude":"-82.757110000000000","publicwifi":"Y","url":null,"broadband_type_id":6}
{"id":null,"anchorname":"BLOOM TOWNSHIP FIRE DEPARTMENT","address":"66 SOUTH MARKET STREET LITHOPOLIS, OH 43136","bldgnbr":"66","predir":null,"streetname":"SOUTH MARKET STREET","streettype":null,"suffdir":null,"city":"LITHOPOLIS","state_code":"OH","zip5":"43136","latitude":"39.8082000000000000","longitude":"-82.813800000000000","publicwifi":"U","url":null,"broadband_type_id":5}
{"id":null,"anchorname":"WAGNALLS MEMORIAL LIBRARY","address":"150 E COLUMBUS STREET LITHOPOLIS, OH 43136","bldgnbr":"150","predir":null,"streetname":"E COLUMBUS STREET","streettype":null,"suffdir":null,"city":"LITHOPOLIS","state_code":"OH","zip5":"43136","latitude":"39.8082000000000000","longitude":"-82.813800000000000","publicwifi":"Y","url":null,"broadband_type_id":6}
{"id":null,"anchorname":"LITHOPOLIS POLICE DEPARTMENT","address":"33 MARKET STREET LITHOPOLIS, OH 43136-0210","bldgnbr":"33","predir":null,"streetname":"MARKET STREET","streettype":null,"suffdir":null,"city":"LITHOPOLIS","state_code":"OH","zip5":"43136","latitude":"39.8041300000000000","longitude":"-82.808021000000000","publicwifi":"U","url":null,"broadband_type_id":4}
{"id":null,"anchorname":"CHESTNUT RIDGE METRO PARK","address":"8445 WINCHESTER RD CARROLL, OH 43112-9545","bldgnbr":"8445","predir":null,"streetname":"WINCHESTER RD","streettype":null,"suffdir":null,"city":"CARROLL","state_code":"OH","zip5":"43112","latitude":"39.8070600000000000","longitude":"-82.752570000000000","publicwifi":"U","url":null,"broadband_type_id":2}
{"id":null,"anchorname":"BLOOM TOWNSHIP FIRE DEPARTMENT STATION 2","address":"7698 OBERLIN COURT LANCASTER, OH 43130","bldgnbr":"7698","predir":null,"streetname":"OBERLIN COURT","streettype":null,"suffdir":null,"city":"LANCASTER","state_code":"OH","zip5":"43130","latitude":"39.7376800000000000","longitude":"-82.747210000000000","publicwifi":"U","url":null,"broadband_type_id":5}
{"id":null,"anchorname":"BLOOM-CARROLL HIGH SCHOOL","address":"5240 PLUM ROAD NW CARROLL, OH 43112","bldgnbr":"5240","predir":null,"streetname":"PLUM ROAD NW","streettype":null,"suffdir":null,"city":"CARROLL","state_code":"OH","zip5":"43112","latitude":"39.7928800000000000","longitude":"-82.697380000000000","publicwifi":"U","url":null,"broadband_type_id":6}
{"id":null,"anchorname":"BLOOM CARROLL PRIMARY SCHOOL","address":"69 S BEAVER STREET CARROLL, OH 43112","bldgnbr":"69","predir":null,"streetname":"S BEAVER STREET","streettype":null,"suffdir":null,"city":"CARROLL","state_code":"OH","zip5":"43112","latitude":"39.7948680000000000","longitude":"-82.697622000000000","publicwifi":"U","url":null,"broadband_type_id":6}
{"id":null,"anchorname":"BLOOM-CARROLL MIDDLE SCHOOL","address":"71 S BEAVER ST CARROLL, OH 43112","bldgnbr":"71","predir":null,"streetname":"S BEAVER ST","streettype":null,"suffdir":null,"city":"CARROLL","state_code":"OH","zip5":"43112","latitude":"39.7949660000000000","longitude":"-82.700635000000000","publicwifi":"U","url":null,"broadband_type_id":6}
{"id":null,"anchorname":"CARROLL POLICE DEPARTMENT","address":"68 CENTER STREET CARROLL, OH 43112-0367","bldgnbr":"68","predir":null,"streetname":"CENTER STREET","streettype":null,"suffdir":null,"city":"CARROLL","state_code":"OH","zip5":"43112","latitude":"39.7986380000000000","longitude":"-82.702138000000000","publicwifi":"U","url":null,"broadband_type_id":4}
{"id":null,"anchorname":"TENDER DAY CARE","address":"4485 CARROLL CEMETERY RD CARROLL, OH 43112-9701","bldgnbr":"4485","predir":null,"streetname":"CARROLL CEMETERY RD","streettype":null,"suffdir":null,"city":"CARROLL","state_code":"OH","zip5":"43112","latitude":"39.7949400000000000","longitude":"-82.705390000000000","publicwifi":"U","url":null,"broadband_type_id":3}
{"id":null,"anchorname":"GREENFIELD TOWNSHIP FIRE DEPARTMENT STATION 560","address":"3245 HAVENSPORT ROAD CARROLL, OH 43112","bldgnbr":"3245","predir":null,"streetname":"HAVENSPORT ROAD","streettype":null,"suffdir":null,"city":"CARROLL","state_code":"OH","zip5":"43112","latitude":"39.7735900000000000","longitude":"-82.647070000000000","publicwifi":"U","url":null,"broadband_type_id":5}
{"id":null,"anchorname":"FAIRFIELD CAREER CENTER","address":"4000 COLUMBUS LANCASTER RD NW CARROLL, OH 43112-9563","bldgnbr":"4000","predir":null,"streetname":"COLUMBUS LANCASTER RD NW","streettype":null,"suffdir":null,"city":"CARROLL","state_code":"OH","zip5":"43112","latitude":"39.7624000000000000","longitude":"-82.670020000000000","publicwifi":"U","url":null,"broadband_type_id":3}
{"id":null,"anchorname":"FAIRFIELD CAREER CENTER","address":"3985 COONPATH RD CARROLL, OH 43112","bldgnbr":"3985","predir":null,"streetname":"COONPATH RD","streettype":null,"suffdir":null,"city":"CARROLL","state_code":"OH","zip5":"43112","latitude":"39.7677100000000000","longitude":"-82.674515000000000","publicwifi":"U","url":null,"broadband_type_id":3}
{"id":null,"anchorname":"DAYMAR COLLEGE","address":"1579 VICTOR RD NW LANCASTER, OH 43130-1368","bldgnbr":"1579","predir":null,"streetname":"VICTOR RD.","streettype":null,"suffdir":null,"city":"LANCASTER","state_code":"OH","zip5":"43130","latitude":"39.7493170000000000","longitude":"-82.651793000000000","publicwifi":"U","url":null,"broadband_type_id":6}
{"id":null,"anchorname":"ALTERCARE OF VALLEY VIEW NURSING HOME","address":"5185 LITHOPOLIS RD NW LANCASTER, OH 43130","bldgnbr":"5185","predir":null,"streetname":"LITHOPOLIS RD NW","streettype":null,"suffdir":null,"city":"LANCASTER","state_code":"OH","zip5":"43130","latitude":"39.7480100000000000","longitude":"-82.700710000000000","publicwifi":"U","url":null,"broadband_type_id":3}
{"id":null,"anchorname":"PLEASANTVILLE ELEMENTARY SCHOOL","address":"300 W. COLUMBUS STREET PLEASANTVILLE, OH 43148","bldgnbr":"300","predir":null,"streetname":"W. COLUMBUS STREET","streettype":null,"suffdir":null,"city":"PLEASANTVILLE","state_code":"OH","zip5":"43148","latitude":"39.8074700000000000","longitude":"-82.521780000000000","publicwifi":"U","url":null,"broadband_type_id":6}
{"id":null,"anchorname":"PLEASANT TOWNSHIP FIRE DEPARTMENT","address":"2925 LANCASTER THORNVILLE ROAD LANCASTER, OH 43130","bldgnbr":"2925","predir":null,"streetname":"LANCASTER THORNVILLE ROAD","streettype":null,"suffdir":null,"city":"LANCASTER","state_code":"OH","zip5":"43130","latitude":"39.7651200000000000","longitude":"-82.544620000000000","publicwifi":"U","url":null,"broadband_type_id":5}
{"id":null,"anchorname":"NORTHSIDE CHRISTIAN CHURCH","address":"9635 Lewis \u0026 Clark Blvd.","bldgnbr":"9635","predir":null,"streetname":"Lewis \u0026 Clark Blvd.","streettype":null,"suffdir":null,"city":"SAINT LOUIS","state_code":"MO","zip5":"63136","latitude":"38.7395120000000000","longitude":"-90.241622000000000","publicwifi":null,"url":null,"broadband_type_id":6}
{"id":null,"anchorname":"FAIRFIELD","address":"8028 BOPE RD NE RUSHVILLE, OH 43150-9619","bldgnbr":"8028","predir":null,"streetname":"BOPE RD NE","streettype":null,"suffdir":null,"city":"RUSHVILLE","state_code":"OH","zip5":"43150","latitude":"39.7911100000000000","longitude":"-82.437910000000000","publicwifi":"U","url":null,"broadband_type_id":null}
{"id":null,"anchorname":"FAIRFIELD UNION LOCAL","address":"7698  MAIN ST RUSHVILLE, OH 43150-9663","bldgnbr":"7698","predir":null,"streetname":"MAIN ST","streettype":null,"suffdir":null,"city":"RUSHVILLE","state_code":"OH","zip5":"43150","latitude":"39.7639300000000000","longitude":"-82.446800000000000","publicwifi":"U","url":null,"broadband_type_id":null}
{"id":null,"anchorname":"Charles W. Brown Community Center","address":"1414 Evergreen St.","bldgnbr":"1414","predir":null,"streetname":"Evergreen St.","streettype":null,"suffdir":null,"city":"SAINT LOUIS","state_code":"MO","zip5":"63133","latitude":"38.6748600000000000","longitude":"-90.289010000000000","publicwifi":null,"url":null,"broadband_type_id":6}
{"id":null,"anchorname":"ST JOHN BOSCO PARISH CENTER","address":"12934 Marine Ave.","bldgnbr":"12934","predir":null,"streetname":"Marine Ave.","streettype":null,"suffdir":null,"city":"SAINT LOUIS","state_code":"MO","zip5":"63146","latitude":"38.7082100000000000","longitude":"-90.473680000000000","publicwifi":null,"url":null,"broadband_type_id":6}
{"id":null,"anchorname":"FAIRFIELD CHRISTIAN CHURCH","address":"1965 N COLUMBUS ST LANCASTER, OH 43130-1541","bldgnbr":"1965","predir":null,"streetname":"N COLUMBUS ST","streettype":null,"suffdir":null,"city":"LANCASTER","state_code":"OH","zip5":"43130","latitude":"39.7366100000000000","longitude":"-82.620530000000000","publicwifi":"U","url":null,"broadband_type_id":6}
{"id":null,"anchorname":"LANCASTER FAIRFIELD COMMUNITY ACTION","address":"1743 E MAIN ST LANCASTER, OH 43130-9353","bldgnbr":"1743","predir":null,"streetname":"E MAIN ST","streettype":null,"suffdir":null,"city":"LANCASTER","state_code":"OH","zip5":"43130","latitude":"39.7149000000000000","longitude":"-82.564360000000000","publicwifi":"U","url":null,"broadband_type_id":1}
{"id":null,"anchorname":"CARRIAGE COURT","address":"800 BECKS KNOB RD LANCASTER, OH 43130","bldgnbr":"800","predir":null,"streetname":"BECKS KNOB RD","streettype":null,"suffdir":null,"city":"LANCASTER","state_code":"OH","zip5":"43130","latitude":"39.7253500000000000","longitude":"-82.653850000000000","publicwifi":"U","url":null,"broadband_type_id":1}
{"id":null,"anchorname":"FAIRFIELD","address":"6700 OLD LOGAN RD SUGAR GROVE, OH 43155-9710","bldgnbr":"6700","predir":null,"streetname":"OLD LOGAN RD","streettype":null,"suffdir":null,"city":"SUGAR GROVE","state_code":"OH","zip5":"43155","latitude":"39.6244800000000000","longitude":"-82.554410000000000","publicwifi":"U","url":null,"broadband_type_id":null}
{"id":null,"anchorname":"BERNE UNION HEAD START","address":"506 N MAIN ST SUGAR GROVE, OH 43155-9500","bldgnbr":"506","predir":null,"streetname":"N MAIN ST","streettype":null,"suffdir":null,"city":"SUGAR GROVE","state_code":"OH","zip5":"43155","latitude":"39.6295400000000000","longitude":"-82.548000000000000","publicwifi":"U","url":null,"broadband_type_id":null}
{"id":null,"anchorname":"LANCASTER FAIR CO HEAD ST-MAIN","address":"1743 E MAIN ST LANCASTER, OH 43130-9353","bldgnbr":"1743","predir":null,"streetname":"E MAIN ST","streettype":null,"suffdir":null,"city":"LANCASTER","state_code":"OH","zip5":"43130","latitude":"39.7149000000000000","longitude":"-82.564360000000000","publicwifi":"U","url":null,"broadband_type_id":null}
{"id":null,"anchorname":"EARLY CHILDHOOD CENTER","address":"1592 GRANVILLE PIKE LANCASTER, OH 43130-1076","bldgnbr":"1592","predir":null,"streetname":"GRANVILLE PIKE","streettype":null,"suffdir":null,"city":"LANCASTER","state_code":"OH","zip5":"43130","latitude":"39.7418100000000000","longitude":"-82.584940000000000","publicwifi":"U","url":null,"broadband_type_id":null}
{"id":null,"anchorname":"STERLING HOUSE OF LANCASTER","address":"241 WHITTIER DR S LANCASTER, OH 43130","bldgnbr":"241","predir":null,"streetname":"WHITTIER DR S","streettype":null,"suffdir":null,"city":"LANCASTER","state_code":"OH","zip5":"43130","latitude":"39.7343100000000000","longitude":"-82.622320000000000","publicwifi":"U","url":null,"broadband_type_id":null}
{"id":null,"anchorname":"FAITH MEMORIAL CH HUG-A-BEAR DC","address":"2610 W FAIR AVE LANCASTER, OH 43130-9502","bldgnbr":"2610","predir":null,"streetname":"W FAIR AVE","streettype":null,"suffdir":null,"city":"LANCASTER","state_code":"OH","zip5":"43130","latitude":"39.7273700000000000","longitude":"-82.653310000000000","publicwifi":"U","url":null,"broadband_type_id":null}
{"id":null,"anchorname":"SETON LANCASTER","address":"232 GAY ST LANCASTER, OH 43130","bldgnbr":"232","predir":null,"streetname":"GAY ST","streettype":null,"suffdir":null,"city":"LANCASTER","state_code":"OH","zip5":"43130","latitude":"39.7122000000000000","longitude":"-82.630130000000000","publicwifi":"U","url":null,"broadband_type_id":null}
{"id":null,"anchorname":"LANCASTER FAIR CO HEAD ST/GAY","address":"331 GAY ST LANCASTER, OH 43130-5128","bldgnbr":"331","predir":null,"streetname":"GAY ST","streettype":null,"suffdir":null,"city":"LANCASTER","state_code":"OH","zip5":"43130","latitude":"39.7119400000000000","longitude":"-82.630600000000000","publicwifi":"U","url":null,"broadband_type_id":null}
{"id":null,"anchorname":"FAIRFIELD UNION RUSHVILLE MIDDLE SCHOOL","address":"6409 CINCINNATI ZANESVILLE RD NE LANCASTER, OH 43130","bldgnbr":"6409","predir":null,"streetname":"CINCINNATI ZANESVILLE RD NE","streettype":null,"suffdir":null,"city":"LANCASTER","state_code":"OH","zip5":"43130","latitude":"39.7554800000000000","longitude":"-82.473115000000000","publicwifi":"U","url":null,"broadband_type_id":6}
{"id":null,"anchorname":"FAIRFIELD UNION HIGH SCHOOL","address":"6675 CINCINNATI ZANESVILLE RD NE LANCASTER, OH 43130","bldgnbr":"6675","predir":null,"streetname":"CINCINNATI ZANESVILLE RD NE","streettype":null,"suffdir":null,"city":"LANCASTER","state_code":"OH","zip5":"43130","latitude":"39.7545900000000000","longitude":"-82.473050000000000","publicwifi":"U","url":null,"broadband_type_id":6}
{"id":null,"anchorname":"RICHLAND TOWNSHIP FIRE DEPARTMENT STATION 580","address":"3150 MARKET STREET RUSHVILLE, OH 43150","bldgnbr":"3150","predir":null,"streetname":"MARKET STREET","streettype":null,"suffdir":null,"city":"RUSHVILLE","state_code":"OH","zip5":"43150","latitude":"39.7635800000000000","longitude":"-82.431780000000000","publicwifi":"U","url":null,"broadband_type_id":5}
{"id":null,"anchorname":"BREMEN-RUSHCREEK BRANCH LIBRARY","address":"200 SCHOOL ST BREMEN, OH 43107-1166","bldgnbr":"200","predir":null,"streetname":"SCHOOL ST","streettype":null,"suffdir":null,"city":"BREMEN","state_code":"OH","zip5":"43107","latitude":"39.7043500000000000","longitude":"-82.434220000000000","publicwifi":"Y","url":null,"broadband_type_id":6}
{"id":null,"anchorname":"BREMEN ELEMENTARY SCHOOL","address":"210 STRAYER AVE BREMEN, OH 43107","bldgnbr":"210","predir":null,"streetname":"STRAYER AVE","streettype":null,"suffdir":null,"city":"BREMEN","state_code":"OH","zip5":"43107","latitude":"39.7006300000000000","longitude":"-82.434100000000000","publicwifi":"U","url":null,"broadband_type_id":6}
{"id":null,"anchorname":"BERNE UNION ELEMENTARY SCHOOL","address":"506 N MAIN ST SUGAR GROVE, OH 43155","bldgnbr":"506","predir":null,"streetname":"N MAIN ST","streettype":null,"suffdir":null,"city":"SUGAR GROVE","state_code":"OH","zip5":"43155","latitude":"39.6295400000000000","longitude":"-82.548000000000000","publicwifi":"U","url":null,"broadband_type_id":6}
{"id":null,"anchorname":"BERNE UNION HIGH SCHOOL","address":"506 N MAIN ST SUGAR GROVE, OH 43155","bldgnbr":"506","predir":null,"streetname":"N MAIN ST","streettype":null,"suffdir":null,"city":"SUGAR GROVE","state_code":"OH","zip5":"43155","latitude":"39.6295400000000000","longitude":"-82.548000000000000","publicwifi":"U","url":null,"broadband_type_id":6}
{"id":null,"anchorname":"BERNE TOWNSHIP FIRE DEPARTMENT","address":"101 FIRST STREET SUGAR GROVE, OH 43155","bldgnbr":"101","predir":null,"streetname":"FIRST STREET","streettype":null,"suffdir":null,"city":"SUGAR GROVE","state_code":"OH","zip5":"43155","latitude":"39.6325000000000000","longitude":"-82.523200000000000","publicwifi":"U","url":null,"broadband_type_id":5}
{"id":null,"anchorname":"SUGAR GROVE POLICE DEPARTMENT","address":"101 BRIDGE STREET SUGAR GROVE, OH 43155-0007","bldgnbr":"101","predir":null,"streetname":"BRIDGE STREET","streettype":null,"suffdir":null,"city":"SUGAR GROVE","state_code":"OH","zip5":"43155","latitude":"39.6246540000000000","longitude":"-82.548804000000000","publicwifi":"U","url":null,"broadband_type_id":4}
{"id":null,"anchorname":"SANDERSON ELEMENTARY SCHOOL","address":"1450 MARIETTA RD NE LANCASTER, OH 43130","bldgnbr":"1450","predir":null,"streetname":"MARIETTA RD NE","streettype":null,"suffdir":null,"city":"LANCASTER","state_code":"OH","zip5":"43130","latitude":"39.7229000000000000","longitude":"-82.556180000000000","publicwifi":"U","url":null,"broadband_type_id":6}
{"id":null,"anchorname":"SUNBRIDGE CARE AND REHAB-HOMESTEAD","address":"1900 E MAIN ST LANCASTER, OH 43130","bldgnbr":"1900","predir":null,"streetname":"E MAIN ST","streettype":null,"suffdir":null,"city":"LANCASTER","state_code":"OH","zip5":"43130","latitude":"39.7151000000000000","longitude":"-82.558570000000000","publicwifi":"U","url":null,"broadband_type_id":3}
{"id":null,"anchorname":"FAIRFIELD MEDICAL CENTER POLICE DEPARTMENT","address":"401 N EWING ST LANCASTER, OH 43130-3372","bldgnbr":"401","predir":null,"streetname":"N EWING ST","streettype":null,"suffdir":null,"city":"LANCASTER","state_code":"OH","zip5":"43130","latitude":"39.7163200000000000","longitude":"-82.576890000000000","publicwifi":"U","url":null,"broadband_type_id":4}
{"id":null,"anchorname":"MAIN STREET TERRACE CARE CENTER","address":"1318 E MAIN ST LANCASTER, OH 43130","bldgnbr":"1318","predir":null,"streetname":"E MAIN ST","streettype":null,"suffdir":null,"city":"LANCASTER","state_code":"OH","zip5":"43130","latitude":"39.7138200000000000","longitude":"-82.576150000000000","publicwifi":"U","url":null,"broadband_type_id":3}
{"id":null,"anchorname":"LANFAIR CENTER FOR REHAHB AND NURSING CA","address":"1590 CHARTWELL ST LANCASTER, OH 43130","bldgnbr":"1590","predir":null,"streetname":"CHARTWELL ST","streettype":null,"suffdir":null,"city":"LANCASTER","state_code":"OH","zip5":"43130","latitude":"39.7409000000000000","longitude":"-82.561590000000000","publicwifi":"U","url":null,"broadband_type_id":3}
{"id":null,"anchorname":"FOREST ROSE SCHOOL","address":"1592 GRANVILLE PIKE LANCASTER, OH 43130-1076","bldgnbr":"1592","predir":null,"streetname":"GRANVILLE PIKE","streettype":null,"suffdir":null,"city":"LANCASTER","state_code":"OH","zip5":"43130","latitude":"39.7418100000000000","longitude":"-82.584940000000000","publicwifi":"U","url":null,"broadband_type_id":6}
{"id":null,"anchorname":"LANCASTER HIGH SCHOOL","address":"1312 GRANVILLE PIKE LANCASTER, OH 43130","bldgnbr":"1312","predir":null,"streetname":"GRANVILLE PIKE","streettype":null,"suffdir":null,"city":"LANCASTER","state_code":"OH","zip5":"43130","latitude":"39.7319200000000000","longitude":"-82.585610000000000","publicwifi":"U","url":null,"broadband_type_id":6}
{"id":null,"anchorname":"OHIO UNIVERSITY LANCASTER CAMPUS","address":"1570 GRANVILLE PIKE LANCASTER, OH 43130-1037","bldgnbr":"1570","predir":null,"streetname":"GRANVILLE PIKE","streettype":null,"suffdir":null,"city":"LANCASTER","state_code":"OH","zip5":"43130","latitude":"39.7384700000000000","longitude":"-82.587040000000000","publicwifi":"U","url":null,"broadband_type_id":6}
{"id":null,"anchorname":"THOMAS JEFFERSON SCHOOL","address":"3145 W 46TH ST CLEVELAND, OH 44102","bldgnbr":"3145","predir":null,"streetname":"W 46TH ST","streettype":null,"suffdir":null,"city":"CLEVELAND","state_code":"OH","zip5":"44102","latitude":"39.7242200000000000","longitude":"-82.583940000000000","publicwifi":"U","url":null,"broadband_type_id":6}
{"id":null,"anchorname":"MEDILL ELEMENTARY SCHOOL","address":"1151 JAMES RD LANCASTER, OH 43130","bldgnbr":"1151","predir":null,"streetname":"JAMES RD","streettype":null,"suffdir":null,"city":"LANCASTER","state_code":"OH","zip5":"43130","latitude":"39.7291900000000000","longitude":"-82.570060000000000","publicwifi":"U","url":null,"broadband_type_id":6}
{"id":null,"anchorname":"TARHE ELEMENTARY SCHOOL","address":"425 WHITTIER DR N LANCASTER, OH 43130","bldgnbr":"425","predir":null,"streetname":"WHITTIER DR N","streettype":null,"suffdir":null,"city":"LANCASTER","state_code":"OH","zip5":"43130","latitude":"39.7416400000000000","longitude":"-82.621610000000000","publicwifi":"U","url":null,"broadband_type_id":6}
{"id":null,"anchorname":"Remsen","address":"9400 State Route 12","bldgnbr":"9400","predir":null,"streetname":"State Route 12","streettype":null,"suffdir":null,"city":"Remsen","state_code":"NY","zip5":"13438","latitude":"43.3164726300000000","longitude":"-75.189678615000000","publicwifi":"U","url":null,"broadband_type_id":6}
{"id":null,"anchorname":"FAIRFIELD CTR-DIS \u0026 C PALSY","address":"681 E 6TH AVE LANCASTER, OH 43130-2602","bldgnbr":"681","predir":null,"streetname":"E 6TH AVE","streettype":null,"suffdir":null,"city":"LANCASTER","state_code":"OH","zip5":"43130","latitude":"39.7195900000000000","longitude":"-82.587870000000000","publicwifi":"U","url":null,"broadband_type_id":6}
{"id":null,"anchorname":"DENTAL ASSISTANTS ACADEMY OF OHIO","address":"784 E MAIN ST LANCASTER, OH 43130","bldgnbr":"784","predir":null,"streetname":"E MAIN ST","streettype":null,"suffdir":null,"city":"LANCASTER","state_code":"OH","zip5":"43130","latitude":"39.7133870000000000","longitude":"-82.586106000000000","publicwifi":"U","url":null,"broadband_type_id":6}
{"id":null,"anchorname":"FAIRFIELD COUNTY EMA","address":"407 EAST MAIN STREET LANCASTER, OH 43130","bldgnbr":"407","predir":null,"streetname":"EAST MAIN STREET","streettype":null,"suffdir":null,"city":"LANCASTER","state_code":"OH","zip5":"43130","latitude":"39.7136100000000000","longitude":"-82.595200000000000","publicwifi":"U","url":null,"broadband_type_id":1}
{"id":null,"anchorname":"FAMILY YMCA OF LANCASTER","address":"465 W 6TH AVE LANCASTER, OH 43130-2547","bldgnbr":"465","predir":null,"streetname":"W 6TH AVE","streettype":null,"suffdir":null,"city":"LANCASTER","state_code":"OH","zip5":"43130","latitude":"39.7201900000000000","longitude":"-82.609110000000000","publicwifi":"U","url":null,"broadband_type_id":null}
{"id":null,"anchorname":"FAIRFIELD COUNTY AUDITOR","address":"210 E MAIN ST LANCASTER, OH 43130-3854","bldgnbr":"210","predir":null,"streetname":"E MAIN ST","streettype":null,"suffdir":null,"city":"LANCASTER","state_code":"OH","zip5":"43130","latitude":"39.7135600000000000","longitude":"-82.598890000000000","publicwifi":"U","url":null,"broadband_type_id":1}
{"id":null,"anchorname":"FAIRFIELD COUNTY COMMISSIONERS","address":"210 E MAIN ST LANCASTER, OH 43130-3854","bldgnbr":"210","predir":null,"streetname":"E MAIN ST","streettype":null,"suffdir":null,"city":"LANCASTER","state_code":"OH","zip5":"43130","latitude":"39.7135600000000000","longitude":"-82.598890000000000","publicwifi":"U","url":null,"broadband_type_id":6}
{"id":null,"anchorname":"FAIRFIELD COUNTY COURT OF COMMON PLEAS DOMESTIC RELATIONS DIVISION","address":"224 E MAIN ST LANCASTER, OH 43130-3858","bldgnbr":"224","predir":null,"streetname":"E MAIN ST","streettype":null,"suffdir":null,"city":"LANCASTER","state_code":"OH","zip5":"43130","latitude":"39.7135400000000000","longitude":"-82.598410000000000","publicwifi":"U","url":null,"broadband_type_id":6}
{"id":null,"anchorname":"MID-OHIO AMBULANCE SERVICE INCORPORATED","address":"655 SOUTH COLUMBUS STREET LANCASTER, OH 43130","bldgnbr":"655","predir":null,"streetname":"SOUTH COLUMBUS STREET","streettype":null,"suffdir":null,"city":"LANCASTER","state_code":"OH","zip5":"43130","latitude":"39.7054500000000000","longitude":"-82.599440000000000","publicwifi":"U","url":null,"broadband_type_id":null}
{"id":null,"anchorname":"FAIRFIELD COUNTY COURT OF COMMON PLEAS GENERAL DIVISION","address":"224 E MAIN ST LANCASTER, OH 43130-3858","bldgnbr":"224","predir":null,"streetname":"E MAIN ST","streettype":null,"suffdir":null,"city":"LANCASTER","state_code":"OH","zip5":"43130","latitude":"39.7135400000000000","longitude":"-82.598410000000000","publicwifi":"U","url":null,"broadband_type_id":6}
{"id":null,"anchorname":"MAYWOOD MISSION","address":"1029 S BROAD ST LANCASTER, OH 43130-4628","bldgnbr":"1029","predir":null,"streetname":"S BROAD ST","streettype":null,"suffdir":null,"city":"LANCASTER","state_code":"OH","zip5":"43130","latitude":"39.6996400000000000","longitude":"-82.603030000000000","publicwifi":"U","url":null,"broadband_type_id":6}
{"id":null,"anchorname":"FAIRFIELD COUNTY ESC","address":"955 LIBERTY DR LANCASTER, OH 43130","bldgnbr":"955","predir":null,"streetname":"LIBERTY DR","streettype":null,"suffdir":null,"city":"LANCASTER","state_code":"OH","zip5":"43130","latitude":"39.7305830000000000","longitude":"-82.662283000000000","publicwifi":"U","url":null,"broadband_type_id":6}
{"id":null,"anchorname":"CRESTVIEW MANOR","address":"957 BECKS KNOB RD LANCASTER, OH 43130","bldgnbr":"957","predir":null,"streetname":"BECKS KNOB RD","streettype":null,"suffdir":null,"city":"LANCASTER","state_code":"OH","zip5":"43130","latitude":"39.7275600000000000","longitude":"-82.654580000000000","publicwifi":"U","url":null,"broadband_type_id":6}
{"id":null,"anchorname":"OHIO BUREAU OF MOTOR VEHICLES","address":"980 LIBERTY DRIVE LANCASTER, OH 43130","bldgnbr":"980","predir":null,"streetname":"LIBERTY DRIVE","streettype":null,"suffdir":null,"city":"LANCASTER","state_code":"OH","zip5":"43130","latitude":"39.7301930000000000","longitude":"-82.661439000000000","publicwifi":"U","url":null,"broadband_type_id":6}
{"id":null,"anchorname":"OHIO STATE HIGHWAY PATROL","address":"3800 LANCASTER-CIRCLEVILLE RD LANCASTER, OH 43130","bldgnbr":"3800","predir":null,"streetname":"LANCASTER-CIRCLEVILLE RD","streettype":null,"suffdir":null,"city":"LANCASTER","state_code":"OH","zip5":"43130","latitude":"39.7176490000000000","longitude":"-82.670266000000000","publicwifi":"U","url":null,"broadband_type_id":4}
{"id":null,"anchorname":"ST. MARY","address":"309  E CHESTNUT ST LANCASTER, OH 43130-3829","bldgnbr":"309","predir":null,"streetname":"E CHESTNUT ST","streettype":null,"suffdir":null,"city":"LANCASTER","state_code":"OH","zip5":"43130","latitude":"39.7124200000000000","longitude":"-82.597590000000000","publicwifi":"U","url":null,"broadband_type_id":null}
{"id":null,"anchorname":"LANCASTER/FAIR CO HEAD/ST UTIC","address":"114 MOUNT IDA AVE LANCASTER, OH 43130-4720","bldgnbr":"114","predir":null,"streetname":"MOUNT IDA AVE","streettype":null,"suffdir":null,"city":"LANCASTER","state_code":"OH","zip5":"43130","latitude":"39.6988100000000000","longitude":"-82.603910000000000","publicwifi":"U","url":null,"broadband_type_id":null}
{"id":null,"anchorname":"REFLECTIONS","address":"2750 W FAIR AVE LANCASTER, OH 43130","bldgnbr":"2750","predir":null,"streetname":"W FAIR AVE","streettype":null,"suffdir":null,"city":"LANCASTER","state_code":"OH","zip5":"43130","latitude":"39.7289700000000000","longitude":"-82.655830000000000","publicwifi":"U","url":null,"broadband_type_id":null}
{"id":null,"anchorname":"WEST ELEMENTARY SCHOOL","address":"625 GARFIELD AVE LANCASTER, OH 43130","bldgnbr":"625","predir":null,"streetname":"GARFIELD AVE","streettype":null,"suffdir":null,"city":"LANCASTER","state_code":"OH","zip5":"43130","latitude":"39.7214500000000000","longitude":"-82.617480000000000","publicwifi":"U","url":null,"broadband_type_id":6}
{"id":null,"anchorname":"GENERAL SHERMAN JUNIOR HIGH SCHOOL","address":"701 UNION ST LANCASTER, OH 43130","bldgnbr":"701","predir":null,"streetname":"UNION ST","streettype":null,"suffdir":null,"city":"LANCASTER","state_code":"OH","zip5":"43130","latitude":"39.7185100000000000","longitude":"-82.614480000000000","publicwifi":"U","url":null,"broadband_type_id":6}
{"id":null,"anchorname":"FAIRFIELD COUNTY DISTRICT LIBRARY","address":"219 N BROAD ST LANCASTER, OH 43130-1700","bldgnbr":"219","predir":null,"streetname":"N BROAD ST","streettype":null,"suffdir":null,"city":"LANCASTER","state_code":"OH","zip5":"43130","latitude":"39.7158700000000000","longitude":"-82.601960000000000","publicwifi":"Y","url":null,"broadband_type_id":6}
{"id":null,"anchorname":"LANCASTER CITY SCHOOL DISTRICT","address":"111  S BROAD ST LANCASTER, OH 43130-4398","bldgnbr":"111","predir":null,"streetname":"S BROAD ST","streettype":null,"suffdir":null,"city":"LANCASTER","state_code":"OH","zip5":"43130","latitude":"39.7131500000000000","longitude":"-82.602090000000000","publicwifi":"U","url":null,"broadband_type_id":6}
{"id":null,"anchorname":"LANCASTER POLICE DEPARTMENT","address":"130 S BROAD ST LANCASTER, OH 43130-4302","bldgnbr":"130","predir":null,"streetname":"S BROAD ST","streettype":null,"suffdir":null,"city":"LANCASTER","state_code":"OH","zip5":"43130","latitude":"39.7129300000000000","longitude":"-82.601870000000000","publicwifi":"U","url":null,"broadband_type_id":4}
{"id":null,"anchorname":"EAST ELEMENTARY SCHOOL","address":"751 E WHEELING ST LANCASTER, OH 43130","bldgnbr":"751","predir":null,"streetname":"E WHEELING ST","streettype":null,"suffdir":null,"city":"LANCASTER","state_code":"OH","zip5":"43130","latitude":"39.7153700000000000","longitude":"-82.585760000000000","publicwifi":"U","url":null,"broadband_type_id":6}
{"id":null,"anchorname":"EAST SCHOOL-HEAD START CENTER","address":"751 E WHEELING ST LANCASTER, OH 43130-3219","bldgnbr":"751","predir":null,"streetname":"E WHEELING ST","streettype":null,"suffdir":null,"city":"LANCASTER","state_code":"OH","zip5":"43130","latitude":"39.7153700000000000","longitude":"-82.585760000000000","publicwifi":"U","url":null,"broadband_type_id":6}
{"id":null,"anchorname":"CHRISTIAN CARE CO DC","address":"657 E MAIN ST LANCASTER, OH 43130-3904","bldgnbr":"657","predir":null,"streetname":"E MAIN ST","streettype":null,"suffdir":null,"city":"LANCASTER","state_code":"OH","zip5":"43130","latitude":"39.7135800000000000","longitude":"-82.589000000000000","publicwifi":"U","url":null,"broadband_type_id":3}
{"id":null,"anchorname":"FAIRFIELD COUNTY JAIL-SHERIFFS OFFICE","address":"221 E MAIN ST LANCASTER, OH 43130","bldgnbr":"221","predir":null,"streetname":"E MAIN ST","streettype":null,"suffdir":null,"city":"LANCASTER","state_code":"OH","zip5":"43130","latitude":"39.7137200000000000","longitude":"-82.598450000000000","publicwifi":"U","url":null,"broadband_type_id":4}
{"id":null,"anchorname":"FAIRFIELD COUNTY SHERIFFS OFFICE","address":"221 EAST MAIN STREET LANCASTER, OH 43130","bldgnbr":"221","predir":null,"streetname":"EAST MAIN STREET","streettype":null,"suffdir":null,"city":"LANCASTER","state_code":"OH","zip5":"43130","latitude":"39.7137200000000000","longitude":"-82.598450000000000","publicwifi":"U","url":null,"broadband_type_id":4}
{"id":null,"anchorname":"FAIRFIELD COUNTY SHERIFF'S OFFICE","address":"108 N HIGH ST LANCASTER, OH 43130-3710","bldgnbr":"108","predir":null,"streetname":"N HIGH ST","streettype":null,"suffdir":null,"city":"LANCASTER","state_code":"OH","zip5":"43130","latitude":"39.7140110000000000","longitude":"-82.598989000000000","publicwifi":"U","url":null,"broadband_type_id":4}
{"id":null,"anchorname":"LANCASTER FIRE DEPARTMENT STATION 1","address":"254 EAST CHESTNUT STREET LANCASTER, OH 43130","bldgnbr":"254","predir":null,"streetname":"EAST CHESTNUT STREET","streettype":null,"suffdir":null,"city":"LANCASTER","state_code":"OH","zip5":"43130","latitude":"39.7122600000000000","longitude":"-82.598270000000000","publicwifi":"U","url":null,"broadband_type_id":5}
{"id":null,"anchorname":"SOUTH ELEMENTARY SCHOOL","address":"220 E WALNUT ST LANCASTER, OH 43130","bldgnbr":"220","predir":null,"streetname":"E WALNUT ST","streettype":null,"suffdir":null,"city":"LANCASTER","state_code":"OH","zip5":"43130","latitude":"39.7110500000000000","longitude":"-82.598080000000000","publicwifi":"U","url":null,"broadband_type_id":6}
{"id":null,"anchorname":"LANCASTER FAIRFIELD COMMUNITY SCHOOL","address":"320 E LOCUST ST LANCASTER, OH 43130","bldgnbr":"320","predir":null,"streetname":"E LOCUST ST","streettype":null,"suffdir":null,"city":"LANCASTER","state_code":"OH","zip5":"43130","latitude":"39.7096070000000000","longitude":"-82.597724000000000","publicwifi":"U","url":null,"broadband_type_id":6}
{"id":null,"anchorname":"TALLMADGE ELEMENTARY SCHOOL","address":"611 LEWIS AVE LANCASTER, OH 43130","bldgnbr":"611","predir":null,"streetname":"LEWIS AVE","streettype":null,"suffdir":null,"city":"LANCASTER","state_code":"OH","zip5":"43130","latitude":"39.7057900000000000","longitude":"-82.611360000000000","publicwifi":"U","url":null,"broadband_type_id":6}
{"id":null,"anchorname":"MAYWOOD MISSION-SHELTERING ARMS DAY CARE","address":"1029 S BROAD ST LANCASTER, OH 43130-4628","bldgnbr":"1029","predir":null,"streetname":"S BROAD ST","streettype":null,"suffdir":null,"city":"LANCASTER","state_code":"OH","zip5":"43130","latitude":"39.6996400000000000","longitude":"-82.603030000000000","publicwifi":"U","url":null,"broadband_type_id":3}
{"id":null,"anchorname":"CRESTVIEW REHAB AND SKILLED NURSING SRVC","address":"957 BECKS KNOB RD LANCASTER, OH 43130","bldgnbr":"957","predir":null,"streetname":"BECKS KNOB RD","streettype":null,"suffdir":null,"city":"LANCASTER","state_code":"OH","zip5":"43130","latitude":"39.7275600000000000","longitude":"-82.654580000000000","publicwifi":"U","url":null,"broadband_type_id":3}
{"id":null,"anchorname":"SOUTHEASTERN CORRECTIONAL INSTITUTION","address":"5900 BIS RD SW LANCASTER, OH 43130","bldgnbr":"5900","predir":null,"streetname":"BIS RD SW","streettype":null,"suffdir":null,"city":"LANCASTER","state_code":"OH","zip5":"43130","latitude":"39.6422100000000000","longitude":"-82.621930000000000","publicwifi":"U","url":null,"broadband_type_id":null}
{"id":null,"anchorname":"Bellefontaine Habilitation Center - Administration Building","address":"10695 Bellefontaine Road, St. Louis, MO 63137-2395","bldgnbr":"10695","predir":null,"streetname":"Bellefontaine","streettype":"Road","suffdir":null,"city":"St Louis","state_code":"MO","zip5":"63137","latitude":"38.7672561740000000","longitude":"-90.227179708000000","publicwifi":"U","url":null,"broadband_type_id":6}
{"id":null,"anchorname":"TOLL GATE ELEMENTARY","address":"12183 TOLLGATE RD PICKERINGTON, OH 43147","bldgnbr":"12183","predir":null,"streetname":"TOLLGATE RD","streettype":null,"suffdir":null,"city":"PICKERINGTON","state_code":"OH","zip5":"43147","latitude":"39.9089610000000000","longitude":"-82.709355000000000","publicwifi":"U","url":null,"broadband_type_id":6}
{"id":null,"anchorname":"OHIO BUREAU OF MOTOR VEHICLES","address":"473 HILL RD N PICKERINGTON, OH 43147-1157","bldgnbr":"473","predir":null,"streetname":"HILL RD N","streettype":null,"suffdir":null,"city":"PICKERINGTON","state_code":"OH","zip5":"43147","latitude":"39.8962520000000000","longitude":"-82.763635000000000","publicwifi":"U","url":null,"broadband_type_id":6}
{"id":null,"anchorname":"OHIO BUREAU OF MOTOR VEHICLES","address":"485 HILL RD N PICKERINGTON, OH 43147-1157","bldgnbr":"485","predir":null,"streetname":"HILL RD N","streettype":null,"suffdir":null,"city":"PICKERINGTON","state_code":"OH","zip5":"43147","latitude":"39.8969390000000000","longitude":"-82.764254000000000","publicwifi":"U","url":null,"broadband_type_id":6}
{"id":null,"anchorname":"CLINTON FAYETTE HIGHLAND","address":"13394 STATE ROUTE 729 JEFFERSONVILLE, OH 43128-9704","bldgnbr":"13394","predir":null,"streetname":"STATE ROUTE 729","streettype":null,"suffdir":null,"city":"JEFFERSONVILLE","state_code":"OH","zip5":"43128","latitude":"39.6601300000000000","longitude":"-83.555770000000000","publicwifi":"U","url":null,"broadband_type_id":6}
{"id":null,"anchorname":"FAYETTE COUNTY BOARD OF MR\u0026DD","address":"1351 LEESBURG AVE WASHINGTON COURT HOUSE, OH 43160-8610","bldgnbr":"1351","predir":null,"streetname":"LEESBURG AVE","streettype":null,"suffdir":null,"city":"WASHINGTON COURT HOUSE","state_code":"OH","zip5":"43160","latitude":"39.5259100000000000","longitude":"-83.456090000000000","publicwifi":"U","url":null,"broadband_type_id":1}
{"id":null,"anchorname":"FAIRFIELD","address":"8321 WILLOWBRIDGE PL CANAL WINCHESTER, OH 43110-9284","bldgnbr":"8321","predir":null,"streetname":"WILLOWBRIDGE PL","streettype":null,"suffdir":null,"city":"CANAL WINCHESTER","state_code":"OH","zip5":"43110","latitude":"39.8434200000000000","longitude":"-82.749750000000000","publicwifi":"U","url":null,"broadband_type_id":null}
{"id":null,"anchorname":"CHERRY HILL PRIMARY","address":"720 W OAKLAND AVE WASHINGTON, OH 43160","bldgnbr":"720","predir":null,"streetname":"W OAKLAND AVE","streettype":null,"suffdir":null,"city":"WASHINGTON","state_code":"OH","zip5":"43160","latitude":"39.5350200000000000","longitude":"-83.449600000000000","publicwifi":"U","url":null,"broadband_type_id":null}
{"id":null,"anchorname":"AMANDA-CLEARCREEK PRIMARY SCHOOL","address":"414 N SCHOOL ST AMANDA, OH 43102","bldgnbr":"414","predir":null,"streetname":"N SCHOOL ST","streettype":null,"suffdir":null,"city":"AMANDA","state_code":"OH","zip5":"43102","latitude":"39.6476800000000000","longitude":"-82.736250000000000","publicwifi":"U","url":null,"broadband_type_id":6}
{"id":null,"anchorname":"AMANDA-CLEARCREEK JUNIOR HIGH SCHOOL","address":"328  E MAIN ST AMANDA, OH 43102-9330","bldgnbr":"328","predir":null,"streetname":"E MAIN ST","streettype":null,"suffdir":null,"city":"AMANDA","state_code":"OH","zip5":"43102","latitude":"39.6476800000000000","longitude":"-82.736250000000000","publicwifi":"U","url":null,"broadband_type_id":6}
{"id":null,"anchorname":"AMANDA-CLEARCREEK ELEMENTARY SCHOOL","address":"328 E MAIN ST AMANDA, OH 43102","bldgnbr":"328","predir":null,"streetname":"E MAIN ST","streettype":null,"suffdir":null,"city":"AMANDA","state_code":"OH","zip5":"43102","latitude":"39.6476800000000000","longitude":"-82.736250000000000","publicwifi":"U","url":null,"broadband_type_id":6}
{"id":null,"anchorname":"AMANDA-CLEARCREEK HIGH SCHOOL","address":"328 E MAIN ST AMANDA, OH 43102","bldgnbr":"328","predir":null,"streetname":"E MAIN ST","streettype":null,"suffdir":null,"city":"AMANDA","state_code":"OH","zip5":"43102","latitude":"39.6476800000000000","longitude":"-82.736250000000000","publicwifi":"U","url":null,"broadband_type_id":6}
{"id":null,"anchorname":"AMANDA-CLEARCREEK MIDDLE SCHOOL","address":"328 E MAIN ST AMANDA, OH 43102","bldgnbr":"328","predir":null,"streetname":"E MAIN ST","streettype":null,"suffdir":null,"city":"AMANDA","state_code":"OH","zip5":"43102","latitude":"39.6486210000000000","longitude":"-82.738831000000000","publicwifi":"U","url":null,"broadband_type_id":6}
{"id":null,"anchorname":"JOHNS MEMORIAL BRANCH LIBRARY","address":"116 E HIGH ST AMANDA, OH 43102","bldgnbr":"116","predir":null,"streetname":"E HIGH ST","streettype":null,"suffdir":null,"city":"AMANDA","state_code":"OH","zip5":"43102","latitude":"39.6504500000000000","longitude":"-82.743320000000000","publicwifi":"Y","url":null,"broadband_type_id":6}
{"id":null,"anchorname":"AMERICAS URGENT CARE OF PICKERINGTON","address":"1797 HILL RD N PICKERINGTON, OH 43147-7996","bldgnbr":"1797","predir":null,"streetname":"HILL RD N","streettype":null,"suffdir":null,"city":"PICKERINGTON","state_code":"OH","zip5":"43147","latitude":"39.9283000000000000","longitude":"-82.788130000000000","publicwifi":"U","url":null,"broadband_type_id":3}
{"id":null,"anchorname":"LIFE CENTER ADULT DAY CARE","address":"13910 STATE ROUTE 256 REYNOLDSBURG, OH 43068-9501","bldgnbr":"13910","predir":null,"streetname":"STATE ROUTE 256","streettype":null,"suffdir":null,"city":"REYNOLDSBURG","state_code":"OH","zip5":"43068","latitude":"39.9393400000000000","longitude":"-82.790990000000000","publicwifi":"U","url":null,"broadband_type_id":3}
{"id":null,"anchorname":"VIOLET TOWNSHIP FIRE DEPARTMENT STATION 593","address":"2365 TAYLOR PARK DRIVE REYNOLDSBURG, OH 43068","bldgnbr":"2365","predir":null,"streetname":"TAYLOR PARK DRIVE","streettype":null,"suffdir":null,"city":"REYNOLDSBURG","state_code":"OH","zip5":"43068","latitude":"39.9362000000000000","longitude":"-82.791200000000000","publicwifi":"U","url":null,"broadband_type_id":5}
{"id":null,"anchorname":"ECHO MANOR EXTENDED CARE CTR","address":"10270 BLACKLICK EASTERN RD PICKERINGTON, OH 43147","bldgnbr":"10270","predir":null,"streetname":"BLACKLICK EASTERN RD","streettype":null,"suffdir":null,"city":"PICKERINGTON","state_code":"OH","zip5":"43147","latitude":"39.9300300000000000","longitude":"-82.778850000000000","publicwifi":"U","url":null,"broadband_type_id":3}
{"id":null,"anchorname":"TUSSING ELEMENTARY SCHOOL","address":"7117 TUSSING RD REYNOLDSBURG, OH 43068","bldgnbr":"7117","predir":null,"streetname":"TUSSING RD","streettype":null,"suffdir":null,"city":"REYNOLDSBURG","state_code":"OH","zip5":"43068","latitude":"39.9263480000000000","longitude":"-82.809723000000000","publicwifi":"U","url":null,"broadband_type_id":6}
{"id":null,"anchorname":"PICKERINGTON NURSING AND REHAB","address":"1300 HILL RD N PICKERINGTON, OH 43147","bldgnbr":"1300","predir":null,"streetname":"HILL RD N","streettype":null,"suffdir":null,"city":"PICKERINGTON","state_code":"OH","zip5":"43147","latitude":"39.9161900000000000","longitude":"-82.780130000000000","publicwifi":"U","url":null,"broadband_type_id":3}
{"id":null,"anchorname":"FAIRFIELD ELEMENTARY SCHOOL","address":"13000 COVENTRY AVE PICKERINGTON, OH 43147","bldgnbr":"13000","predir":null,"streetname":"COVENTRY AVE","streettype":null,"suffdir":null,"city":"PICKERINGTON","state_code":"OH","zip5":"43147","latitude":"39.9246500000000000","longitude":"-82.771150000000000","publicwifi":"U","url":null,"broadband_type_id":6}
{"id":null,"anchorname":"PICKERINGTON COMMUNITY SCHOOL","address":"7800 REFUGEE RD PICKERINGTON, OH 43147","bldgnbr":"7800","predir":null,"streetname":"REFUGEE RD","streettype":null,"suffdir":null,"city":"PICKERINGTON","state_code":"OH","zip5":"43147","latitude":"39.9081800000000000","longitude":"-82.732080000000000","publicwifi":"U","url":null,"broadband_type_id":6}
{"id":null,"anchorname":"PICKERINGTON HIGH SCHOOL NORTH","address":"7800 REFUGEE RD PICKERINGTON, OH 43147","bldgnbr":"7800","predir":null,"streetname":"REFUGEE RD","streettype":null,"suffdir":null,"city":"PICKERINGTON","state_code":"OH","zip5":"43147","latitude":"39.9081800000000000","longitude":"-82.732080000000000","publicwifi":"U","url":null,"broadband_type_id":6}
{"id":null,"anchorname":"TOLL GATE MIDDLE SCHOOL","address":"12089 TOLLGATE RD PICKERINGTON, OH 43147","bldgnbr":"12089","predir":null,"streetname":"TOLLGATE RD","streettype":null,"suffdir":null,"city":"PICKERINGTON","state_code":"OH","zip5":"43147","latitude":"39.9078100000000000","longitude":"-82.710824000000000","publicwifi":"U","url":null,"broadband_type_id":6}
{"id":null,"anchorname":"HARMON MIDDLE SCHOOL","address":"12410 HARMON RD PICKERINGTON, OH 43147","bldgnbr":"12410","predir":null,"streetname":"HARMON RD","streettype":null,"suffdir":null,"city":"PICKERINGTON","state_code":"OH","zip5":"43147","latitude":"39.9151090000000000","longitude":"-82.765469000000000","publicwifi":"U","url":null,"broadband_type_id":6}
{"id":null,"anchorname":"VIOLET TOWNSHIP FIRE DEPARTMENT STATION 592","address":"8700 REFUGEE ROAD PICKERINGTON, OH 43147","bldgnbr":"8700","predir":null,"streetname":"REFUGEE ROAD","streettype":null,"suffdir":null,"city":"PICKERINGTON","state_code":"OH","zip5":"43147","latitude":"39.9086400000000000","longitude":"-82.751370000000000","publicwifi":"U","url":null,"broadband_type_id":5}
{"id":null,"anchorname":"WORLD HARVEST BIBLE COLLEGE","address":"10165 WRIGHT RD CANAL WINCHESTER, OH 43110","bldgnbr":"10165","predir":null,"streetname":"WRIGHT RD","streettype":null,"suffdir":null,"city":"CANAL WINCHESTER","state_code":"OH","zip5":"43110","latitude":"39.8837660000000000","longitude":"-82.780625000000000","publicwifi":"U","url":null,"broadband_type_id":6}
{"id":null,"anchorname":"HERITAGE ELEMENTARY SCHOOL","address":"100 N EAST ST PICKERINGTON, OH 43147","bldgnbr":"100","predir":null,"streetname":"N EAST ST","streettype":null,"suffdir":null,"city":"PICKERINGTON","state_code":"OH","zip5":"43147","latitude":"39.8866000000000000","longitude":"-82.750730000000000","publicwifi":"U","url":null,"broadband_type_id":6}
{"id":null,"anchorname":"VIOLET ELEMENTARY SCHOOL","address":"8855 EDUCATION DR PICKERINGTON, OH 43147","bldgnbr":"8855","predir":null,"streetname":"EDUCATION DR","streettype":null,"suffdir":null,"city":"PICKERINGTON","state_code":"OH","zip5":"43147","latitude":"39.9079000000000000","longitude":"-82.754870000000000","publicwifi":"U","url":null,"broadband_type_id":6}
{"id":null,"anchorname":"PICKERINGTON POLICE DEPARTMENT","address":"1311 REFUGEE ROAD PICKERINGTON, OH 43147","bldgnbr":"1311","predir":null,"streetname":"REFUGEE ROAD","streettype":null,"suffdir":null,"city":"PICKERINGTON","state_code":"OH","zip5":"43147","latitude":"39.9102000000000000","longitude":"-82.791890000000000","publicwifi":"U","url":null,"broadband_type_id":4}
{"id":null,"anchorname":"MIAMI TRACE HIGH SCHOOL","address":"3722 STATE ROUTE 41 NW WASHINGTON COURT HOU, OH 43160","bldgnbr":"3722","predir":null,"streetname":"STATE ROUTE 41 NW","streettype":null,"suffdir":null,"city":"WASHINGTON COURT HOU","state_code":"OH","zip5":"43160","latitude":"39.5752700000000000","longitude":"-83.471650000000000","publicwifi":"U","url":null,"broadband_type_id":6}
{"id":null,"anchorname":"JEFFERSONVILLE BRANCH LIBRARY","address":"8 N MAIN ST JEFFERSONVILLE, OH 43128","bldgnbr":"8","predir":null,"streetname":"N MAIN ST","streettype":null,"suffdir":null,"city":"JEFFERSONVILLE","state_code":"OH","zip5":"43128","latitude":"39.6543300000000000","longitude":"-83.563290000000000","publicwifi":"Y","url":null,"broadband_type_id":6}
{"id":null,"anchorname":"JEFFERSON TOWNSHIP FIRE DEPARTMENT STATION 500","address":"28 SOUTH MAIN STREET JEFFERSONVILLE, OH 43128","bldgnbr":"28","predir":null,"streetname":"SOUTH MAIN STREET","streettype":null,"suffdir":null,"city":"JEFFERSONVILLE","state_code":"OH","zip5":"43128","latitude":"39.6532200000000000","longitude":"-83.562060000000000","publicwifi":"U","url":null,"broadband_type_id":5}
{"id":null,"anchorname":"LUTHERAN CHURCH OF THE LIVING CHRIST","address":"2725 Concord Dr.","bldgnbr":"2725","predir":null,"streetname":"Concord Dr.","streettype":null,"suffdir":null,"city":"FLORISSANT","state_code":"MO","zip5":"63033","latitude":"38.8194380000000000","longitude":"-90.303495000000000","publicwifi":null,"url":null,"broadband_type_id":6}
{"id":null,"anchorname":"THE STARTING GATE","address":"1351 LEESBURG AVE WASHINGTON COURT HOUSE, OH 43160-8610","bldgnbr":"1351","predir":null,"streetname":"LEESBURG AVE","streettype":null,"suffdir":null,"city":"WASHINGTON COURT HOUSE","state_code":"OH","zip5":"43160","latitude":"39.5259100000000000","longitude":"-83.456090000000000","publicwifi":"U","url":null,"broadband_type_id":null}
{"id":null,"anchorname":"SETON WASHINGTON COURT HOUSE","address":"400 N GLENN AVE WSHNGTN CT HS, OH 43160","bldgnbr":"400","predir":null,"streetname":"N GLENN AVE","streettype":null,"suffdir":null,"city":"WSHNGTN CT HS","state_code":"OH","zip5":"43160","latitude":"39.5517000000000000","longitude":"-83.423900000000000","publicwifi":"U","url":null,"broadband_type_id":1}
{"id":null,"anchorname":"ST. TIMOTHY'S EPISCOPAL CHURCH","address":"808 N. Mason Rd.","bldgnbr":"808","predir":null,"streetname":"N. Mason Rd.","streettype":null,"suffdir":null,"city":"SAINT LOUIS","state_code":"MO","zip5":"63141","latitude":"38.6690223410000000","longitude":"-90.469906789000000","publicwifi":null,"url":null,"broadband_type_id":6}
{"id":null,"anchorname":"FAYETTE COUNTY COURT OF COMMON PLEAS GENERAL AND DOMESTIC RELATIONS DIVISIONS","address":"110 E COURT ST WASHINGTON COURT HOUSE, OH 43160-1355","bldgnbr":"110","predir":null,"streetname":"E COURT ST","streettype":null,"suffdir":null,"city":"WASHINGTON COURT HOUSE","state_code":"OH","zip5":"43160","latitude":"39.5361600000000000","longitude":"-83.439660000000000","publicwifi":"U","url":null,"broadband_type_id":6}
{"id":null,"anchorname":"FAYETTE COUNTY COURT OF COMMON PLEAS PROBATE AND JUVENILE DIVISIONS","address":"110 E COURT ST WASHINGTON COURT HOUSE, OH 43160-1355","bldgnbr":"110","predir":null,"streetname":"E COURT ST","streettype":null,"suffdir":null,"city":"WASHINGTON COURT HOUSE","state_code":"OH","zip5":"43160","latitude":"39.5361600000000000","longitude":"-83.439660000000000","publicwifi":"U","url":null,"broadband_type_id":6}
{"id":null,"anchorname":"CAC OF FAYETTE COUNTY-SFSP","address":"324 E COURT ST WASHINGTON COURT HOUSE, OH 43160-1402","bldgnbr":"324","predir":null,"streetname":"E COURT ST","streettype":null,"suffdir":null,"city":"WASHINGTON COURT HOUSE","state_code":"OH","zip5":"43160","latitude":"39.5379300000000000","longitude":"-83.437050000000000","publicwifi":"U","url":null,"broadband_type_id":1}
{"id":null,"anchorname":"WINTERSONG VILLAGE","address":"719 RAWLINGS ST WASHINGTON COURT HOUSE, OH 43160","bldgnbr":"719","predir":null,"streetname":"RAWLINGS ST","streettype":null,"suffdir":null,"city":"WASHINGTON COURT HOUSE","state_code":"OH","zip5":"43160","latitude":"39.5439700000000000","longitude":"-83.436770000000000","publicwifi":"U","url":null,"broadband_type_id":1}
