{"id":null,"anchorname":"Town Of Campo","address":"413 Oak Street Campo Co 81029","bldgnbr":"413","predir":null,"streetname":"Oak","streettype":"Street","suffdir":null,"city":"Campo","state_code":"CO","zip5":"81029","latitude":"37.1051192800000000","longitude":"-102.58046930000000","publicwifi":"N","url":null,"broadband_type_id":null}
{"id":null,"anchorname":"Springfield Fd","address":"748 Main Street Springfield Co 81073","bldgnbr":"748","predir":null,"streetname":"Main","streettype":"Street","suffdir":null,"city":"Springfield","state_code":"CO","zip5":"81073","latitude":"37.4065472040000000","longitude":"-102.61640575100000","publicwifi":"N","url":null,"broadband_type_id":null}
{"id":null,"anchorname":"Town Of Springfield","address":"748 Main Street Springfield Co 81073","bldgnbr":"748","predir":null,"streetname":"Main","streettype":"Street","suffdir":null,"city":"Springfield","state_code":"CO","zip5":"81073","latitude":"37.4066512390000000","longitude":"-102.61640547500000","publicwifi":"N","url":null,"broadband_type_id":null}
{"id":null,"anchorname":"Pagosa Fire Protection District Station 3","address":"1529 East Highway 160 Pagosa Springs Co 81147","bldgnbr":"1529","predir":"East","streetname":"160","streettype":null,"suffdir":null,"city":"Pagosa Springs","state_code":"CO","zip5":"81147","latitude":"37.1994375250000000","longitude":"-106.95976502100000","publicwifi":"N","url":null,"broadband_type_id":5}
{"id":null,"anchorname":"Walsh Fire Station Ems","address":"401 North Kansas Street Walsh Co 81090","bldgnbr":"401","predir":"North","streetname":"Kansas","streettype":"Street","suffdir":null,"city":"Walsh","state_code":"CO","zip5":"81090","latitude":"37.3873247490000000","longitude":"-102.27935531100000","publicwifi":"N","url":null,"broadband_type_id":5}
{"id":null,"anchorname":"Walsh Fire Station","address":"400 North Kansas Street Walsh Co 81090","bldgnbr":"400","predir":"North","streetname":"Kansas","streettype":"Street","suffdir":null,"city":"Walsh","state_code":"CO","zip5":"81090","latitude":"37.3873247490000000","longitude":"-102.27935531100000","publicwifi":"N","url":null,"broadband_type_id":5}
{"id":null,"anchorname":"Walsh Police Department","address":"401 North Colorado Street Walsh Co 81090","bldgnbr":"401","predir":"North","streetname":"Colorado","streettype":"Street","suffdir":null,"city":"Walsh","state_code":"CO","zip5":"81090","latitude":"37.3873643690000000","longitude":"-102.27935942900000","publicwifi":"N","url":null,"broadband_type_id":4}
{"id":null,"anchorname":"Walsh Elementary School","address":"301 West Poplar Street Walsh Co 81090","bldgnbr":"301","predir":"West","streetname":"Poplar","streettype":"Street","suffdir":null,"city":"Walsh","state_code":"CO","zip5":"81090","latitude":"37.3867712900000000","longitude":"-102.28104429500000","publicwifi":"N","url":null,"broadband_type_id":6}
{"id":null,"anchorname":"Walsh High School","address":"300 California Street Walsh Co 81090","bldgnbr":"300","predir":null,"streetname":"California","streettype":"Street","suffdir":null,"city":"Walsh","state_code":"CO","zip5":"81090","latitude":"37.3859088620000000","longitude":"-102.28450548200000","publicwifi":"N","url":null,"broadband_type_id":6}
{"id":null,"anchorname":"Walsh High School-M","address":"300 California Street Walsh Co 81090","bldgnbr":"300","predir":null,"streetname":"California","streettype":"Street","suffdir":null,"city":"Walsh","state_code":"CO","zip5":"81090","latitude":"37.3858912860000000","longitude":"-102.28455922000000","publicwifi":"N","url":null,"broadband_type_id":6}
{"id":null,"anchorname":"Walsh Healthcare Center","address":"150 North Nevada Street Walsh Co 81090","bldgnbr":"150","predir":"North","streetname":"Nevada","streettype":"Street","suffdir":null,"city":"Walsh","state_code":"CO","zip5":"81090","latitude":"37.3844210000000000","longitude":"-102.28054600000000","publicwifi":"Y","url":null,"broadband_type_id":3}
{"id":null,"anchorname":"Two Buttes Fire Station","address":"500 4th Street Two Buttes Co 81084","bldgnbr":"500","predir":null,"streetname":"4th","streettype":"Street","suffdir":null,"city":"Two Buttes","state_code":"CO","zip5":"81084","latitude":"37.5575248290000000","longitude":"-102.39616580300000","publicwifi":"N","url":null,"broadband_type_id":5}
{"id":null,"anchorname":"Pritchett Middle School","address":"533 Irving Street Pritchett Co 81064","bldgnbr":"533","predir":null,"streetname":"Irving","streettype":"Street","suffdir":null,"city":"Pritchett","state_code":"CO","zip5":"81064","latitude":"37.3725453290000000","longitude":"-102.86193609700000","publicwifi":"N","url":null,"broadband_type_id":6}
{"id":null,"anchorname":"Pritchett High School","address":"533 Irving Street Pritchett Co 81064","bldgnbr":"533","predir":null,"streetname":"Irving","streettype":"Street","suffdir":null,"city":"Pritchett","state_code":"CO","zip5":"81064","latitude":"37.3724289930000000","longitude":"-102.86193937100000","publicwifi":"N","url":null,"broadband_type_id":6}
{"id":null,"anchorname":"Pritchett Elementary School","address":"533 Irving Street Pritchett Co 81064","bldgnbr":"533","predir":null,"streetname":"Irving","streettype":"Street","suffdir":null,"city":"Pritchett","state_code":"CO","zip5":"81064","latitude":"37.3725042010000000","longitude":"-102.86193845600000","publicwifi":"N","url":null,"broadband_type_id":6}
{"id":null,"anchorname":"Pritchett Fire Dept","address":"300 Randolph Street Pritchett Co 81073","bldgnbr":"300","predir":null,"streetname":"Randolph","streettype":"Street","suffdir":null,"city":"Pritchett","state_code":"CO","zip5":"81073","latitude":"37.3675805410000000","longitude":"-102.86228494000000","publicwifi":"N","url":null,"broadband_type_id":5}
{"id":null,"anchorname":"Campo Elementary School","address":"480 Maple Street Campo Co 81029","bldgnbr":"480","predir":null,"streetname":"Maple","streettype":"Street","suffdir":null,"city":"Campo","state_code":"CO","zip5":"81029","latitude":"37.1043783900000000","longitude":"-102.57652200000000","publicwifi":"N","url":null,"broadband_type_id":6}
{"id":null,"anchorname":"Campo Undivided High School-M","address":"480 Maple Street Campo Co 81029","bldgnbr":"480","predir":null,"streetname":"Maple","streettype":"Street","suffdir":null,"city":"Campo","state_code":"CO","zip5":"81029","latitude":"37.1043234840000000","longitude":"-102.57651965900000","publicwifi":"N","url":null,"broadband_type_id":6}
{"id":null,"anchorname":"Campo Volunteer Fire Dept","address":"403 Oak Street Campo Co 81029","bldgnbr":"403","predir":"\u003cNull\u003e","streetname":"Oak","streettype":"Street","suffdir":null,"city":"Campo","state_code":"CO","zip5":"81029","latitude":"37.1050819050000000","longitude":"-102.58046807300000","publicwifi":"N","url":null,"broadband_type_id":5}
{"id":null,"anchorname":"Baca County Sheriffs Office Jail","address":"265 East 2nd Avenue Springfield Co 81073","bldgnbr":"265","predir":"East","streetname":"2nd","streettype":"Avenue","suffdir":null,"city":"Springfield","state_code":"CO","zip5":"81073","latitude":"37.4126372270000000","longitude":"-102.61404061600000","publicwifi":"N","url":null,"broadband_type_id":4}
{"id":null,"anchorname":"Baca County Sheriff'S Office Psap","address":"265 East 2nd Avenue Springfield Co 81073","bldgnbr":"265","predir":"East","streetname":"2nd","streettype":"Avenue","suffdir":null,"city":"Springfield","state_code":"CO","zip5":"81073","latitude":"37.4126382440000000","longitude":"-102.61396758600000","publicwifi":"N","url":null,"broadband_type_id":4}
{"id":null,"anchorname":"Baca County Sheriffs Office","address":"265 East 2nd Avenue Springfield Co 81073","bldgnbr":"265","predir":"East","streetname":"2nd","streettype":"Avenue","suffdir":null,"city":"Springfield","state_code":"CO","zip5":"81073","latitude":"37.4126372270000000","longitude":"-102.61400492400000","publicwifi":"N","url":null,"broadband_type_id":4}
{"id":null,"anchorname":"Springfield Police Department","address":"748 Main Street Springfield Co 81073","bldgnbr":"748","predir":null,"streetname":"Main","streettype":"Street","suffdir":null,"city":"Springfield","state_code":"CO","zip5":"81073","latitude":"37.4066021730000000","longitude":"-102.61640589300000","publicwifi":"N","url":null,"broadband_type_id":4}
{"id":null,"anchorname":"Southeast Colorado Hospital Ambulance Service","address":"972 Kansas Street Springfield Co 81073","bldgnbr":"972","predir":null,"streetname":"Kansas","streettype":"Street","suffdir":null,"city":"Springfield","state_code":"CO","zip5":"81073","latitude":"37.4044408970000000","longitude":"-102.61512523500000","publicwifi":"Y","url":null,"broadband_type_id":3}
{"id":null,"anchorname":"Bryant Elementary","address":"4101 East Fountain Street","bldgnbr":"4101","predir":null,"streetname":"East Fountain","streettype":null,"suffdir":null,"city":"Long Beach","state_code":"CA","zip5":"90804","latitude":"33.7835570000000000","longitude":"-118.14451000000000","publicwifi":"U","url":null,"broadband_type_id":6}
{"id":null,"anchorname":"Flossie Lewis Center","address":"351 E. 6th Street","bldgnbr":"351","predir":null,"streetname":"E. 6th","streettype":null,"suffdir":null,"city":"Long Beach","state_code":"CA","zip5":"90802","latitude":"33.7743770000000000","longitude":"-118.18804400000000","publicwifi":"U","url":null,"broadband_type_id":6}
{"id":null,"anchorname":"City Of Las Animas","address":"532 Carson Avenue Las Animas Co 81054","bldgnbr":"532","predir":null,"streetname":"Carson","streettype":"Avenue","suffdir":null,"city":"Las Animas","state_code":"CO","zip5":"81054","latitude":"38.0673265600000000","longitude":"-103.22120600000000","publicwifi":"N","url":null,"broadband_type_id":1}
{"id":null,"anchorname":"Taylor County Vocational Center","address":"115 Luby Street Grafton WV 26354","bldgnbr":"115","predir":null,"streetname":"Luby","streettype":"Street","suffdir":null,"city":"Grafton","state_code":"WV","zip5":"26354","latitude":"39.3383035440000000","longitude":"-80.033241515000000","publicwifi":"Y","url":"http://www.wvonline.com/techcenter/","broadband_type_id":1}
{"id":null,"anchorname":"Vilas Re-5","address":"202 North Collingwood Avenue Vilas Co 81087","bldgnbr":"202","predir":"North","streetname":"Collingwood","streettype":"Avenue","suffdir":null,"city":"Vilas","state_code":"CO","zip5":"81087","latitude":"37.3737266580000000","longitude":"-102.44926369500000","publicwifi":"N","url":null,"broadband_type_id":null}
{"id":null,"anchorname":"Town Of Vilas","address":"109 East Main Street Vilas Co 81087","bldgnbr":"109","predir":"East","streetname":"Main","streettype":"Street","suffdir":null,"city":"Vilas","state_code":"CO","zip5":"81087","latitude":"37.3728919800000000","longitude":"-102.44781424500000","publicwifi":"N","url":null,"broadband_type_id":null}
{"id":null,"anchorname":"Vilas Fd","address":"109 East Main Street Vilas Co 81087","bldgnbr":"109","predir":"East","streetname":"Main","streettype":"Street","suffdir":null,"city":"Vilas","state_code":"CO","zip5":"81087","latitude":"37.3728919010000000","longitude":"-102.44786295200000","publicwifi":"N","url":null,"broadband_type_id":null}
{"id":null,"anchorname":"Springfield Re-4","address":"389 Tipton Street Springfield Co 81073","bldgnbr":"389","predir":null,"streetname":"Tipton","streettype":"Street","suffdir":null,"city":"Springfield","state_code":"CO","zip5":"81073","latitude":"37.4109194690000000","longitude":"-102.61977102300000","publicwifi":"N","url":null,"broadband_type_id":null}
{"id":null,"anchorname":"Mc Clave Re-2","address":"308 North Lincoln Street Mc Clave Co 81057","bldgnbr":"308","predir":"North","streetname":"Lincoln","streettype":"Street","suffdir":null,"city":"McClave","state_code":"CO","zip5":"81057","latitude":"38.1378544080000000","longitude":"-102.84974284800000","publicwifi":"N","url":null,"broadband_type_id":null}
{"id":null,"anchorname":"Bent-Kiowa Communications Center","address":"11100 County Road GG 5 Las Animas Co 81054","bldgnbr":"11100","predir":null,"streetname":"GG 5","streettype":null,"suffdir":null,"city":"Las Animas","state_code":"CO","zip5":"81054","latitude":"38.0706323320000000","longitude":"-103.27979836200000","publicwifi":"N","url":null,"broadband_type_id":null}
{"id":null,"anchorname":"Las Animas Re-1","address":"1021 2nd Street Las Animas Co 81054","bldgnbr":"1021","predir":null,"streetname":"2nd","streettype":"Street","suffdir":null,"city":"Las Animas","state_code":"CO","zip5":"81054","latitude":"38.0713933350000000","longitude":"-103.22946796800000","publicwifi":"N","url":null,"broadband_type_id":null}
{"id":null,"anchorname":"Southeast Colorado Hospital","address":"373 East 10th Avenue Springfield Co 81073","bldgnbr":"373","predir":"East","streetname":"10th","streettype":"Avenue","suffdir":null,"city":"Springfield","state_code":"CO","zip5":"81073","latitude":"37.4042537560000000","longitude":"-102.61225447000000","publicwifi":"Y","url":null,"broadband_type_id":3}
{"id":null,"anchorname":"Southeast Colorado Physicians Clinic","address":"210 East 10th Avenue Springfield Co 81073","bldgnbr":"210","predir":"East","streetname":"10th","streettype":"Avenue","suffdir":null,"city":"Springfield","state_code":"CO","zip5":"81073","latitude":"37.4039310000000000","longitude":"-102.61489500000000","publicwifi":"Y","url":null,"broadband_type_id":3}
{"id":null,"anchorname":"Southeast Mental Health Services - Partnership For Progress","address":"1049 Kansas Street Springfield Co 81073","bldgnbr":"1049","predir":null,"streetname":"Kansas","streettype":"Street","suffdir":null,"city":"Springfield","state_code":"CO","zip5":"81052","latitude":"37.4036026800000000","longitude":"-102.61528460000000","publicwifi":"N","url":null,"broadband_type_id":3}
{"id":null,"anchorname":"Baca County Library","address":"1260 Main Street Springfield Co 81073","bldgnbr":"1260","predir":null,"streetname":"Main","streettype":"Street","suffdir":null,"city":"Springfield","state_code":"CO","zip5":"81073","latitude":"37.4009184980000000","longitude":"-102.61621195400000","publicwifi":"Y","url":null,"broadband_type_id":6}
{"id":null,"anchorname":"Vilas Undivided High School-M","address":"202 North Collingwood Avenue Vilas Co 81087","bldgnbr":"202","predir":"North","streetname":"Collingwood","streettype":"Avenue","suffdir":null,"city":"Vilas","state_code":"CO","zip5":"81087","latitude":"37.3735733050000000","longitude":"-102.44931315700000","publicwifi":"N","url":null,"broadband_type_id":6}
{"id":null,"anchorname":"V.I.L.A.S. Online School","address":"202 North Collingwood Avenue Vilas Co 81087","bldgnbr":"202","predir":"North","streetname":"Collingwood","streettype":"Avenue","suffdir":null,"city":"Vilas","state_code":"CO","zip5":"81087","latitude":"37.3737246150000000","longitude":"-102.44931381300000","publicwifi":"N","url":null,"broadband_type_id":6}
{"id":null,"anchorname":"V.I.L.A.S. Online School-M","address":"202 North Collingwood Avenue Vilas Co 81087","bldgnbr":"202","predir":"North","streetname":"Collingwood","streettype":"Avenue","suffdir":null,"city":"Vilas","state_code":"CO","zip5":"81087","latitude":"37.3736529510000000","longitude":"-102.44931837200000","publicwifi":"N","url":null,"broadband_type_id":6}
{"id":null,"anchorname":"Vilas Elementary School","address":"202 North Collingwood Avenue Vilas Co 81087","bldgnbr":"202","predir":"North","streetname":"Collingwood","streettype":"Avenue","suffdir":null,"city":"Vilas","state_code":"CO","zip5":"81087","latitude":"37.3736502940000000","longitude":"-102.44936891900000","publicwifi":"N","url":null,"broadband_type_id":6}
{"id":null,"anchorname":"Vilas Undivided High School","address":"202 North Collingwood Avenue Vilas Co 81087","bldgnbr":"202","predir":"North","streetname":"Collingwood","streettype":"Avenue","suffdir":null,"city":"Vilas","state_code":"CO","zip5":"81087","latitude":"37.3735756140000000","longitude":"-102.44926328900000","publicwifi":"N","url":null,"broadband_type_id":6}
{"id":null,"anchorname":"Springfield Elementary School","address":"389 Tipton Street Springfield Co 81073","bldgnbr":"389","predir":null,"streetname":"Tipton","streettype":"Street","suffdir":null,"city":"Springfield","state_code":"CO","zip5":"81073","latitude":"37.4109545300000000","longitude":"-102.61977143700000","publicwifi":"N","url":null,"broadband_type_id":6}
{"id":null,"anchorname":"Springfield High School","address":"389 Tipton Street Springfield Co 81073","bldgnbr":"389","predir":null,"streetname":"Tipton","streettype":"Street","suffdir":null,"city":"Springfield","state_code":"CO","zip5":"81073","latitude":"37.4108850730000000","longitude":"-102.61977106900000","publicwifi":"N","url":null,"broadband_type_id":6}
{"id":null,"anchorname":"Springfield Junior High School","address":"389 Tipton Street Springfield Co 81073","bldgnbr":"389","predir":null,"streetname":"Tipton","streettype":"Street","suffdir":null,"city":"Springfield","state_code":"CO","zip5":"81073","latitude":"37.4109884390000000","longitude":"-102.61977123500000","publicwifi":"N","url":null,"broadband_type_id":6}
{"id":null,"anchorname":"Springfield Wic Clinic","address":"741 Main Street Suite 4 Springfield Co 81073","bldgnbr":"741","predir":null,"streetname":"Main","streettype":"Street","suffdir":null,"city":"Springfield","state_code":"CO","zip5":"81073","latitude":"37.4069232540000000","longitude":"-102.61778664700000","publicwifi":"N","url":null,"broadband_type_id":3}
{"id":null,"anchorname":"Mc Clave Undivided High School-M","address":"308 North Lincoln Street Mc Clave Co 81057","bldgnbr":"308","predir":"North","streetname":"Lincoln","streettype":"Street","suffdir":null,"city":"McClave","state_code":"CO","zip5":"81057","latitude":"38.1378526770000000","longitude":"-102.84968235600000","publicwifi":"N","url":null,"broadband_type_id":6}
{"id":null,"anchorname":"Mc Clave Undivided High School","address":"308 North Lincoln Street Mc Clave Co 81057","bldgnbr":"308","predir":"North","streetname":"Lincoln","streettype":"Street","suffdir":null,"city":"McClave","state_code":"CO","zip5":"81057","latitude":"38.1378545590000000","longitude":"-102.84981394000000","publicwifi":"N","url":null,"broadband_type_id":6}
{"id":null,"anchorname":"Mc Clave Elementary School","address":"308 North Lincoln Street Mc Clave Co 81057","bldgnbr":"308","predir":"North","streetname":"Lincoln","streettype":"Street","suffdir":null,"city":"McClave","state_code":"CO","zip5":"81057","latitude":"38.1378558430000000","longitude":"-102.84986804100000","publicwifi":"N","url":null,"broadband_type_id":6}
{"id":null,"anchorname":"Hasty/Mcclave Fire Protection District","address":"1st \u0026 Caddoa Street Hasty Co 81044\r\n1st \u0026 Caddoa Street Hasty Co 81044","bldgnbr":"0","predir":null,"streetname":"Caddoa","streettype":"Street","suffdir":null,"city":"Hasty","state_code":"CO","zip5":"81044","latitude":"38.1085383150000000","longitude":"-102.95697854100000","publicwifi":"Y","url":null,"broadband_type_id":5}
{"id":null,"anchorname":"Las Animas Wic Clinic","address":"701 Park Avenue Las Animas Co 81054","bldgnbr":"701","predir":null,"streetname":"Park","streettype":"Avenue","suffdir":null,"city":"Las Animas","state_code":"CO","zip5":"81054","latitude":"38.0651995980000000","longitude":"-103.23765573500000","publicwifi":"N","url":null,"broadband_type_id":3}
{"id":null,"anchorname":"Las Animas High School","address":"300 Grove Avenue Las Animas Co 81054","bldgnbr":"300","predir":null,"streetname":"Grove","streettype":"Avenue","suffdir":null,"city":"Las Animas","state_code":"CO","zip5":"81054","latitude":"38.0704344020000000","longitude":"-103.22954422500000","publicwifi":"N","url":null,"broadband_type_id":6}
{"id":null,"anchorname":"Las Animas Middle School","address":"1021 2nd Street Las Animas Co 81054","bldgnbr":"1021","predir":null,"streetname":"2nd","streettype":"Street","suffdir":null,"city":"Las Animas","state_code":"CO","zip5":"81054","latitude":"38.0713955730000000","longitude":"-103.22957320500000","publicwifi":"N","url":null,"broadband_type_id":6}
{"id":null,"anchorname":"Las Animas A+ Distance Learning School","address":"300 Grove Avenue Las Animas Co 81054","bldgnbr":"300","predir":null,"streetname":"Grove","streettype":"Avenue","suffdir":null,"city":"Las Animas","state_code":"CO","zip5":"81054","latitude":"38.0704371200000000","longitude":"-103.22963991900000","publicwifi":"N","url":null,"broadband_type_id":6}
{"id":null,"anchorname":"Bent County Healthcare Center","address":"810 3rd Street Las Animas Co 81054","bldgnbr":"810","predir":null,"streetname":"3rd","streettype":"Street","suffdir":null,"city":"Las Animas","state_code":"CO","zip5":"81054","latitude":"38.0706228700000000","longitude":"-103.22695781900000","publicwifi":"Y","url":null,"broadband_type_id":3}
{"id":null,"anchorname":"Las Animas Clinic","address":"245 Vine Avenue Las Animas Co 81054","bldgnbr":"245","predir":null,"streetname":"Vine","streettype":"Avenue","suffdir":null,"city":"Las Animas","state_code":"CO","zip5":"81054","latitude":"38.0711159110000000","longitude":"-103.22785195100000","publicwifi":"Y","url":null,"broadband_type_id":3}
{"id":null,"anchorname":"Las Animas Elementary School","address":"530 Poplar Avenue Las Animas Co 81054","bldgnbr":"530","predir":null,"streetname":"Poplar","streettype":"Avenue","suffdir":null,"city":"Las Animas","state_code":"CO","zip5":"81054","latitude":"38.0671266350000000","longitude":"-103.23167504000000","publicwifi":"N","url":null,"broadband_type_id":6}
{"id":null,"anchorname":"Bent County Sheriffs Office Jail","address":"11100 County Road GG5 Las Animas Co 81054","bldgnbr":"11100","predir":null,"streetname":"GG5","streettype":null,"suffdir":null,"city":"Las Animas","state_code":"CO","zip5":"81054","latitude":"38.0783873540000000","longitude":"-103.21842392800000","publicwifi":"N","url":null,"broadband_type_id":4}
{"id":null,"anchorname":"Las Animas Police Department","address":"326 Prowers Court Las Animas Co 81054","bldgnbr":"326","predir":null,"streetname":"Prowers","streettype":"Court","suffdir":null,"city":"Las Animas","state_code":"CO","zip5":"81054","latitude":"38.0671795100000000","longitude":"-103.22060790000000","publicwifi":"N","url":null,"broadband_type_id":4}
{"id":null,"anchorname":"MHA Village ISA","address":"456 Elm Ave.","bldgnbr":"456","predir":null,"streetname":"Elm Ave.","streettype":null,"suffdir":null,"city":"Long Beach","state_code":"CA","zip5":"90802","latitude":"33.7727410000000000","longitude":"-118.18728900000000","publicwifi":"U","url":null,"broadband_type_id":6}
{"id":null,"anchorname":"Mesa Vista Of Boulder","address":"2121 Mesa Drive Boulder Co 80304","bldgnbr":"2121","predir":null,"streetname":"Mesa","streettype":"Drive","suffdir":null,"city":"Boulder","state_code":"CO","zip5":"80304","latitude":"40.0250420000000000","longitude":"-105.26960800000000","publicwifi":"N","url":null,"broadband_type_id":6}
{"id":null,"anchorname":"Pridemark Paramedic Services - Boulder County","address":"3297 Walnut Street Boulder Co 80301","bldgnbr":"3297","predir":null,"streetname":"Walnut","streettype":"Street","suffdir":null,"city":"Boulder","state_code":"CO","zip5":"80301","latitude":"40.0203597000000000","longitude":"-105.25010760000000","publicwifi":"N","url":null,"broadband_type_id":6}
{"id":null,"anchorname":"Carnegie Branch For Local History","address":"1125 Pine Street Boulder Co 80302","bldgnbr":"1125","predir":null,"streetname":"Pine","streettype":"Street","suffdir":null,"city":"Boulder","state_code":"CO","zip5":"80302","latitude":"40.0199728030000000","longitude":"-105.28147509000000","publicwifi":"N","url":null,"broadband_type_id":6}
{"id":null,"anchorname":"Fort Lyon Correctional Facility","address":"30999 County Road 15 Fort Lyon Co 81038","bldgnbr":"30999","predir":null,"streetname":"15","streettype":null,"suffdir":null,"city":"Fort Lyon","state_code":"CO","zip5":"81054","latitude":"38.0659136000000000","longitude":"-103.20505563300000","publicwifi":"N","url":null,"broadband_type_id":null}
{"id":null,"anchorname":"UPTON ELEMENTARY","address":"802  JUNIPER","bldgnbr":"802","predir":null,"streetname":"JUNIPER","streettype":null,"suffdir":null,"city":"UPTON","state_code":"WY","zip5":"82730","latitude":"44.1021710000000000","longitude":"-104.62217800000000","publicwifi":"N","url":null,"broadband_type_id":6}
{"id":null,"anchorname":"Upshur County Communications","address":"181 Pallottine Drive Buckhannon WV 26201","bldgnbr":"181","predir":null,"streetname":"Pallottine","streettype":"Drive","suffdir":null,"city":"Buckhannon","state_code":"WV","zip5":"26201","latitude":"38.9905075190000000","longitude":"-80.240326838000000","publicwifi":"N","url":"http://upshuroem.org/","broadband_type_id":1}
{"id":null,"anchorname":"Boulder County","address":"1325 Pearl Street Boulder Co 80302","bldgnbr":"1325","predir":null,"streetname":"Pearl","streettype":"Street","suffdir":null,"city":"Boulder","state_code":"CO","zip5":"80302","latitude":"40.0187726020000000","longitude":"-105.27816054600000","publicwifi":"N","url":null,"broadband_type_id":1}
{"id":null,"anchorname":"Wetzel County Emergency Communications E-911","address":"911 Emergency Service Lane  New Martinsville WV 26155","bldgnbr":"911","predir":null,"streetname":"Emergency Service","streettype":"Lane","suffdir":null,"city":"New Martinsville","state_code":"WV","zip5":"26155","latitude":"39.6810709600000000","longitude":"-80.852753743000000","publicwifi":"N","url":"http://wetzelwv.com/mg/maps/wv/wetzel/","broadband_type_id":1}
{"id":null,"anchorname":"Boulder Fd Station 5","address":"4365 19th Street Boulder Co 80304","bldgnbr":"4365","predir":null,"streetname":"19th","streettype":"Street","suffdir":null,"city":"Boulder","state_code":"CO","zip5":"80304","latitude":"40.0539290000000000","longitude":"-105.27311510000000","publicwifi":"N","url":null,"broadband_type_id":null}
{"id":null,"anchorname":"Boulder Emergency Squad","address":"3532 Diagonal Highway Boulder Co 80301","bldgnbr":"3532","predir":null,"streetname":"Diagonal","streettype":"Highway","suffdir":null,"city":"Boulder","state_code":"CO","zip5":"80301","latitude":"40.0383428000000000","longitude":"-105.24365010000000","publicwifi":"N","url":null,"broadband_type_id":null}
{"id":null,"anchorname":"Pridemark Paramedics - Boulder","address":"3297 Walnut Street Boulder Co 80301","bldgnbr":"3297","predir":null,"streetname":"Walnut","streettype":"Street","suffdir":null,"city":"Boulder","state_code":"CO","zip5":"80301","latitude":"40.0203648440000000","longitude":"-105.25017377800000","publicwifi":"N","url":null,"broadband_type_id":null}
{"id":null,"anchorname":"Boulder Fd Station 1","address":"2241 13th Street Boulder Co 80302","bldgnbr":"2241","predir":null,"streetname":"13th","streettype":"Street","suffdir":null,"city":"Boulder","state_code":"CO","zip5":"80302","latitude":"40.0205765000000000","longitude":"-105.27987900000000","publicwifi":"N","url":null,"broadband_type_id":null}
{"id":null,"anchorname":"Las Animas - Bent County Library District","address":"306 5th Street Las Animas Co 81054","bldgnbr":"306","predir":null,"streetname":"5th","streettype":"Street","suffdir":null,"city":"Las Animas","state_code":"CO","zip5":"81054","latitude":"38.0677534350000000","longitude":"-103.22010388700000","publicwifi":"Y","url":null,"broadband_type_id":6}
{"id":null,"anchorname":"Las Animas Bent County Volunteer Fire Station","address":"435 5th Street Las Animas Co 81054","bldgnbr":"435","predir":null,"streetname":"5th","streettype":"Street","suffdir":null,"city":"Las Animas","state_code":"CO","zip5":"81054","latitude":"38.0674128070000000","longitude":"-103.22213061200000","publicwifi":"N","url":null,"broadband_type_id":5}
{"id":null,"anchorname":"Fort Lyon Correctional Facility Clinic","address":"30999  County Road 15 Fort Lyon Co 81038","bldgnbr":"30999","predir":null,"streetname":"15","streettype":null,"suffdir":null,"city":"Fort Lyon","state_code":"CO","zip5":"81054","latitude":"38.0659143340000000","longitude":"-103.20490177700000","publicwifi":"N","url":null,"broadband_type_id":3}
{"id":null,"anchorname":"Foothill Elementary School","address":"1001 Hawthorne Avenue Boulder Co 80304","bldgnbr":"1001","predir":null,"streetname":"Hawthorne","streettype":"Avenue","suffdir":null,"city":"Boulder","state_code":"CO","zip5":"80304","latitude":"40.0357464280000000","longitude":"-105.28446901700000","publicwifi":"N","url":null,"broadband_type_id":6}
{"id":null,"anchorname":"Casey Middle School","address":"2410 13th Street Boulder Co 80304","bldgnbr":"2410","predir":null,"streetname":"13th","streettype":"Street","suffdir":null,"city":"Boulder","state_code":"CO","zip5":"80304","latitude":"40.0229840640000000","longitude":"-105.27933162100000","publicwifi":"N","url":null,"broadband_type_id":6}
{"id":null,"anchorname":"Columbine Elementary School","address":"3130 Repplier Drive Boulder Co 80304","bldgnbr":"3130","predir":null,"streetname":"Repplier","streettype":"Drive","suffdir":null,"city":"Boulder","state_code":"CO","zip5":"80304","latitude":"40.0329587370000000","longitude":"-105.27133558600000","publicwifi":"N","url":null,"broadband_type_id":6}
{"id":null,"anchorname":"Crest View Elementary School","address":"1897 Sumac Avenue Boulder Co 80304","bldgnbr":"1897","predir":null,"streetname":"Sumac","streettype":"Avenue","suffdir":null,"city":"Boulder","state_code":"CO","zip5":"80304","latitude":"40.0506897900000000","longitude":"-105.27240350000000","publicwifi":"N","url":null,"broadband_type_id":6}
{"id":null,"anchorname":"Centennial Middle School","address":"2205 Norwood Avenue Boulder Co 80304","bldgnbr":"2205","predir":null,"streetname":"Norwood","streettype":"Avenue","suffdir":null,"city":"Boulder","state_code":"CO","zip5":"80304","latitude":"40.0448019050000000","longitude":"-105.26831488200000","publicwifi":"N","url":null,"broadband_type_id":6}
{"id":null,"anchorname":"Boulder Wic Clinic","address":"3482 Broadway Boulder Co 80304","bldgnbr":"3482","predir":null,"streetname":"Broadway","streettype":null,"suffdir":null,"city":"Boulder","state_code":"CO","zip5":"80304","latitude":"40.0374662960000000","longitude":"-105.28200617000000","publicwifi":"N","url":null,"broadband_type_id":3}
{"id":null,"anchorname":"Mental Health Center - Boulder/Broomfield Counties","address":"1333 Iris Avenue Boulder Co 80304","bldgnbr":"1333","predir":null,"streetname":"Iris","streettype":"Avenue","suffdir":null,"city":"Boulder","state_code":"CO","zip5":"80304","latitude":"40.0365244980000000","longitude":"-105.28086891100000","publicwifi":"N","url":null,"broadband_type_id":3}
{"id":null,"anchorname":"Boulder County Sheriffs Office","address":"1777 6th Street Boulder Co 80302","bldgnbr":"1777","predir":null,"streetname":"6th","streettype":"Street","suffdir":null,"city":"Boulder","state_code":"CO","zip5":"80302","latitude":"40.0147387320000000","longitude":"-105.28833902200000","publicwifi":"N","url":null,"broadband_type_id":4}
{"id":null,"anchorname":"Flatirons Elementary School","address":"1150 7th Street Boulder Co 80302","bldgnbr":"1150","predir":null,"streetname":"7th","streettype":"Street","suffdir":null,"city":"Boulder","state_code":"CO","zip5":"80302","latitude":"40.0080125410000000","longitude":"-105.28514352400000","publicwifi":"N","url":null,"broadband_type_id":6}
{"id":null,"anchorname":"Whittier Elementary School","address":"2008 Pine St Boulder Co 80302","bldgnbr":"2008","predir":null,"streetname":"Pine","streettype":"Street","suffdir":null,"city":"Boulder","state_code":"CO","zip5":"80302","latitude":"40.0215885050000000","longitude":"-105.26948910200000","publicwifi":"N","url":null,"broadband_type_id":6}
{"id":null,"anchorname":"American Medical Response - Boulder County","address":"3800 Pearl Street Boulder Co 80301","bldgnbr":"3800","predir":null,"streetname":"Pearl","streettype":"Street","suffdir":null,"city":"Boulder","state_code":"CO","zip5":"80301","latitude":"40.0240749000000000","longitude":"-105.24623630000000","publicwifi":"N","url":null,"broadband_type_id":3}
{"id":null,"anchorname":"Boulder Community Foothills Hospital","address":"4747 Arapahoe Avenue Boulder Co 80303","bldgnbr":"4747","predir":null,"streetname":"Arapahoe","streettype":"Avenue","suffdir":null,"city":"Boulder","state_code":"CO","zip5":"80303","latitude":"40.0160446710000000","longitude":"-105.23633493500000","publicwifi":"N","url":null,"broadband_type_id":3}
{"id":null,"anchorname":"Rocky Mountain Rescue Group Fire","address":"3297 Walnut Street Boulder Co 80301","bldgnbr":"3297","predir":null,"streetname":"Walnut","streettype":"Street","suffdir":null,"city":"Boulder","state_code":"CO","zip5":"80301","latitude":"40.0203701430000000","longitude":"-105.25027794200000","publicwifi":"N","url":null,"broadband_type_id":5}
{"id":null,"anchorname":"Rocky Mountain Rescue Group Ems","address":"3297 Walnut Street Boulder Co 80301","bldgnbr":"3297","predir":null,"streetname":"Walnut","streettype":"Street","suffdir":null,"city":"Boulder","state_code":"CO","zip5":"80301","latitude":"40.0203700930000000","longitude":"-105.25022654600000","publicwifi":"N","url":null,"broadband_type_id":5}
{"id":null,"anchorname":"Boulder Fire-Rescue Department Headquarters Ems","address":"1805 33rd Street Boulder Co 80301","bldgnbr":"1805","predir":null,"streetname":"33rd","streettype":"Street","suffdir":null,"city":"Boulder","state_code":"CO","zip5":"80301","latitude":"40.0177890280000000","longitude":"-105.25047470500000","publicwifi":"N","url":null,"broadband_type_id":5}
{"id":null,"anchorname":"City Of Boulder Police And Fire Communications","address":"1805 33rd Street Boulder Co 80301","bldgnbr":"1805","predir":null,"streetname":"33rd","streettype":"Street","suffdir":null,"city":"Boulder","state_code":"CO","zip5":"80301","latitude":"40.0176991230000000","longitude":"-105.25047005500000","publicwifi":"N","url":null,"broadband_type_id":4}
{"id":null,"anchorname":"Boulder Police Department","address":"1805 33rd Street Boulder Co 80301","bldgnbr":"1805","predir":null,"streetname":"33rd","streettype":"Street","suffdir":null,"city":"Boulder","state_code":"CO","zip5":"80301","latitude":"40.0176988410000000","longitude":"-105.25058738500000","publicwifi":"N","url":null,"broadband_type_id":4}
{"id":null,"anchorname":"Boulder Fire-Rescue Department Headquarters","address":"1805 33rd Street Boulder Co 80301","bldgnbr":"1805","predir":null,"streetname":"33rd","streettype":"Street","suffdir":null,"city":"Boulder","state_code":"CO","zip5":"80301","latitude":"40.0177751270000000","longitude":"-105.25058128000000","publicwifi":"N","url":null,"broadband_type_id":5}
{"id":null,"anchorname":"Boulder County Sheriff'S Office Psap","address":"1805 33rd Street Boulder Co 80301","bldgnbr":"1805","predir":null,"streetname":"33rd","streettype":"Street","suffdir":null,"city":"Boulder","state_code":"CO","zip5":"80301","latitude":"40.0177408260000000","longitude":"-105.25052565900000","publicwifi":"N","url":null,"broadband_type_id":4}
{"id":null,"anchorname":"Boulder Community Hospital","address":"1100 Balsam Avenue Boulder Co 80304","bldgnbr":"1100","predir":null,"streetname":"Balsam","streettype":"Avenue","suffdir":null,"city":"Boulder","state_code":"CO","zip5":"80304","latitude":"40.0260945700000000","longitude":"-105.28319890000000","publicwifi":"N","url":null,"broadband_type_id":3}
{"id":null,"anchorname":"People'S Clinic, The","address":"2525 13th Street Boulder Co 80304","bldgnbr":"2525","predir":null,"streetname":"13th","streettype":"Street","suffdir":null,"city":"Boulder","state_code":"CO","zip5":"80304","latitude":"40.0237770000000000","longitude":"-105.28098868900000","publicwifi":"N","url":null,"broadband_type_id":3}
{"id":null,"anchorname":"Boulder High School","address":"1604 Arapahoe Avenue Boulder Co 80302","bldgnbr":"1604","predir":null,"streetname":"Arapahoe","streettype":"Avenue","suffdir":null,"city":"Boulder","state_code":"CO","zip5":"80302","latitude":"40.0140236430000000","longitude":"-105.27336278500000","publicwifi":"N","url":null,"broadband_type_id":6}
{"id":null,"anchorname":"Montessori On Elm","address":"930 Elm Avenue","bldgnbr":"930","predir":null,"streetname":"Elm Avenue","streettype":null,"suffdir":null,"city":"Long Beach","state_code":"CA","zip5":"90813","latitude":"33.7785796160000000","longitude":"-118.18728330900000","publicwifi":"U","url":null,"broadband_type_id":6}
{"id":null,"anchorname":"Naples Elementary","address":"5537 The Toledo","bldgnbr":"5537","predir":null,"streetname":"The Toledo","streettype":null,"suffdir":null,"city":"Long Beach","state_code":"CA","zip5":"90803","latitude":"33.7549810000000000","longitude":"-118.12745000000000","publicwifi":"U","url":null,"broadband_type_id":6}
{"id":null,"anchorname":"Wayne County 9-1-1","address":"37 Memorial Street Wayne WV 25570","bldgnbr":"37","predir":null,"streetname":"Memorial","streettype":"Street","suffdir":null,"city":"Wayne","state_code":"WV","zip5":"25570","latitude":"38.2227360000000000","longitude":"-82.443007000000000","publicwifi":"N","url":null,"broadband_type_id":1}
{"id":null,"anchorname":"Boulder County Jail","address":"3200 Airport Road Boulder Co 80301","bldgnbr":"3200","predir":null,"streetname":"Airport","streettype":"Road","suffdir":null,"city":"Boulder","state_code":"CO","zip5":"80301","latitude":"40.0340828000000000","longitude":"-105.23250290000000","publicwifi":"N","url":null,"broadband_type_id":1}
{"id":null,"anchorname":"Boulder Fd Station 2","address":"2235 Baseline Road Boulder Co 80302","bldgnbr":"2235","predir":null,"streetname":"Baseline","streettype":"Road","suffdir":null,"city":"Boulder","state_code":"CO","zip5":"80302","latitude":"40.0003091130000000","longitude":"-105.26425825700000","publicwifi":"N","url":null,"broadband_type_id":null}
{"id":null,"anchorname":"Boulder Fd Station 4","address":"4100 Darley Avenue Boulder Co 80305","bldgnbr":"4100","predir":null,"streetname":"Darley","streettype":"Avenue","suffdir":null,"city":"Boulder","state_code":"CO","zip5":"80305","latitude":"39.9803976760000000","longitude":"-105.24653037700000","publicwifi":"N","url":null,"broadband_type_id":null}
{"id":null,"anchorname":"Boulder Fd Station 3","address":"1585 30th Street Boulder Co 80303","bldgnbr":"1585","predir":null,"streetname":"30th","streettype":"Street","suffdir":null,"city":"Boulder","state_code":"CO","zip5":"80303","latitude":"40.0140662540000000","longitude":"-105.25409266500000","publicwifi":"N","url":null,"broadband_type_id":null}
{"id":null,"anchorname":"Boulder Manor","address":"4685 East Baseline Road Boulder Co 80303","bldgnbr":"4685","predir":"East","streetname":"Baseline","streettype":"Road","suffdir":null,"city":"Boulder","state_code":"CO","zip5":"80303","latitude":"40.0008591430000000","longitude":"-105.23731302200000","publicwifi":"N","url":null,"broadband_type_id":null}
{"id":null,"anchorname":"Boulder Fd Station 6","address":"5145 63rd Street Boulder Co 80301","bldgnbr":"5145","predir":null,"streetname":"63rd","streettype":"Street","suffdir":null,"city":"Boulder","state_code":"CO","zip5":"80301","latitude":"40.0691397240000000","longitude":"-105.20765837300000","publicwifi":"N","url":null,"broadband_type_id":null}
{"id":null,"anchorname":"Wkfc Boulder Cty - Boulder","address":"2520 55th Street Boulder Co 80301","bldgnbr":"2520","predir":null,"streetname":"55th","streettype":"Street","suffdir":null,"city":"Boulder","state_code":"CO","zip5":"80301","latitude":"40.0247810300000000","longitude":"-105.22488353100000","publicwifi":"N","url":null,"broadband_type_id":null}
{"id":null,"anchorname":"Boulder Public Library","address":"1000 Canyon Boulevard Boulder Co 80306","bldgnbr":"1000","predir":null,"streetname":"Canyon","streettype":"Boulevard","suffdir":null,"city":"Boulder","state_code":"CO","zip5":"80306","latitude":"40.0147426090000000","longitude":"-105.28220475500000","publicwifi":"N","url":null,"broadband_type_id":6}
{"id":null,"anchorname":"University Of Colorado At Boulder","address":"2202 Arapahoe Avenue Boulder Co 80302","bldgnbr":"2202","predir":null,"streetname":"Arapahoe","streettype":"Avenue","suffdir":null,"city":"Boulder","state_code":"CO","zip5":"80302","latitude":"40.0092470100000000","longitude":"-105.27342246500000","publicwifi":"N","url":null,"broadband_type_id":6}
{"id":null,"anchorname":"Wardenburg Health Center","address":"1900 Wardenburg Drive Boulder Co 80309","bldgnbr":"1900","predir":null,"streetname":"Wardenburg","streettype":"Drive","suffdir":null,"city":"Boulder","state_code":"CO","zip5":"80309","latitude":"40.0053090000000000","longitude":"-105.26890400000000","publicwifi":"N","url":null,"broadband_type_id":3}
{"id":null,"anchorname":"Cu-Boulder Police Department","address":"1050 Regent Drive Boulder Co 80309","bldgnbr":"1050","predir":null,"streetname":"Regent","streettype":"Drive","suffdir":null,"city":"Boulder","state_code":"CO","zip5":"80309","latitude":"40.0066988800000000","longitude":"-105.26108945900000","publicwifi":"N","url":null,"broadband_type_id":4}
{"id":null,"anchorname":"University Of Colorado Police Department","address":"1050 Regent Drive Boulder Co 80302","bldgnbr":"1050","predir":null,"streetname":"Regent","streettype":"Drive","suffdir":null,"city":"Boulder","state_code":"CO","zip5":"80302","latitude":"40.0067893000000000","longitude":"-105.26108470000000","publicwifi":"N","url":null,"broadband_type_id":4}
{"id":null,"anchorname":"Boulder Police Department - College Avenue Station","address":"1310 College Avenue Boulder Co 80302","bldgnbr":"1310","predir":null,"streetname":"College","streettype":"Avenue","suffdir":null,"city":"Boulder","state_code":"CO","zip5":"80302","latitude":"40.0075170100000000","longitude":"-105.27532170000000","publicwifi":"N","url":null,"broadband_type_id":4}
{"id":null,"anchorname":"University Hill Elementary School","address":"956 16th Street Boulder Co 80302","bldgnbr":"956","predir":null,"streetname":"16th","streettype":"Street","suffdir":null,"city":"Boulder","state_code":"CO","zip5":"80302","latitude":"40.0049986360000000","longitude":"-105.27186855300000","publicwifi":"N","url":null,"broadband_type_id":6}
{"id":null,"anchorname":"New Vista High School","address":"700 20th Street Boulder Co 80302","bldgnbr":"700","predir":null,"streetname":"20th","streettype":"Street","suffdir":null,"city":"Boulder","state_code":"CO","zip5":"80302","latitude":"40.0008773610000000","longitude":"-105.26717374100000","publicwifi":"N","url":null,"broadband_type_id":6}
{"id":null,"anchorname":"Manhattan Middle School Of The Arts And Academics","address":"290 Manhattan Drive Boulder Co 80303","bldgnbr":"290","predir":null,"streetname":"Manhattan","streettype":"Drive","suffdir":null,"city":"Boulder","state_code":"CO","zip5":"80303","latitude":"39.9940390700000000","longitude":"-105.22853529600000","publicwifi":"N","url":null,"broadband_type_id":6}
{"id":null,"anchorname":"George Reynolds Branch Library","address":"3595 Table Mesa Drive Boulder Co 80305","bldgnbr":"3595","predir":null,"streetname":"Table Mesa","streettype":"Drive","suffdir":null,"city":"Boulder","state_code":"CO","zip5":"80305","latitude":"39.9843330380000000","longitude":"-105.25259137700000","publicwifi":"N","url":null,"broadband_type_id":6}
{"id":null,"anchorname":"Bear Creek Elementary School","address":"2500 Table Mesa Drive Boulder Co 80305","bldgnbr":"2500","predir":null,"streetname":"Table Mesa","streettype":"Drive","suffdir":null,"city":"Boulder","state_code":"CO","zip5":"80305","latitude":"39.9807629790000000","longitude":"-105.26273446100000","publicwifi":"N","url":null,"broadband_type_id":6}
{"id":null,"anchorname":"Mental Health Center - Boulder/Broomfield Counties - Halcyon Day Treatment","address":"3100 Bucknell Court Boulder Co 80303","bldgnbr":"3100","predir":null,"streetname":"Bucknell","streettype":"Court","suffdir":null,"city":"Boulder","state_code":"CO","zip5":"80303","latitude":"39.9924191390000000","longitude":"-105.25663005200000","publicwifi":"N","url":null,"broadband_type_id":3}
{"id":null,"anchorname":"Creekside Elementary School At Martin Park","address":"3740 Martin Drive Boulder Co 80305","bldgnbr":"3740","predir":null,"streetname":"Martin","streettype":"Drive","suffdir":null,"city":"Boulder","state_code":"CO","zip5":"80305","latitude":"39.9908774060000000","longitude":"-105.24880993200000","publicwifi":"N","url":null,"broadband_type_id":6}
{"id":null,"anchorname":"Summit Middle Charter School","address":"4655 Hanover Avenue Boulder Co 80305","bldgnbr":"4655","predir":null,"streetname":"Hanover","streettype":"Avenue","suffdir":null,"city":"Boulder","state_code":"CO","zip5":"80305","latitude":"39.9829772980000000","longitude":"-105.24071990000000","publicwifi":"N","url":null,"broadband_type_id":6}
{"id":null,"anchorname":"Fairview High School","address":"1515 Greenbriar Boulevard Boulder Co 80305","bldgnbr":"1515","predir":null,"streetname":"Greenbriar","streettype":"Boulevard","suffdir":null,"city":"Boulder","state_code":"CO","zip5":"80305","latitude":"39.9726348660000000","longitude":"-105.24629996300000","publicwifi":"N","url":null,"broadband_type_id":6}
{"id":null,"anchorname":"Southern Hills Middle School","address":"1500 Knox Drive Boulder Co 80305","bldgnbr":"1500","predir":null,"streetname":"Knox","streettype":"Drive","suffdir":null,"city":"Boulder","state_code":"CO","zip5":"80305","latitude":"39.9742636080000000","longitude":"-105.24484780600000","publicwifi":"N","url":null,"broadband_type_id":6}
{"id":null,"anchorname":"Community Montessori School","address":"805 Gillaspie Drive Boulder Co 80305","bldgnbr":"805","predir":null,"streetname":"Gillaspie","streettype":"Drive","suffdir":null,"city":"Boulder","state_code":"CO","zip5":"80305","latitude":"39.9818388530000000","longitude":"-105.25212357500000","publicwifi":"N","url":null,"broadband_type_id":6}
{"id":null,"anchorname":"Mesa Elementary School","address":"1575 Lehigh Street Boulder Co 80305","bldgnbr":"1575","predir":null,"streetname":"Lehigh","streettype":"Street","suffdir":null,"city":"Boulder","state_code":"CO","zip5":"80305","latitude":"39.9721298290000000","longitude":"-105.26063792000000","publicwifi":"N","url":null,"broadband_type_id":6}
{"id":null,"anchorname":"Eldorado Springs Marshall Fpd","address":"4390 Eldorado Springs Drive Eldorado Springs Co 80025","bldgnbr":"4390","predir":null,"streetname":"Eldorado Springs","streettype":"Drive","suffdir":null,"city":"Eldorado Springs","state_code":"CO","zip5":"80025","latitude":"39.9319411990000000","longitude":"-105.27764805800000","publicwifi":"N","url":null,"broadband_type_id":1}
{"id":null,"anchorname":"Meadows Branch Library","address":"4800 E Baseline Rd Boulder Co 80303","bldgnbr":"4800","predir":null,"streetname":"Baseline","streettype":"Road","suffdir":null,"city":"Boulder","state_code":"CO","zip5":"80303","latitude":"39.9980630490000000","longitude":"-105.23444503900000","publicwifi":"N","url":null,"broadband_type_id":6}
{"id":null,"anchorname":"Frasier Meadows Health Care Center","address":"4950 Thunderbird Drive Boulder Co 80303","bldgnbr":"4950","predir":null,"streetname":"Thunderbird","streettype":"Drive","suffdir":null,"city":"Boulder","state_code":"CO","zip5":"80303","latitude":"39.9940996430000000","longitude":"-105.23293949900000","publicwifi":"N","url":null,"broadband_type_id":3}
{"id":null,"anchorname":"Horizons K-8 School","address":"4545 Sioux Drive Boulder Co 80303","bldgnbr":"4545","predir":null,"streetname":"Sioux","streettype":"Drive","suffdir":null,"city":"Boulder","state_code":"CO","zip5":"80303","latitude":"39.9932789350000000","longitude":"-105.23743693000000","publicwifi":"N","url":null,"broadband_type_id":6}
{"id":null,"anchorname":"Horizons K-8 School-E","address":"4545 Sioux Drive Boulder Co 80303","bldgnbr":"4545","predir":null,"streetname":"Sioux","streettype":"Drive","suffdir":null,"city":"Boulder","state_code":"CO","zip5":"80303","latitude":"39.9932808270000000","longitude":"-105.23722727600000","publicwifi":"N","url":null,"broadband_type_id":6}
{"id":null,"anchorname":"Eisenhower Elementary School","address":"1220 Eisenhower Drive Boulder Co 80303","bldgnbr":"1220","predir":null,"streetname":"Eisenhower","streettype":"Drive","suffdir":null,"city":"Boulder","state_code":"CO","zip5":"80303","latitude":"40.0081600860000000","longitude":"-105.23388745700000","publicwifi":"N","url":null,"broadband_type_id":6}
{"id":null,"anchorname":"Boulder Community School/Integrated Studies","address":"3995 East Aurora Avenue Boulder Co 80303","bldgnbr":"3995","predir":"East","streetname":"Aurora","streettype":"Avenue","suffdir":null,"city":"Boulder","state_code":"CO","zip5":"80303","latitude":"40.0039657140000000","longitude":"-105.24352384000000","publicwifi":"N","url":null,"broadband_type_id":6}
{"id":null,"anchorname":"High Peaks Elementary School","address":"3995 East Aurora Avenue Boulder Co 80303","bldgnbr":"3995","predir":"East","streetname":"Aurora","streettype":"Avenue","suffdir":null,"city":"Boulder","state_code":"CO","zip5":"80303","latitude":"40.0039694790000000","longitude":"-105.24328129700000","publicwifi":"N","url":null,"broadband_type_id":6}
{"id":null,"anchorname":"Boulder Rural Fire Prot Dist Station 2","address":"7100 Fairways Drive Longmont Co 80503","bldgnbr":"7100","predir":null,"streetname":"Fairways","streettype":"Drive","suffdir":null,"city":"Longmont","state_code":"CO","zip5":"80503","latitude":"40.1039567670000000","longitude":"-105.25939840900000","publicwifi":"N","url":null,"broadband_type_id":5}
{"id":null,"anchorname":"Boulder Rural Fire Prot Dist Station 1","address":"5075 Jay Road Boulder Co 80301","bldgnbr":"5075","predir":null,"streetname":"Jay","streettype":"Road","suffdir":null,"city":"Boulder","state_code":"CO","zip5":"80301","latitude":"40.0513731000000000","longitude":"-105.23538650000000","publicwifi":"N","url":null,"broadband_type_id":5}
{"id":null,"anchorname":"Animo South Los Angeles Charter","address":"11130 Western Avenue","bldgnbr":"11130","predir":null,"streetname":"Western Avenue","streettype":null,"suffdir":null,"city":"Los Angeles","state_code":"CA","zip5":"90047","latitude":"33.9329890000000000","longitude":"-118.30839000000000","publicwifi":"U","url":"www.greendot.org","broadband_type_id":6}
{"id":null,"anchorname":"Centinela Elementary","address":"1123 Marlborough Avenue","bldgnbr":"1123","predir":null,"streetname":"Marlborough Avenue","streettype":null,"suffdir":null,"city":"Inglewood","state_code":"CA","zip5":"90302","latitude":"33.9776310000000000","longitude":"-118.34633000000000","publicwifi":"U","url":null,"broadband_type_id":6}
{"id":null,"anchorname":"Boulder Valley Re 2","address":"6500 East Arapahoe Avenue Boulder Co 80301","bldgnbr":"6500","predir":"East","streetname":"Arapahoe","streettype":"Avenue","suffdir":null,"city":"Boulder","state_code":"CO","zip5":"80301","latitude":"40.0142942130000000","longitude":"-105.20152890800000","publicwifi":"N","url":null,"broadband_type_id":null}
{"id":null,"anchorname":"Boulder Fd Station 7","address":"1380 55th Street Boulder Co 80303","bldgnbr":"1380","predir":null,"streetname":"55th","streettype":"Street","suffdir":null,"city":"Boulder","state_code":"CO","zip5":"80303","latitude":"40.0111733700000000","longitude":"-105.22496195700000","publicwifi":"N","url":null,"broadband_type_id":null}
{"id":null,"anchorname":"HAWTHORNE CONVALESCENT CENTER","address":"11630 Grevillea Ave","bldgnbr":"11630","predir":null,"streetname":"Grevillea Ave","streettype":null,"suffdir":null,"city":"Hawthorne","state_code":"CA","zip5":"90250","latitude":"33.9288940000000000","longitude":"-118.35453400000000","publicwifi":"U","url":null,"broadband_type_id":6}
{"id":null,"anchorname":"Community Reach Center - Louisville","address":"335 S Boulder Rd Louisville Co 80027","bldgnbr":"335","predir":"South","streetname":"Boulder","streettype":"Road","suffdir":null,"city":"Louisville","state_code":"CO","zip5":"80027","latitude":"39.9876716060000000","longitude":"-105.13937881600000","publicwifi":"N","url":null,"broadband_type_id":6}
{"id":null,"anchorname":"Boulder County Paramedics","address":"1131 South Street Louisville Co 80027","bldgnbr":"1131","predir":null,"streetname":"South","streettype":"Street","suffdir":null,"city":"Louisville","state_code":"CO","zip5":"80027","latitude":"39.9796194370000000","longitude":"-105.12964520300000","publicwifi":"N","url":null,"broadband_type_id":1}
{"id":null,"anchorname":"City Of Louisville","address":"749 Main Street Louisville Co 80027","bldgnbr":"749","predir":null,"streetname":"Main","streettype":"Street","suffdir":null,"city":"Louisville","state_code":"CO","zip5":"80027","latitude":"39.9775536430000000","longitude":"-105.13249603500000","publicwifi":"N","url":null,"broadband_type_id":6}
{"id":null,"anchorname":"Webster County Office of Emergency Services/ E-911","address":"210 Back Fork Street Webster Springs WV 26288","bldgnbr":"210","predir":null,"streetname":"Back Fork","streettype":"Street","suffdir":null,"city":"Webster Springs","state_code":"WV","zip5":"26288","latitude":"38.4797775650000000","longitude":"-80.411477896000000","publicwifi":"N","url":null,"broadband_type_id":6}
{"id":null,"anchorname":"Nevin Platt Middle School","address":"6096 Baseline Road Boulder Co 80303","bldgnbr":"6096","predir":null,"streetname":"Baseline","streettype":"Road","suffdir":null,"city":"Boulder","state_code":"CO","zip5":"80303","latitude":"40.0030896420000000","longitude":"-105.20974401600000","publicwifi":"N","url":null,"broadband_type_id":6}
{"id":null,"anchorname":"Cherryvale Fire Prot Dist Station 2","address":"847 Cherryvale Road Boulder Co 80303","bldgnbr":"847","predir":null,"streetname":"Cherryvale","streettype":"Road","suffdir":null,"city":"Boulder","state_code":"CO","zip5":"80303","latitude":"40.0041258410000000","longitude":"-105.21259498400000","publicwifi":"N","url":null,"broadband_type_id":5}
{"id":null,"anchorname":"Erie Elementary School","address":"4137 East County Line Road Erie Co 80516","bldgnbr":"4137","predir":"East","streetname":"County Line","streettype":"Road","suffdir":null,"city":"Erie","state_code":"CO","zip5":"80516","latitude":"40.0505890640000000","longitude":"-105.05581282500000","publicwifi":"N","url":null,"broadband_type_id":6}
{"id":null,"anchorname":"Mountain View Fire Prot Dist Station 5","address":"10911 Dobbins Run Lafayette Co 80026","bldgnbr":"10911","predir":null,"streetname":"Dobbins","streettype":"Run","suffdir":null,"city":"Lafayette","state_code":"CO","zip5":"80026","latitude":"40.0500000500000000","longitude":"-105.09755801700000","publicwifi":"N","url":null,"broadband_type_id":5}
{"id":null,"anchorname":"Angevine Middle School","address":"1150 South Boulder Road Lafayette Co 80026","bldgnbr":"1150","predir":"South","streetname":"Boulder","streettype":"Road","suffdir":null,"city":"Lafayette","state_code":"CO","zip5":"80026","latitude":"39.9886186760000000","longitude":"-105.10373289600000","publicwifi":"N","url":null,"broadband_type_id":6}
{"id":null,"anchorname":"Clinica Campesina Family Health Services Lafayette","address":"2000 West South Boulder Road Lafayette Co 80026","bldgnbr":"2000","predir":"West","streetname":"South Boulder","streettype":"Road","suffdir":null,"city":"Lafayette","state_code":"CO","zip5":"80026","latitude":"39.9873080350000000","longitude":"-105.11673903800000","publicwifi":"N","url":null,"broadband_type_id":3}
{"id":null,"anchorname":"Lafayette Elementary School","address":"101 North Bermont Avenue Lafayette Co 80026","bldgnbr":"101","predir":"North","streetname":"Bermont","streettype":"Avenue","suffdir":null,"city":"Lafayette","state_code":"CO","zip5":"80026","latitude":"39.9981302270000000","longitude":"-105.09591746000000","publicwifi":"N","url":null,"broadband_type_id":6}
{"id":null,"anchorname":"Pioneer Bilingual Elementary School","address":"101 East Baseline Road Lafayette Co 80026","bldgnbr":"101","predir":"East","streetname":"Baseline","streettype":"Road","suffdir":null,"city":"Lafayette","state_code":"CO","zip5":"80026","latitude":"40.0004300880000000","longitude":"-105.08946683900000","publicwifi":"N","url":null,"broadband_type_id":6}
{"id":null,"anchorname":"Lafayette Police Department Jail","address":"451 North 111th Street Lafayette Co 80026","bldgnbr":"451","predir":"North","streetname":"111th","streettype":"Street","suffdir":null,"city":"Lafayette","state_code":"CO","zip5":"80026","latitude":"40.0024089720000000","longitude":"-105.09431809300000","publicwifi":"N","url":null,"broadband_type_id":4}
{"id":null,"anchorname":"Lafayette Police Department","address":"451 North 111th Street Lafayette Co 80026","bldgnbr":"451","predir":"North","streetname":"111th","streettype":"Street","suffdir":null,"city":"Lafayette","state_code":"CO","zip5":"80026","latitude":"40.0024089320000000","longitude":"-105.09431809300000","publicwifi":"N","url":null,"broadband_type_id":4}
{"id":null,"anchorname":"Douglass Elementary School","address":"840 75th Street Boulder Co 80303","bldgnbr":"840","predir":null,"streetname":"75th","streettype":"Street","suffdir":null,"city":"Boulder","state_code":"CO","zip5":"80303","latitude":"40.0025680000000000","longitude":"-105.17796600000000","publicwifi":"N","url":null,"broadband_type_id":6}
{"id":null,"anchorname":"Cherryvale Fire Prot Dist Station 1","address":"7700 Baseline Road Boulder Co 80303","bldgnbr":"7700","predir":null,"streetname":"Baseline","streettype":"Road","suffdir":null,"city":"Boulder","state_code":"CO","zip5":"80303","latitude":"39.9999689920000000","longitude":"-105.17280703900000","publicwifi":"N","url":null,"broadband_type_id":5}
{"id":null,"anchorname":"Rocky Mountain Fire District","address":"7700 Baseline Road Boulder Co 80303","bldgnbr":"7700","predir":null,"streetname":"Baseline","streettype":"Road","suffdir":null,"city":"Boulder","state_code":"CO","zip5":"80303","latitude":"39.9999791250000000","longitude":"-105.17271706700000","publicwifi":"N","url":null,"broadband_type_id":5}
{"id":null,"anchorname":"Coal Creek Elementary School","address":"801 West Tamarisk Street Louisville Co 80027","bldgnbr":"801","predir":"West","streetname":"Tamarisk","streettype":"Street","suffdir":null,"city":"Louisville","state_code":"CO","zip5":"80027","latitude":"39.9829050480000000","longitude":"-105.15732468400000","publicwifi":"N","url":null,"broadband_type_id":6}
{"id":null,"anchorname":"Louisville Fire Protection District","address":"895 Via Appia Way Louisville Co 80027","bldgnbr":"895","predir":null,"streetname":"Via Appia","streettype":"Way","suffdir":null,"city":"Louisville","state_code":"CO","zip5":"80027","latitude":"39.9754262850000000","longitude":"-105.15955230000000","publicwifi":"N","url":null,"broadband_type_id":5}
{"id":null,"anchorname":"Louisville Fire Prot Dist Station 2","address":"895 Via Appia Way Louisville Co 80027","bldgnbr":"895","predir":null,"streetname":"Via Appia","streettype":"Way","suffdir":null,"city":"Louisville","state_code":"CO","zip5":"80027","latitude":"39.9754891860000000","longitude":"-105.15942527100000","publicwifi":"N","url":null,"broadband_type_id":5}
{"id":null,"anchorname":"Louisville Middle School","address":"1341 Main Street Louisville Co 80027","bldgnbr":"1341","predir":null,"streetname":"Main","streettype":"Street","suffdir":null,"city":"Louisville","state_code":"CO","zip5":"80027","latitude":"39.9840755310000000","longitude":"-105.13244701300000","publicwifi":"N","url":null,"broadband_type_id":6}
{"id":null,"anchorname":"Louisville Fire Prot Dist Station 1","address":"1240 Main Street Louisville Co 80027","bldgnbr":"1240","predir":null,"streetname":"Main","streettype":"Street","suffdir":null,"city":"Louisville","state_code":"CO","zip5":"80027","latitude":"39.9822987440000000","longitude":"-105.13179819200000","publicwifi":"N","url":null,"broadband_type_id":5}
{"id":null,"anchorname":"Louisville Public Library","address":"950 Spruce Street Louisville Co 80027","bldgnbr":"950","predir":null,"streetname":"Spruce","streettype":"Street","suffdir":null,"city":"Louisville","state_code":"CO","zip5":"80027","latitude":"39.9774405400000000","longitude":"-105.13182410000000","publicwifi":"N","url":null,"broadband_type_id":6}
{"id":null,"anchorname":"Louisville Elementary School","address":"400 Hutchinson Street Louisville Co 80027","bldgnbr":"400","predir":null,"streetname":"Hutchinson","streettype":"Street","suffdir":null,"city":"Louisville","state_code":"CO","zip5":"80027","latitude":"39.9751757920000000","longitude":"-105.13829866500000","publicwifi":"N","url":null,"broadband_type_id":6}
{"id":null,"anchorname":"Louisville Police Department Jail","address":"992 Via Appia Way Louisville Co 80027","bldgnbr":"992","predir":null,"streetname":"Via Appia","streettype":"Way","suffdir":null,"city":"Louisville","state_code":"CO","zip5":"80027","latitude":"39.9725889280000000","longitude":"-105.16326370100000","publicwifi":"N","url":null,"broadband_type_id":4}
{"id":null,"anchorname":"Louisville Police Department","address":"992 Via Appia Way Louisville Co 80027","bldgnbr":"992","predir":null,"streetname":"Via Appia","streettype":"Way","suffdir":null,"city":"Louisville","state_code":"CO","zip5":"80027","latitude":"39.9725889480000000","longitude":"-105.16326370100000","publicwifi":"N","url":null,"broadband_type_id":4}
{"id":null,"anchorname":"Fireside Elementary School","address":"845 West Dahlia Louisville Co 80027","bldgnbr":"845","predir":"West","streetname":"Dahlia","streettype":null,"suffdir":null,"city":"Louisville","state_code":"CO","zip5":"80027","latitude":"39.9691049660000000","longitude":"-105.15784766100000","publicwifi":"N","url":null,"broadband_type_id":6}
{"id":null,"anchorname":"Niwot High School","address":"8989 East Niwot Road Niwot Co 80503","bldgnbr":"8989","predir":"East","streetname":"Niwot","streettype":"Road","suffdir":null,"city":"Niwot","state_code":"CO","zip5":"80503","latitude":"40.1026468960000000","longitude":"-105.14437211200000","publicwifi":"N","url":null,"broadband_type_id":6}
{"id":null,"anchorname":"Niwot Elementary School","address":"8778 Morton Road Circle Niwot Co 80503","bldgnbr":"8778","predir":null,"streetname":"Morton Road","streettype":"Circle","suffdir":null,"city":"Niwot","state_code":"CO","zip5":"80503","latitude":"40.0996161350000000","longitude":"-105.14760890600000","publicwifi":"N","url":null,"broadband_type_id":6}
{"id":null,"anchorname":"Mountain View Fire Prot Dist Station 4","address":"8500 Niwot Road Longmont Co 80503","bldgnbr":"8500","predir":null,"streetname":"Niwot","streettype":"Road","suffdir":null,"city":"Longmont","state_code":"CO","zip5":"80503","latitude":"40.1012249550000000","longitude":"-105.15426043200000","publicwifi":"N","url":null,"broadband_type_id":5}
{"id":null,"anchorname":"Boulder County Sheriffs Office - Niwot Substation","address":"7960 Niwot Road Niwot Co 80503","bldgnbr":"7960","predir":null,"streetname":"Niwot","streettype":"Road","suffdir":null,"city":"Niwot","state_code":"CO","zip5":"80503","latitude":"40.1006581200000000","longitude":"-105.16789990000000","publicwifi":"N","url":null,"broadband_type_id":4}
{"id":null,"anchorname":"Longmont Public Library","address":"409 4th Avenue Longmont Co 80501","bldgnbr":"409","predir":null,"streetname":"4th","streettype":"Avenue","suffdir":null,"city":"Longmont","state_code":"CO","zip5":"80501","latitude":"40.1651750360000000","longitude":"-105.10082977400000","publicwifi":"N","url":null,"broadband_type_id":6}
{"id":null,"anchorname":"Families for Children Inc.","address":"2500 W. Manchester","bldgnbr":"2500","predir":null,"streetname":"W. Manchester","streettype":null,"suffdir":null,"city":"Inglewood","state_code":"CA","zip5":"90305","latitude":"33.9596750000000000","longitude":"-118.32120700000000","publicwifi":"U","url":null,"broadband_type_id":6}
{"id":null,"anchorname":"Crozier (George W.) Middle","address":"151 North Grevillea Avenue","bldgnbr":"151","predir":null,"streetname":"North Grevillea","streettype":null,"suffdir":null,"city":"Inglewood","state_code":"CA","zip5":"90301","latitude":"33.9637570000000000","longitude":"-118.35523000000000","publicwifi":"U","url":null,"broadband_type_id":6}
{"id":null,"anchorname":"City Of Longmont","address":"350 Kimbark Street Longmont Co 80501","bldgnbr":"350","predir":null,"streetname":"Kimbark","streettype":"Street","suffdir":null,"city":"Longmont","state_code":"CO","zip5":"80501","latitude":"40.1644069700000000","longitude":"-105.10063692800000","publicwifi":"N","url":null,"broadband_type_id":1}
{"id":null,"anchorname":"Flagstaff Charter Academy","address":"1841 Left Hand Circle Longmont Co 80501","bldgnbr":"1841","predir":null,"streetname":"Left Hand","streettype":"Circle","suffdir":null,"city":"Longmont","state_code":"CO","zip5":"80501","latitude":"40.1408696880000000","longitude":"-105.12734018400000","publicwifi":"N","url":null,"broadband_type_id":6}
{"id":null,"anchorname":"St Vrain Valley Re 1J","address":"395 South Pratt Parkway Longmont Co 80501","bldgnbr":"395","predir":"South","streetname":"Pratt","streettype":"Parkway","suffdir":null,"city":"Longmont","state_code":"CO","zip5":"80501","latitude":"40.1554180000000000","longitude":"-105.10700800000000","publicwifi":"N","url":null,"broadband_type_id":null}
{"id":null,"anchorname":"Twin Peaks Charter Academy","address":"340 South Sunset Street Longmont Co 80501","bldgnbr":"340","predir":"South","streetname":"Sunset","streettype":"Street","suffdir":null,"city":"Longmont","state_code":"CO","zip5":"80501","latitude":"40.1548366570000000","longitude":"-105.11994955200000","publicwifi":"N","url":null,"broadband_type_id":6}
{"id":null,"anchorname":"Twin Peaks Charter Academy-E","address":"340 South Sunset Street Longmont Co 80501","bldgnbr":"340","predir":"South","streetname":"Sunset","streettype":"Street","suffdir":null,"city":"Longmont","state_code":"CO","zip5":"80501","latitude":"40.1548358100000000","longitude":"-105.12009238900000","publicwifi":"N","url":null,"broadband_type_id":6}
{"id":null,"anchorname":"Wkfc Boulder Cty - Longmont","address":"1500 Kansas Avenue Longmont Co 80501","bldgnbr":"1500","predir":null,"streetname":"Kansas","streettype":"Avenue","suffdir":null,"city":"Longmont","state_code":"CO","zip5":"80501","latitude":"40.1474376590000000","longitude":"-105.11893292100000","publicwifi":"N","url":null,"broadband_type_id":null}
{"id":null,"anchorname":"Applewood Living Center","address":"1800 Stroh Place Longmont Co 80501","bldgnbr":"1800","predir":null,"streetname":"Stroh","streettype":"Place","suffdir":null,"city":"Longmont","state_code":"CO","zip5":"80501","latitude":"40.1826752790000000","longitude":"-105.12187527900000","publicwifi":"N","url":null,"broadband_type_id":null}
{"id":null,"anchorname":"Longmont Fire Dept Station 2","address":"2300 Mountain View Avenue Longmont Co 80503","bldgnbr":"2300","predir":null,"streetname":"Mountain View","streettype":"Avenue","suffdir":null,"city":"Longmont","state_code":"CO","zip5":"80503","latitude":"40.1812221790000000","longitude":"-105.13147208300000","publicwifi":"N","url":null,"broadband_type_id":5}
{"id":null,"anchorname":"Longmont Estates Elementary School","address":"1601 Northwestern Road Longmont Co 80503","bldgnbr":"1601","predir":null,"streetname":"Northwestern","streettype":"Road","suffdir":null,"city":"Longmont","state_code":"CO","zip5":"80503","latitude":"40.1855165640000000","longitude":"-105.14762987900000","publicwifi":"N","url":null,"broadband_type_id":6}
{"id":null,"anchorname":"Longmont Fire Dept Station 1","address":"501 South Pratt Parkway Longmont Co 80501","bldgnbr":"501","predir":"South","streetname":"Pratt","streettype":"Parkway","suffdir":null,"city":"Longmont","state_code":"CO","zip5":"80501","latitude":"40.1531050380000000","longitude":"-105.10749709400000","publicwifi":"N","url":null,"broadband_type_id":5}
{"id":null,"anchorname":"Burlington Elementary School","address":"450 11th Street Burlington Co 80807","bldgnbr":"450","predir":null,"streetname":"11th","streettype":"Street","suffdir":null,"city":"Burlington","state_code":"CO","zip5":"80807","latitude":"40.1463366120000000","longitude":"-105.10822696800000","publicwifi":"N","url":null,"broadband_type_id":6}
{"id":null,"anchorname":"Mental Health Center - Boulder/Broomfield Counties - Summit","address":"834 S Sherman Street Longmont Co 80501","bldgnbr":"834","predir":"South","streetname":"Sherman","streettype":"Street","suffdir":null,"city":"Longmont","state_code":"CO","zip5":"80501","latitude":"40.1490698740000000","longitude":"-105.11524139800000","publicwifi":"N","url":null,"broadband_type_id":3}
{"id":null,"anchorname":"Olde Columbine High School","address":"1200 South Sunset Longmont Co 80501","bldgnbr":"1200","predir":"South","streetname":"Sunset","streettype":null,"suffdir":null,"city":"Longmont","state_code":"CO","zip5":"80501","latitude":"40.1461975730000000","longitude":"-105.12048288600000","publicwifi":"N","url":null,"broadband_type_id":6}
{"id":null,"anchorname":"Indian Peaks Elementary School","address":"1335 South Judson Longmont Co 80501","bldgnbr":"1335","predir":"South","streetname":"Judson","streettype":null,"suffdir":null,"city":"Longmont","state_code":"CO","zip5":"80501","latitude":"40.1430931990000000","longitude":"-105.11777720700000","publicwifi":"N","url":null,"broadband_type_id":6}
{"id":null,"anchorname":"Sunset Middle School","address":"1300 South Sunset Longmont Co 80501","bldgnbr":"1300","predir":"South","streetname":"Sunset","streettype":null,"suffdir":null,"city":"Longmont","state_code":"CO","zip5":"80501","latitude":"40.1442319550000000","longitude":"-105.12039149400000","publicwifi":"N","url":null,"broadband_type_id":6}
{"id":null,"anchorname":"Mountain View Fire Protection District","address":"9119 East County Line Road Longmont Co 80501","bldgnbr":"9119","predir":"East","streetname":"County Line","streettype":"Road","suffdir":null,"city":"Longmont","state_code":"CO","zip5":"80501","latitude":"40.1396445160000000","longitude":"-105.05592491900000","publicwifi":"N","url":null,"broadband_type_id":5}
{"id":null,"anchorname":"Mountain View Fire Prot Dist Station 1","address":"9119 East County Line Road Longmont Co 80501","bldgnbr":"9119","predir":"East","streetname":"County Line","streettype":"Road","suffdir":null,"city":"Longmont","state_code":"CO","zip5":"80501","latitude":"40.1397382550000000","longitude":"-105.05592653100000","publicwifi":"N","url":null,"broadband_type_id":5}
{"id":null,"anchorname":"Longmont Fire Dept Station 5","address":"617 Barberry Drive Longmont Co 80503","bldgnbr":"617","predir":null,"streetname":"Barberry","streettype":"Drive","suffdir":null,"city":"Longmont","state_code":"CO","zip5":"80503","latitude":"40.1516719690000000","longitude":"-105.15253598600000","publicwifi":"N","url":null,"broadband_type_id":5}
{"id":null,"anchorname":"Altona Middle School","address":"4600 Clover Basin Drive Longmont Co 80503","bldgnbr":"4600","predir":null,"streetname":"Clover Basin","streettype":"Drive","suffdir":null,"city":"Longmont","state_code":"CO","zip5":"80503","latitude":"40.1446783610000000","longitude":"-105.16250223200000","publicwifi":"N","url":null,"broadband_type_id":6}
{"id":null,"anchorname":"Altona Middle School-E","address":"4600 Clover Basin Drive Longmont Co 80503","bldgnbr":"4600","predir":null,"streetname":"Clover Basin","streettype":"Drive","suffdir":null,"city":"Longmont","state_code":"CO","zip5":"80503","latitude":"40.1446950910000000","longitude":"-105.16269938600000","publicwifi":"N","url":null,"broadband_type_id":6}
{"id":null,"anchorname":"Eagle Crest Elementary School","address":"4444 Clover Basin Drive Longmont Co 80503","bldgnbr":"4444","predir":null,"streetname":"Clover Basin","streettype":"Drive","suffdir":null,"city":"Longmont","state_code":"CO","zip5":"80503","latitude":"40.1441331250000000","longitude":"-105.16047162900000","publicwifi":"N","url":null,"broadband_type_id":6}
{"id":null,"anchorname":"Westview Middle School","address":"1651 Airport Road Longmont Co 80503","bldgnbr":"1651","predir":null,"streetname":"Airport","streettype":"Road","suffdir":null,"city":"Longmont","state_code":"CO","zip5":"80503","latitude":"40.1859584850000000","longitude":"-105.15611333700000","publicwifi":"N","url":null,"broadband_type_id":6}
{"id":null,"anchorname":"Silver Creek High School","address":"4901 Nelson Road Longmont Co 80503","bldgnbr":"4901","predir":null,"streetname":"Nelson","streettype":"Road","suffdir":null,"city":"Longmont","state_code":"CO","zip5":"80503","latitude":"40.1512444620000000","longitude":"-105.16695756300000","publicwifi":"N","url":null,"broadband_type_id":6}
{"id":null,"anchorname":"Longmont Wic Clinic","address":"529 Coffman Street Longmont Co 80501","bldgnbr":"529","predir":null,"streetname":"Coffman","streettype":"Street","suffdir":null,"city":"Longmont","state_code":"CO","zip5":"80501","latitude":"40.1688605860000000","longitude":"-105.10421124800000","publicwifi":"N","url":null,"broadband_type_id":3}
{"id":null,"anchorname":"Mental Health Center - Boulder/Broomfield Counties - Longmont","address":"529 Coffman Street Longmont Co 80501","bldgnbr":"529","predir":null,"streetname":"Coffman","streettype":"Street","suffdir":null,"city":"Longmont","state_code":"CO","zip5":"80501","latitude":"40.1688605850000000","longitude":"-105.10421128900000","publicwifi":"N","url":null,"broadband_type_id":3}
{"id":null,"anchorname":"Central Elementary School","address":"1020 4th Avenue Longmont Co 80501","bldgnbr":"1020","predir":null,"streetname":"4th","streettype":"Avenue","suffdir":null,"city":"Longmont","state_code":"CO","zip5":"80501","latitude":"40.1661945360000000","longitude":"-105.10917737000000","publicwifi":"N","url":null,"broadband_type_id":6}
{"id":null,"anchorname":"Sanborn Elementary School","address":"2235 Vivian Street Longmont Co 80501","bldgnbr":"2235","predir":null,"streetname":"Vivian","streettype":"Street","suffdir":null,"city":"Longmont","state_code":"CO","zip5":"80501","latitude":"40.1992838120000000","longitude":"-105.11967431600000","publicwifi":"N","url":null,"broadband_type_id":6}
{"id":null,"anchorname":"Life Care Center Of Longmont","address":"2451 Pratt Street Longmont Co 80501","bldgnbr":"2451","predir":null,"streetname":"Pratt","streettype":"Street","suffdir":null,"city":"Longmont","state_code":"CO","zip5":"80501","latitude":"40.2026321600000000","longitude":"-105.10717661500000","publicwifi":"N","url":null,"broadband_type_id":3}
{"id":null,"anchorname":"Northridge Elementary School","address":"1200 19th Avenue Longmont Co 80501","bldgnbr":"1200","predir":null,"streetname":"19th","streettype":"Avenue","suffdir":null,"city":"Longmont","state_code":"CO","zip5":"80501","latitude":"40.1937989870000000","longitude":"-105.10946375700000","publicwifi":"N","url":null,"broadband_type_id":6}
{"id":null,"anchorname":"Longs Peak Middle School","address":"1500 14th Avenue West Longmont Co 80501","bldgnbr":"1500","predir":null,"streetname":"14th","streettype":"Avenue","suffdir":"West","city":"Longmont","state_code":"CO","zip5":"80501","latitude":"40.1840980250000000","longitude":"-105.11795296300000","publicwifi":"N","url":null,"broadband_type_id":6}
{"id":null,"anchorname":"Longmont United Hospital T C U","address":"1950 Mountain View Ave Longmont Co 80501","bldgnbr":"1950","predir":null,"streetname":"Mountain View","streettype":"Avenue","suffdir":null,"city":"Longmont","state_code":"CO","zip5":"80501","latitude":"40.1816670130000000","longitude":"-105.12530691900000","publicwifi":"N","url":null,"broadband_type_id":3}
{"id":null,"anchorname":"Longmont High School","address":"1040 Sunset Street Longmont Co 80501","bldgnbr":"1040","predir":null,"streetname":"Sunset","streettype":"Street","suffdir":null,"city":"Longmont","state_code":"CO","zip5":"80501","latitude":"40.1764256160000000","longitude":"-105.12004848300000","publicwifi":"N","url":null,"broadband_type_id":6}
{"id":null,"anchorname":"Mountain View Elementary School","address":"1415 14th Street Longmont Co 80501","bldgnbr":"1415","predir":null,"streetname":"14th","streettype":"Street","suffdir":null,"city":"Longmont","state_code":"CO","zip5":"80501","latitude":"40.1830470870000000","longitude":"-105.11560713000000","publicwifi":"N","url":null,"broadband_type_id":6}
{"id":null,"anchorname":"Longmont Emergency Communications Center","address":"225 Kimbark Street Longmont Co 80501","bldgnbr":"225","predir":null,"streetname":"Kimbark","streettype":"Street","suffdir":null,"city":"Longmont","state_code":"CO","zip5":"80501","latitude":"40.1631458060000000","longitude":"-105.10111136100000","publicwifi":"N","url":null,"broadband_type_id":null}
{"id":null,"anchorname":"New City Parish, Inc/Chapel of Peace Lutheran Church","address":"1009 N. Market Street","bldgnbr":"1009","predir":null,"streetname":"N. Market","streettype":null,"suffdir":null,"city":"Inglewood","state_code":"CA","zip5":"90302","latitude":"33.9768640000000000","longitude":"-118.35689000000000","publicwifi":"U","url":null,"broadband_type_id":6}
{"id":null,"anchorname":"Payne (Beulah) Elementary","address":"215 West 94th Street","bldgnbr":"215","predir":null,"streetname":"West 94th","streettype":null,"suffdir":null,"city":"Inglewood","state_code":"CA","zip5":"90301","latitude":"33.9509240000000000","longitude":"-118.35740000000000","publicwifi":"U","url":null,"broadband_type_id":6}
{"id":null,"anchorname":"Lennox Middle","address":"11033 Buford Avenue","bldgnbr":"11033","predir":null,"streetname":"Buford Avenue","streettype":null,"suffdir":null,"city":"Lennox","state_code":"CA","zip5":"90304","latitude":"33.9354190000000000","longitude":"-118.36352000000000","publicwifi":"U","url":null,"broadband_type_id":6}
{"id":null,"anchorname":"Dolores Huerta Elementary","address":"4125 West 105th Street","bldgnbr":"4125","predir":null,"streetname":"West 105th","streettype":null,"suffdir":null,"city":"Lennox","state_code":"CA","zip5":"90304","latitude":"33.9409730000000000","longitude":"-118.34959000000000","publicwifi":"U","url":null,"broadband_type_id":6}
{"id":null,"anchorname":"Town Of Lyons","address":"432 5th Avenue Lyons Co 80540","bldgnbr":"432","predir":null,"streetname":"5th","streettype":"Avenue","suffdir":null,"city":"Lyons","state_code":"CO","zip5":"80540","latitude":"40.2234319500000000","longitude":"-105.27139379300000","publicwifi":"N","url":null,"broadband_type_id":null}
{"id":null,"anchorname":"Longmont Police Department","address":"225 Kimbark Street Longmont Co 80501","bldgnbr":"225","predir":null,"streetname":"Kimbark","streettype":"Street","suffdir":null,"city":"Longmont","state_code":"CO","zip5":"80501","latitude":"40.1631381710000000","longitude":"-105.10114624400000","publicwifi":"N","url":null,"broadband_type_id":4}
{"id":null,"anchorname":"Longmont Fire Department","address":"225 Kimbark Street Longmont Co 80501","bldgnbr":"225","predir":null,"streetname":"Kimbark","streettype":"Street","suffdir":null,"city":"Longmont","state_code":"CO","zip5":"80501","latitude":"40.1634487970000000","longitude":"-105.10117564300000","publicwifi":"N","url":null,"broadband_type_id":5}
{"id":null,"anchorname":"Longmont Police Department Jail","address":"225 Kimbark Street Longmont Co 80501","bldgnbr":"225","predir":null,"streetname":"Kimbark","streettype":"Street","suffdir":null,"city":"Longmont","state_code":"CO","zip5":"80501","latitude":"40.1631358020000000","longitude":"-105.10118907500000","publicwifi":"N","url":null,"broadband_type_id":4}
{"id":null,"anchorname":"Columbine Elementary School","address":"111 Longs Peak Avenue Longmont Co 80501","bldgnbr":"111","predir":null,"streetname":"Longs Peak","streettype":"Avenue","suffdir":null,"city":"Longmont","state_code":"CO","zip5":"80501","latitude":"40.1703764980000000","longitude":"-105.09533870600000","publicwifi":"N","url":null,"broadband_type_id":6}
{"id":null,"anchorname":"Salud Family Health Center-Longmont","address":"220 East Rogers Road Longmont Co 80501","bldgnbr":"220","predir":"East","streetname":"Rogers","streettype":"Road","suffdir":null,"city":"Longmont","state_code":"CO","zip5":"80501","latitude":"40.1628404010000000","longitude":"-105.08678563600000","publicwifi":"N","url":null,"broadband_type_id":3}
{"id":null,"anchorname":"Rocky Mountain Elementary School","address":"800 East 5th Longmont Co 80501","bldgnbr":"800","predir":"East","streetname":"5th","streettype":null,"suffdir":null,"city":"Longmont","state_code":"CO","zip5":"80501","latitude":"40.1679069670000000","longitude":"-105.07800386800000","publicwifi":"N","url":null,"broadband_type_id":6}
{"id":null,"anchorname":"Spangler Elementary School","address":"1440 Collyer Street Longmont Co 80501","bldgnbr":"1440","predir":null,"streetname":"Collyer","streettype":"Street","suffdir":null,"city":"Longmont","state_code":"CO","zip5":"80501","latitude":"40.1845856070000000","longitude":"-105.09702832100000","publicwifi":"N","url":null,"broadband_type_id":6}
{"id":null,"anchorname":"Longmont Fire Dept Station 4","address":"501 23rd Avenue Longmont Co 80501","bldgnbr":"501","predir":null,"streetname":"23rd","streettype":"Avenue","suffdir":null,"city":"Longmont","state_code":"CO","zip5":"80501","latitude":"40.1992719450000000","longitude":"-105.10110646300000","publicwifi":"N","url":null,"broadband_type_id":5}
{"id":null,"anchorname":"Alpine Elementary School","address":"2005 Alpine Street Longmont Co 80501","bldgnbr":"2005","predir":null,"streetname":"Alpine","streettype":"Street","suffdir":null,"city":"Longmont","state_code":"CO","zip5":"80501","latitude":"40.1936623730000000","longitude":"-105.08662813500000","publicwifi":"N","url":null,"broadband_type_id":6}
{"id":null,"anchorname":"Heritage Middle School","address":"233 East Mountain View Road Longmont Co 80501","bldgnbr":"233","predir":"East","streetname":"Mountain View","streettype":"Road","suffdir":null,"city":"Longmont","state_code":"CO","zip5":"80501","latitude":"40.1808028480000000","longitude":"-105.08660255600000","publicwifi":"N","url":null,"broadband_type_id":6}
{"id":null,"anchorname":"Loma Linda Elementary School","address":"333 East Mountain View Road Longmont Co 80501","bldgnbr":"333","predir":"East","streetname":"Mountain View","streettype":"Road","suffdir":null,"city":"Longmont","state_code":"CO","zip5":"80501","latitude":"40.1810455710000000","longitude":"-105.08451470600000","publicwifi":"N","url":null,"broadband_type_id":6}
{"id":null,"anchorname":"Longmont Fire Dept Station 3","address":"1000 Pace Street Longmont Co 80501","bldgnbr":"1000","predir":null,"streetname":"Pace","streettype":"Street","suffdir":null,"city":"Longmont","state_code":"CO","zip5":"80501","latitude":"40.1750217000000000","longitude":"-105.08790210000000","publicwifi":"N","url":null,"broadband_type_id":5}
{"id":null,"anchorname":"Trail Ridge Middle School","address":"1000 Button Rock Drive Longmont Co 80501","bldgnbr":"1000","predir":null,"streetname":"Button Rock","streettype":"Drive","suffdir":null,"city":"Longmont","state_code":"CO","zip5":"80501","latitude":"40.1771393270000000","longitude":"-105.05823830900000","publicwifi":"N","url":null,"broadband_type_id":6}
{"id":null,"anchorname":"Fall River Elementary School","address":"1400 Deerwood Drive Longmont Co 80501","bldgnbr":"1400","predir":null,"streetname":"Deerwood","streettype":"Drive","suffdir":null,"city":"Longmont","state_code":"CO","zip5":"80501","latitude":"40.1840363150000000","longitude":"-105.06320789700000","publicwifi":"N","url":null,"broadband_type_id":6}
{"id":null,"anchorname":"Lyons Middle/Senior High School","address":"100 South 2nd Avenue Lyons Co 80540","bldgnbr":"100","predir":"South","streetname":"2nd","streettype":"Avenue","suffdir":null,"city":"Lyons","state_code":"CO","zip5":"80540","latitude":"40.2144309370000000","longitude":"-105.26451410000000","publicwifi":"N","url":null,"broadband_type_id":6}
{"id":null,"anchorname":"Lyons Middle/Senior High School-M","address":"100 South 2nd Avenue Lyons Co 80540","bldgnbr":"100","predir":"South","streetname":"2nd","streettype":"Avenue","suffdir":null,"city":"Lyons","state_code":"CO","zip5":"80540","latitude":"40.2149431210000000","longitude":"-105.26443781100000","publicwifi":"N","url":null,"broadband_type_id":6}
{"id":null,"anchorname":"Lefthand Fire Protection Dist Central Station","address":"100 Lefthand Canyon Drive Boulder Co 80302","bldgnbr":"100","predir":null,"streetname":"Lefthand Canyon","streettype":"Drive","suffdir":null,"city":"Boulder","state_code":"CO","zip5":"80302","latitude":"40.1314965150000000","longitude":"-105.29951006600000","publicwifi":"N","url":null,"broadband_type_id":5}
{"id":null,"anchorname":"Lyons Elementary School","address":"338 High Street Lyons Co 80540","bldgnbr":"338","predir":null,"streetname":"High","streettype":"Street","suffdir":null,"city":"Lyons","state_code":"CO","zip5":"80540","latitude":"40.2258280450000000","longitude":"-105.26889096600000","publicwifi":"N","url":null,"broadband_type_id":6}
{"id":null,"anchorname":"Lyons Fire Protection District","address":"251 Broadway Lyons Co 80540","bldgnbr":"251","predir":null,"streetname":"Broadway","streettype":null,"suffdir":null,"city":"Lyons","state_code":"CO","zip5":"80540","latitude":"40.2235880760000000","longitude":"-105.26695714500000","publicwifi":"N","url":null,"broadband_type_id":5}
{"id":null,"anchorname":"Lyons Fire Prot Dist Station 1","address":"251 Broadway Lyons Co 80540","bldgnbr":"251","predir":null,"streetname":"Broadway","streettype":null,"suffdir":null,"city":"Lyons","state_code":"CO","zip5":"80540","latitude":"40.2235416590000000","longitude":"-105.26691142200000","publicwifi":"N","url":null,"broadband_type_id":5}
{"id":null,"anchorname":"Boulder County Sheriffs Office - Lyons Substation","address":"432 5th Avenue Lyons Co 80540","bldgnbr":"432","predir":null,"streetname":"5th","streettype":"Avenue","suffdir":null,"city":"Lyons","state_code":"CO","zip5":"80540","latitude":"40.2233932570000000","longitude":"-105.27139345800000","publicwifi":"N","url":null,"broadband_type_id":4}
{"id":null,"anchorname":"Lyons Depot Library","address":"432 5th Avenue Lyons Co 80540","bldgnbr":"430","predir":null,"streetname":"5th","streettype":"Avenue","suffdir":null,"city":"Lyons","state_code":"CO","zip5":"80540","latitude":"40.2233531200000000","longitude":"-105.27139465000000","publicwifi":"N","url":null,"broadband_type_id":6}
{"id":null,"anchorname":"Allenspark Fire Prot Dist Meeker Station","address":"11733 Highway 7 Allenspark Co 80510","bldgnbr":"11733","predir":null,"streetname":"7","streettype":null,"suffdir":null,"city":"Allenspark","state_code":"CO","zip5":"80510","latitude":"40.2343823000000000","longitude":"-105.53005080000000","publicwifi":"N","url":null,"broadband_type_id":5}
{"id":null,"anchorname":"Allenspark Fire Prot Dist Main Station","address":"14861 Highway 7  Allenspark Co 80510","bldgnbr":"14861","predir":null,"streetname":"7","streettype":null,"suffdir":null,"city":"Allenspark","state_code":"CO","zip5":"80510","latitude":"40.1966314000000000","longitude":"-105.52762580000000","publicwifi":"N","url":null,"broadband_type_id":5}
{"id":null,"anchorname":"Allenspark Fire Prot Dist Raymond Station","address":"2203 Riverside Drive Lyons Co 80540","bldgnbr":"2203","predir":null,"streetname":"Riverside","streettype":"Drive","suffdir":null,"city":"Lyons","state_code":"CO","zip5":"80540","latitude":"40.1598592000000000","longitude":"-105.45631120000000","publicwifi":"N","url":null,"broadband_type_id":5}
{"id":null,"anchorname":"Lefthand Fire Protection Dist Station 3","address":"216 Lefthand Canyon Drive Boulder Co 80302","bldgnbr":"216","predir":null,"streetname":"Lefthand Canyon","streettype":"Drive","suffdir":null,"city":"Boulder","state_code":"CO","zip5":"80302","latitude":"40.1324909000000000","longitude":"-105.28888450000000","publicwifi":"N","url":null,"broadband_type_id":5}
{"id":null,"anchorname":"Lefthand Fire Protection Dist Station 4","address":"7300 Lefthand Canyon Drive Boulder Co 80302","bldgnbr":"7300","predir":null,"streetname":"Lefthand Canyon","streettype":"Drive","suffdir":null,"city":"Boulder","state_code":"CO","zip5":"80302","latitude":"40.0903513000000000","longitude":"-105.35628380000000","publicwifi":"N","url":null,"broadband_type_id":5}
{"id":null,"anchorname":"Yorktown University","address":"725 Timber Lane Boulder Co 80304","bldgnbr":"725","predir":null,"streetname":"Timber","streettype":"Lane","suffdir":null,"city":"Boulder","state_code":"CO","zip5":"80304","latitude":"40.0456562160000000","longitude":"-105.30928806800000","publicwifi":"N","url":null,"broadband_type_id":6}
{"id":null,"anchorname":"Four Mile Fire Dept Station 2","address":"546 Gold Run Road Boulder Co 80302","bldgnbr":"546","predir":null,"streetname":"Gold Run","streettype":"Road","suffdir":null,"city":"Boulder","state_code":"CO","zip5":"80302","latitude":"40.0541609200000000","longitude":"-105.37812705800000","publicwifi":"N","url":null,"broadband_type_id":5}
{"id":null,"anchorname":"Sunshine Fire Protection District Station #1","address":"311 County Road 83 Boulder Co 80302","bldgnbr":"311","predir":null,"streetname":"83","streettype":null,"suffdir":null,"city":"Boulder","state_code":"CO","zip5":"80302","latitude":"40.0610904000000000","longitude":"-105.36404220000000","publicwifi":"N","url":null,"broadband_type_id":5}
{"id":null,"anchorname":"Sunshine Fire Prot Dist","address":"5000 Sunshine Canyon Drive Boulder Co 80302","bldgnbr":"5000","predir":null,"streetname":"Sunshine Canyon","streettype":"Drive","suffdir":null,"city":"Boulder","state_code":"CO","zip5":"80302","latitude":"40.0484372650000000","longitude":"-105.33773932600000","publicwifi":"N","url":null,"broadband_type_id":5}
{"id":null,"anchorname":"Inglewood Continuation High","address":"10500 South Yukon Avenue","bldgnbr":"10500","predir":null,"streetname":"South Yukon","streettype":null,"suffdir":null,"city":"Inglewood","state_code":"CA","zip5":"90302","latitude":"33.9415190000000000","longitude":"-118.33516000000000","publicwifi":"U","url":"www.iusd.net","broadband_type_id":6}
{"id":null,"anchorname":"St. Joseph Elementary","address":"11886 Acacia Avenue","bldgnbr":"11886","predir":null,"streetname":"Acacia Avenue","streettype":null,"suffdir":null,"city":"Hawthorne","state_code":"CA","zip5":"90250","latitude":"33.9257229200000000","longitude":"-118.35135001300000","publicwifi":"U","url":null,"broadband_type_id":6}
{"id":null,"anchorname":"SHIELDS for Families - Vocational Services Center (VSC)","address":"11601 S. Western Av.","bldgnbr":"11601","predir":null,"streetname":"S. Western","streettype":null,"suffdir":null,"city":"Los Angeles","state_code":"CA","zip5":"90047","latitude":"33.9274020000000000","longitude":"-118.30912200000000","publicwifi":"U","url":null,"broadband_type_id":6}
{"id":null,"anchorname":"Wetzel County Center for Children \u0026 Families","address":"2213 Mountaineer Highway New Martinsville WV 26155","bldgnbr":"2213","predir":null,"streetname":"Mountaineer","streettype":"Highway","suffdir":null,"city":"New Martinsville","state_code":"WV","zip5":"26155","latitude":"39.6148767200000000","longitude":"-80.841973184000000","publicwifi":"Y","url":"http://www.edline.net/pages/Wetzel_County_School_District/Schools/Wetzel_County_Center_For_Child","broadband_type_id":6}
{"id":null,"anchorname":"Town Of Ward","address":"1 Columbia Street Ward Co 80481","bldgnbr":"1","predir":null,"streetname":"Columbia","streettype":"Street","suffdir":null,"city":"Ward","state_code":"CO","zip5":"80481","latitude":"40.0717005930000000","longitude":"-105.50830404000000","publicwifi":"N","url":null,"broadband_type_id":null}
{"id":null,"anchorname":"Coal Creek Canyon Fd Station 2","address":"32895 Hwy 72 Golden Co 80403","bldgnbr":"32895","predir":null,"streetname":"72","streettype":null,"suffdir":null,"city":"Golden","state_code":"CO","zip5":"80403","latitude":"39.9246602620000000","longitude":"-105.38501716800000","publicwifi":"N","url":null,"broadband_type_id":null}
{"id":null,"anchorname":"Town Of Nederland","address":"45 West 1st Street Nederland Co 80466","bldgnbr":"45","predir":"West","streetname":"1st","streettype":"Street","suffdir":null,"city":"Nederland","state_code":"CO","zip5":"80466","latitude":"39.9620337100000000","longitude":"-105.51082014100000","publicwifi":"N","url":null,"broadband_type_id":null}
{"id":null,"anchorname":"Town Of Superior","address":"124 East Coal Creek Drive Superior Co 80027","bldgnbr":"124","predir":"East","streetname":"Coal Creek","streettype":"Drive","suffdir":null,"city":"Superior","state_code":"CO","zip5":"80027","latitude":"39.9537020160000000","longitude":"-105.16652088600000","publicwifi":"N","url":null,"broadband_type_id":null}
{"id":null,"anchorname":"Indian Peaks Fire Prot Dist Station 1","address":"10 Utica Street Ward Co 80481","bldgnbr":"10","predir":null,"streetname":"Utica","streettype":"Street","suffdir":null,"city":"Ward","state_code":"CO","zip5":"80481","latitude":"40.0774660000000000","longitude":"-105.50194620000000","publicwifi":"N","url":null,"broadband_type_id":5}
{"id":null,"anchorname":"Gold Hill Elementary School","address":"890 Main Street Gold Hill Co 80302","bldgnbr":"890","predir":null,"streetname":"Main","streettype":"Street","suffdir":null,"city":"Gold Hill","state_code":"CO","zip5":"80302","latitude":"40.0630468980000000","longitude":"-105.41243754000000","publicwifi":"N","url":null,"broadband_type_id":6}
{"id":null,"anchorname":"Four Mile Fire Deptpartment Station 1","address":"9 Logan Mill Road Boulder Co 80302","bldgnbr":"9","predir":null,"streetname":"Logan Mill","streettype":"Road","suffdir":null,"city":"Boulder","state_code":"CO","zip5":"80302","latitude":"40.0422961470000000","longitude":"-105.36524939100000","publicwifi":"N","url":null,"broadband_type_id":5}
{"id":null,"anchorname":"Four Mile Fire Dept Station 3","address":"5901 Fourmile Canyon Drive Boulder Co 80302","bldgnbr":"5901","predir":null,"streetname":"Fourmile Canyon","streettype":"Drive","suffdir":null,"city":"Boulder","state_code":"CO","zip5":"80302","latitude":"40.0412536080000000","longitude":"-105.38350361500000","publicwifi":"N","url":null,"broadband_type_id":5}
{"id":null,"anchorname":"Four Mile Fire Dept Station 4","address":"91 Fourmile Canyon Drive Boulder Co 80302","bldgnbr":"91","predir":null,"streetname":"Fourmile Canyon","streettype":"Drive","suffdir":null,"city":"Boulder","state_code":"CO","zip5":"80302","latitude":"40.0169138000000000","longitude":"-105.32526220000000","publicwifi":"N","url":null,"broadband_type_id":5}
{"id":null,"anchorname":"Sugarloaf Fire Prot Dist Station 2","address":"1360 Sugarloaf Road Boulder Co 80302","bldgnbr":"1360","predir":null,"streetname":"Sugarloaf","streettype":"Road","suffdir":null,"city":"Boulder","state_code":"CO","zip5":"80302","latitude":"40.0170235000000000","longitude":"-105.35679200000000","publicwifi":"N","url":null,"broadband_type_id":5}
{"id":null,"anchorname":"Sugarloaf Fire Prot Dist Station 3","address":"8200 Sugarloaf Road Boulder Co 80302","bldgnbr":"8200","predir":null,"streetname":"Sugarloaf","streettype":"Road","suffdir":null,"city":"Boulder","state_code":"CO","zip5":"80302","latitude":"40.0042922040000000","longitude":"-105.46476367900000","publicwifi":"N","url":null,"broadband_type_id":5}
{"id":null,"anchorname":"Sugarloaf Fire Prot Dist Station 1","address":"1677 Lost Angel Road Boulder Co 80302","bldgnbr":"1677","predir":null,"streetname":"Lost Angel","streettype":"Road","suffdir":null,"city":"Boulder","state_code":"CO","zip5":"80302","latitude":"40.0190258950000000","longitude":"-105.40493638100000","publicwifi":"N","url":null,"broadband_type_id":5}
{"id":null,"anchorname":"Nederland Fire Dept Station 2","address":"2815 Ridge Road Nederland Co 80466","bldgnbr":"2815","predir":null,"streetname":"Ridge","streettype":"Road","suffdir":null,"city":"Nederland","state_code":"CO","zip5":"80466","latitude":"39.9813076730000000","longitude":"-105.46445603000000","publicwifi":"N","url":null,"broadband_type_id":5}
{"id":null,"anchorname":"Cherryvale Fire Prot Dist Station 4","address":"5648 Flagstaff Road Boulder Co 80302","bldgnbr":"5648","predir":null,"streetname":"Flagstaff","streettype":"Road","suffdir":null,"city":"Boulder","state_code":"CO","zip5":"80302","latitude":"39.9787102510000000","longitude":"-105.33383119900000","publicwifi":"N","url":null,"broadband_type_id":5}
{"id":null,"anchorname":"High Country Fire Prot Dist Station 4","address":"5927 Magnolia Drive Nederland Co 80466","bldgnbr":"5927","predir":null,"streetname":"Magnolia","streettype":"Drive","suffdir":null,"city":"Nederland","state_code":"CO","zip5":"80466","latitude":"39.9768202570000000","longitude":"-105.41719823700000","publicwifi":"N","url":null,"broadband_type_id":5}
{"id":null,"anchorname":"High Country Fire Protection District Station 1","address":"3992 Highway 72 Nederland Co 80466","bldgnbr":"3992","predir":null,"streetname":"72","streettype":null,"suffdir":null,"city":"Nederland","state_code":"CO","zip5":"80466","latitude":"39.9388592160000000","longitude":"-105.44060975100000","publicwifi":"N","url":null,"broadband_type_id":5}
{"id":null,"anchorname":"Nederland Police Department","address":"20 Lakeview Drive Nederland Co 80466","bldgnbr":"20","predir":null,"streetname":"Lakeview","streettype":"Drive","suffdir":null,"city":"Nederland","state_code":"CO","zip5":"80466","latitude":"39.9598277870000000","longitude":"-105.50923952500000","publicwifi":"N","url":null,"broadband_type_id":4}
{"id":null,"anchorname":"Boulder County Sheriffs Office - Nederland Substation","address":"20 Lakeview Drive Nederland Co 80466","bldgnbr":"20","predir":null,"streetname":"Lakeview","streettype":"Drive","suffdir":null,"city":"Nederland","state_code":"CO","zip5":"80466","latitude":"39.9598272570000000","longitude":"-105.50956030400000","publicwifi":"N","url":null,"broadband_type_id":4}
{"id":null,"anchorname":"Nederland Elementary School","address":"1 Sundown Traill Nederland Co 80466","bldgnbr":"1","predir":null,"streetname":"Sundown","streettype":null,"suffdir":null,"city":"Nederland","state_code":"CO","zip5":"80466","latitude":"39.9694540280000000","longitude":"-105.51764915100000","publicwifi":"N","url":null,"broadband_type_id":6}
{"id":null,"anchorname":"Nederland Fire Protection District","address":"650 West 4th Street Nederland Co 80466","bldgnbr":"650","predir":"West","streetname":"4th","streettype":"Street","suffdir":null,"city":"Nederland","state_code":"CO","zip5":"80466","latitude":"39.9638940000000000","longitude":"-105.51685000000000","publicwifi":"N","url":null,"broadband_type_id":5}
{"id":null,"anchorname":"Nederland Fire Dept Station 1","address":"650 West 4th Street Nederland Co 80466","bldgnbr":"650","predir":"West","streetname":"4th","streettype":"Street","suffdir":null,"city":"Nederland","state_code":"CO","zip5":"80466","latitude":"39.9639560000000000","longitude":"-105.51685400000000","publicwifi":"N","url":null,"broadband_type_id":5}
{"id":null,"anchorname":"Nederland Middle-Senior High School-M","address":"597 Eldora Road Nederland Co 80466","bldgnbr":"597","predir":null,"streetname":"Eldora","streettype":"Road","suffdir":null,"city":"Nederland","state_code":"CO","zip5":"80466","latitude":"39.9533387480000000","longitude":"-105.52556430900000","publicwifi":"N","url":null,"broadband_type_id":6}
{"id":null,"anchorname":"Nederland Middle-Senior High School","address":"597 Eldora Road Nederland Co 80466","bldgnbr":"597","predir":null,"streetname":"Eldora","streettype":"Road","suffdir":null,"city":"Nederland","state_code":"CO","zip5":"80466","latitude":"39.9531982770000000","longitude":"-105.52580457900000","publicwifi":"N","url":null,"broadband_type_id":6}
{"id":null,"anchorname":"Nederland Fire Dept Station 3","address":"550 Eldorado Avenue Nederland Co 80466","bldgnbr":"550","predir":null,"streetname":"Eldorado","streettype":"Avenue","suffdir":null,"city":"Nederland","state_code":"CO","zip5":"80466","latitude":"39.9492979420000000","longitude":"-105.56855728300000","publicwifi":"N","url":null,"broadband_type_id":5}
