{"id":null,"anchorname":"NORTHEAST CORRECTIONAL COMPLEX - ANNEX","address":"188 OLD RAILROAD GRADE ROAD ROAN MOUNTAIN, TN 37687","bldgnbr":"188","predir":null,"streetname":"OLD RAILROAD GRADE ROAD","streettype":null,"suffdir":null,"city":"ROAN MOUNTAIN","state_code":"TN","zip5":"37687","latitude":"36.2051120000000000","longitude":"-82.104341000000000","publicwifi":"U","url":null,"broadband_type_id":null}
{"id":null,"anchorname":"CVS/PHARMACY #6076","address":"110 MAIN STREET","bldgnbr":"110","predir":null,"streetname":"MAIN STREET","streettype":null,"suffdir":null,"city":"HACKENSACK","state_code":"NJ","zip5":"07601","latitude":"40.8811497000000000","longitude":"-74.043819100000000","publicwifi":"U","url":null,"broadband_type_id":3}
{"id":null,"anchorname":"YORKSHIRE PHARMACY","address":"788 MAIN STREET","bldgnbr":"788","predir":null,"streetname":"MAIN STREET","streettype":null,"suffdir":null,"city":"HACKENSACK","state_code":"NJ","zip5":"07601","latitude":"40.9039714000000000","longitude":"-74.042416500000000","publicwifi":"U","url":null,"broadband_type_id":3}
{"id":null,"anchorname":"WEST CHEATHAM ELEMENTARY","address":"3120 HIGHWAY 12 NORTH CHAPMANSBORO, TN 37035","bldgnbr":"3120","predir":null,"streetname":"HIGHWAY 12 NORTH","streettype":null,"suffdir":null,"city":"CHAPMANSBORO","state_code":"TN","zip5":"37035","latitude":"36.3404600000000000","longitude":"-87.165636000000000","publicwifi":"U","url":null,"broadband_type_id":6}
{"id":null,"anchorname":"ASHLAND CITY P \u0026 P OFFICE","address":"107 SYCAMORE STREET ASHLAND CITY, TN 37015","bldgnbr":"107","predir":null,"streetname":"SYCAMORE STREET","streettype":null,"suffdir":null,"city":"ASHLAND CITY","state_code":"TN","zip5":"37015","latitude":"36.2753640000000000","longitude":"-87.063298000000000","publicwifi":"U","url":null,"broadband_type_id":1}
{"id":null,"anchorname":"CHEATHAM CO CENTRAL","address":"1 CUB CR ASHLAND CITY, TN 37015","bldgnbr":"1","predir":null,"streetname":"CUB CR","streettype":null,"suffdir":null,"city":"ASHLAND CITY","state_code":"TN","zip5":"37015","latitude":"36.3054220000000000","longitude":"-87.093146000000000","publicwifi":"U","url":null,"broadband_type_id":null}
{"id":null,"anchorname":"TDOT - CHEATHAM COUNTY MAINTENANCE GARAGE","address":"1093 NORTH MAIN STREET ASHLAND CITY, TN 37015","bldgnbr":"1093","predir":null,"streetname":"NORTH MAIN STREET","streettype":null,"suffdir":null,"city":"ASHLAND CITY","state_code":"TN","zip5":"37015","latitude":"36.2831540000000000","longitude":"-87.073792000000000","publicwifi":"U","url":null,"broadband_type_id":1}
{"id":null,"anchorname":"CHEATHAM CONNECT - ECONOMIC \u0026 COMMUNITY DEVELOPMENT","address":"108 N. MAIN STREET ASHLAND CITY, TN 37015","bldgnbr":"108","predir":null,"streetname":"N. MAIN STREET","streettype":null,"suffdir":null,"city":"ASHLAND CITY","state_code":"TN","zip5":"37015","latitude":"36.2745780000000000","longitude":"-87.064619000000000","publicwifi":"U","url":null,"broadband_type_id":1}
{"id":null,"anchorname":"HARPETH RIVER STATE NATURAL AREA","address":"1640 CEDAR HILL ROAD KINGSTON SPRINGS, TN 37082","bldgnbr":"1640","predir":null,"streetname":"CEDAR HILL ROAD","streettype":null,"suffdir":null,"city":"KINGSTON SPRINGS","state_code":"TN","zip5":"37082","latitude":"36.1484850000000000","longitude":"-87.109525000000000","publicwifi":"U","url":null,"broadband_type_id":1}
{"id":null,"anchorname":"ASHLAND CITY PUBLIC DEFENDERS OFFICE","address":"110 NORTH MAIN STREET ASHLAND CITY, TN 37015","bldgnbr":"110","predir":null,"streetname":"NORTH MAIN STREET","streettype":null,"suffdir":null,"city":"ASHLAND CITY","state_code":"TN","zip5":"37015","latitude":"36.2746600000000000","longitude":"-87.064631000000000","publicwifi":"U","url":null,"broadband_type_id":1}
{"id":null,"anchorname":"DA GENERAL OFFICE - ASHLAND CITY","address":"105 SYCAMORE STREET ASHLAND CITY, TN 37015","bldgnbr":"105","predir":null,"streetname":"SYCAMORE STREET","streettype":null,"suffdir":null,"city":"ASHLAND CITY","state_code":"TN","zip5":"37015","latitude":"36.2752630000000000","longitude":"-87.063984000000000","publicwifi":"U","url":null,"broadband_type_id":1}
{"id":null,"anchorname":"CHEATHAM COUNTY EMERGENCY MANAGEMENT","address":"100 PUBLIC SQUARE  SUITE 90 ASHLAND CITY, TN 37015","bldgnbr":"100","predir":null,"streetname":"PUBLIC SQUARE,  SUITE 90","streettype":null,"suffdir":null,"city":"ASHLAND CITY","state_code":"TN","zip5":"37015","latitude":"36.2749330000000000","longitude":"-87.063172000000000","publicwifi":"U","url":null,"broadband_type_id":1}
{"id":null,"anchorname":"CHEATHAM COUNTY EXTENSION","address":"162 COUNTY SERVICES DRIVE  SUITE 110 ASHLAND CITY, TN 37015","bldgnbr":"162","predir":null,"streetname":"COUNTY SERVICES DRIVE,  SUITE 110","streettype":null,"suffdir":null,"city":"ASHLAND CITY","state_code":"TN","zip5":"37015","latitude":"36.2892100000000000","longitude":"-87.051539000000000","publicwifi":"U","url":null,"broadband_type_id":1}
{"id":null,"anchorname":"ASHLAND CITY CHILD SUPP ENFORCE OFFICE","address":"102 CUMBERLAND STREET ASHLAND CITY, TN 37015","bldgnbr":"102","predir":null,"streetname":"CUMBERLAND STREET","streettype":null,"suffdir":null,"city":"ASHLAND CITY","state_code":"TN","zip5":"37015","latitude":"36.2739590000000000","longitude":"-87.064496000000000","publicwifi":"U","url":null,"broadband_type_id":4}
{"id":null,"anchorname":"ASHLAND CITY ELEMENTARY","address":"108 ELIZABETH ST ASHLAND CITY, TN 37015","bldgnbr":"108","predir":null,"streetname":"ELIZABETH ST","streettype":null,"suffdir":null,"city":"ASHLAND CITY","state_code":"TN","zip5":"37015","latitude":"36.2721940000000000","longitude":"-87.062633000000000","publicwifi":"U","url":null,"broadband_type_id":6}
{"id":null,"anchorname":"CHEATHAM COUNTY ADULT EDUCATION","address":"104 ELIZABETH STREET ASHLAND CITY, TN 37015","bldgnbr":"104","predir":null,"streetname":"ELIZABETH STREET","streettype":null,"suffdir":null,"city":"ASHLAND CITY","state_code":"TN","zip5":"37015","latitude":"36.2690000000000000","longitude":"-87.063300000000000","publicwifi":"U","url":null,"broadband_type_id":6}
{"id":null,"anchorname":"CHEATHAM COUNTY ASSESSORS OFFICE","address":"210 SOUTH MAIN STREET ASHLAND CITY, TN 37015","bldgnbr":"210","predir":null,"streetname":"SOUTH MAIN STREET","streettype":null,"suffdir":null,"city":"ASHLAND CITY","state_code":"TN","zip5":"37015","latitude":"36.2732030000000000","longitude":"-87.063696000000000","publicwifi":"U","url":null,"broadband_type_id":6}
{"id":null,"anchorname":"CHEATHAM COUNTY OFFICE - DCS","address":"286 FREY STREET ASHLAND CITY, TN 37015","bldgnbr":"286","predir":null,"streetname":"FREY STREET","streettype":null,"suffdir":null,"city":"ASHLAND CITY","state_code":"TN","zip5":"37015","latitude":"36.2905600000000000","longitude":"-87.051798000000000","publicwifi":"U","url":null,"broadband_type_id":1}
{"id":null,"anchorname":"CLOUDLAND ELEMENTARY SCHOOL","address":"8540 HIGHWAY 19 EAST ROAN MOUNTAIN, TN 37687","bldgnbr":"8540","predir":null,"streetname":"HIGHWAY 19 EAST","streettype":null,"suffdir":null,"city":"ROAN MOUNTAIN","state_code":"TN","zip5":"37687","latitude":"36.1929760000000000","longitude":"-82.053326000000000","publicwifi":"U","url":null,"broadband_type_id":6}
{"id":null,"anchorname":"ROAN MOUNTAIN STATE PARK OFFICE","address":"1015 HIGHWAY 143 ROAN MOUNTAIN, TN 37687","bldgnbr":"1015","predir":null,"streetname":"HIGHWAY 143","streettype":null,"suffdir":null,"city":"ROAN MOUNTAIN","state_code":"TN","zip5":"37687","latitude":"36.1662110000000000","longitude":"-82.095508000000000","publicwifi":"U","url":null,"broadband_type_id":2}
{"id":null,"anchorname":"TWO RIVERS VOLUNTEER FIRE DEPT","address":"2005 PETWAY RD ASHLAND CITY, TN 37015","bldgnbr":"2005","predir":null,"streetname":"PETWAY RD","streettype":null,"suffdir":null,"city":"ASHLAND CITY","state_code":"TN","zip5":"37015","latitude":"36.2757000000000000","longitude":"-87.118800000000000","publicwifi":"U","url":null,"broadband_type_id":5}
{"id":null,"anchorname":"SYCAMORE HIGH SCHOOL","address":"1021 OLD CLARKSVILLE HW PLEASANT VIEW, TN 37146","bldgnbr":"1021","predir":null,"streetname":"OLD CLARKSVILLE HW","streettype":null,"suffdir":null,"city":"PLEASANT VIEW","state_code":"TN","zip5":"37146","latitude":"36.3759130000000000","longitude":"-87.059908000000000","publicwifi":"U","url":null,"broadband_type_id":6}
{"id":null,"anchorname":"SYCAMORE MIDDLE SCHOOL","address":"1025 OLD CLARKSVILLE HW PLEASANT VIEW, TN 37146","bldgnbr":"1025","predir":null,"streetname":"OLD CLARKSVILLE HW","streettype":null,"suffdir":null,"city":"PLEASANT VIEW","state_code":"TN","zip5":"37146","latitude":"36.3760620000000000","longitude":"-87.060543000000000","publicwifi":"U","url":null,"broadband_type_id":6}
{"id":null,"anchorname":"HILLCREST HEALTHCARE CENTER","address":"111 EAST PEMBERTON STREET ASHLAND CITY, TN 37015","bldgnbr":"111","predir":null,"streetname":"EAST PEMBERTON STREET","streettype":null,"suffdir":null,"city":"ASHLAND CITY","state_code":"TN","zip5":"37015","latitude":"36.2797650000000000","longitude":"-87.067600000000000","publicwifi":"U","url":null,"broadband_type_id":3}
{"id":null,"anchorname":"CHEATHAM COUNTY HEALTH DEPT","address":"162 COUNTY SERVICES DRIVE ASHLAND CITY, TN 37015","bldgnbr":"162","predir":null,"streetname":"COUNTY SERVICES DRIVE","streettype":null,"suffdir":null,"city":"ASHLAND CITY","state_code":"TN","zip5":"37015","latitude":"36.2952500000000000","longitude":"-87.050900000000000","publicwifi":"U","url":null,"broadband_type_id":3}
{"id":null,"anchorname":"CHEATHAM COUNTY PUBLIC LIBRARY","address":"188 COUNTY SERVICES DRIVE ASHLAND CITY, TN 37015","bldgnbr":"188","predir":null,"streetname":"COUNTY SERVICES DRIVE","streettype":null,"suffdir":null,"city":"ASHLAND CITY","state_code":"TN","zip5":"37015","latitude":"36.2753410000000000","longitude":"-87.063292000000000","publicwifi":"U","url":null,"broadband_type_id":6}
{"id":null,"anchorname":"HENRIETTA VOLUNTEER FIRE DEPT","address":"985 OLD HIGHWAY 12 ASHLAND CITY, TN 37015","bldgnbr":"985","predir":null,"streetname":"OLD HIGHWAY 12","streettype":null,"suffdir":null,"city":"ASHLAND CITY","state_code":"TN","zip5":"37015","latitude":"36.2851000000000000","longitude":"-87.077400000000000","publicwifi":"U","url":null,"broadband_type_id":5}
{"id":null,"anchorname":"CHEATHAM COUNTY SHERIFF OFFICE","address":"200 COURT SQUARE ASHLAND CITY, TN 37015","bldgnbr":"200","predir":null,"streetname":"COURT SQUARE","streettype":null,"suffdir":null,"city":"ASHLAND CITY","state_code":"TN","zip5":"37015","latitude":"36.2747670000000000","longitude":"-87.063451000000000","publicwifi":"U","url":null,"broadband_type_id":4}
{"id":null,"anchorname":"CHEATHAM CO. COURTHOUSE","address":"100 PUBLIC SQUARE ASHLAND CITY, TN 37015","bldgnbr":"100","predir":null,"streetname":"PUBLIC SQUARE","streettype":null,"suffdir":null,"city":"ASHLAND CITY","state_code":"TN","zip5":"37015","latitude":"36.2836180000000000","longitude":"-87.056029000000000","publicwifi":"U","url":null,"broadband_type_id":1}
{"id":null,"anchorname":"ASHLAND CITY FIRE DEPT","address":"101 COURT STREET ASHLAND CITY, TN 37015","bldgnbr":"101","predir":null,"streetname":"COURT STREET","streettype":null,"suffdir":null,"city":"ASHLAND CITY","state_code":"TN","zip5":"37015","latitude":"36.2746000000000000","longitude":"-87.062800000000000","publicwifi":"U","url":null,"broadband_type_id":5}
{"id":null,"anchorname":"CENTENNIAL MEDICAL CENTER - ASHLAND CITY","address":"313 NORTH MAIN STREET ASHLAND CITY, TN 37015","bldgnbr":"313","predir":null,"streetname":"NORTH MAIN STREET","streettype":null,"suffdir":null,"city":"ASHLAND CITY","state_code":"TN","zip5":"37015","latitude":"36.2766920000000000","longitude":"-87.065800000000000","publicwifi":"U","url":null,"broadband_type_id":3}
{"id":null,"anchorname":"CHEATHAM CO ADULT HIGH SCHOOL","address":"102 ELIZABETH STREET ASHLAND CITY, TN 37015","bldgnbr":"102","predir":null,"streetname":"ELIZABETH STREET","streettype":null,"suffdir":null,"city":"ASHLAND CITY","state_code":"TN","zip5":"37015","latitude":"36.2690210000000000","longitude":"-87.063282000000000","publicwifi":"U","url":null,"broadband_type_id":6}
{"id":null,"anchorname":"CHEATHAM COUNTY HEALTH DEPARTMENT","address":"270 FREY STREET ASHLAND CITY, TN 37015","bldgnbr":"270","predir":null,"streetname":"FREY STREET","streettype":null,"suffdir":null,"city":"ASHLAND CITY","state_code":"TN","zip5":"37015","latitude":"36.2905600000000000","longitude":"-87.051798000000000","publicwifi":"U","url":null,"broadband_type_id":3}
{"id":null,"anchorname":"VALLEY PHYSICIAN SERVICES, INC","address":"19-20 Fair Lawn Avenue,Fair Lawn NJ 07410","bldgnbr":"19-20","predir":null,"streetname":"Fair Lawn Avenue","streettype":null,"suffdir":null,"city":"Fair Lawn","state_code":"NJ","zip5":"07410","latitude":"40.9385890000000000","longitude":"-74.122937000000000","publicwifi":"U","url":null,"broadband_type_id":6}
{"id":null,"anchorname":"JACKS CREEK ELEMENTARY","address":"65 STATE ROUTE 22 A  SOUTH JACKS CREEK, TN 38347","bldgnbr":"65","predir":null,"streetname":"STATE ROUTE 22 A,  SOUTH","streettype":null,"suffdir":null,"city":"JACKS CREEK","state_code":"TN","zip5":"38347","latitude":"35.4704970000000000","longitude":"-88.520705000000000","publicwifi":"U","url":null,"broadband_type_id":6}
{"id":null,"anchorname":"CHESTER COUNTY LEA DISTRICT OFFICE","address":"970 EAST MAIN STREET HENDERSON, TN 38340","bldgnbr":"970","predir":null,"streetname":"EAST MAIN STREET","streettype":null,"suffdir":null,"city":"HENDERSON","state_code":"TN","zip5":"38340","latitude":"35.4492580000000000","longitude":"-88.603273000000000","publicwifi":"U","url":null,"broadband_type_id":6}
{"id":null,"anchorname":"LEA DISTRICT OFFICE","address":"970 EAST MAIN STREET HENDERSON, TN 38340","bldgnbr":"970","predir":null,"streetname":"EAST MAIN STREET","streettype":null,"suffdir":null,"city":"HENDERSON","state_code":"TN","zip5":"38340","latitude":"35.4437950000000000","longitude":"-88.615422000000000","publicwifi":"U","url":null,"broadband_type_id":6}
{"id":null,"anchorname":"CHRISTIAN LIFE ACADEMY","address":"412 BARHAM AV HENDERSON, TN 38340","bldgnbr":"412","predir":null,"streetname":"BARHAM AV","streettype":null,"suffdir":null,"city":"HENDERSON","state_code":"TN","zip5":"38340","latitude":"35.4453530000000000","longitude":"-88.635746000000000","publicwifi":"U","url":null,"broadband_type_id":6}
{"id":null,"anchorname":"SOUTHWEST HRA","address":"1527 WHITE AVENUE HENDERSON, TN 38340","bldgnbr":"1527","predir":null,"streetname":"WHITE AVENUE","streettype":null,"suffdir":null,"city":"HENDERSON","state_code":"TN","zip5":"38340","latitude":"35.4602880000000000","longitude":"-88.669094000000000","publicwifi":"U","url":null,"broadband_type_id":6}
{"id":null,"anchorname":"CHESTER COUNTY ASSESSORS OFFICE","address":"159 EAST MAIN STREET HENDERSON, TN 38340","bldgnbr":"159","predir":null,"streetname":"EAST MAIN STREET","streettype":null,"suffdir":null,"city":"HENDERSON","state_code":"TN","zip5":"38340","latitude":"35.4404310000000000","longitude":"-88.639965000000000","publicwifi":"U","url":null,"broadband_type_id":6}
{"id":null,"anchorname":"CHESTER COUNTY CLERK \u0026 MASTER","address":"126 CROOK AVENUE HENDERSON, TN 38340","bldgnbr":"126","predir":null,"streetname":"CROOK AVENUE","streettype":null,"suffdir":null,"city":"HENDERSON","state_code":"TN","zip5":"38340","latitude":"35.4406020000000000","longitude":"-88.640621000000000","publicwifi":"U","url":null,"broadband_type_id":6}
{"id":null,"anchorname":"CHESTER COUNTY EXTENSION","address":"159 EAST MAIN STREET HENDERSON, TN 38340","bldgnbr":"159","predir":null,"streetname":"EAST MAIN STREET","streettype":null,"suffdir":null,"city":"HENDERSON","state_code":"TN","zip5":"38340","latitude":"35.4404310000000000","longitude":"-88.639965000000000","publicwifi":"U","url":null,"broadband_type_id":6}
{"id":null,"anchorname":"CHESTER COUNTY THP OFFICE","address":"126 CROOK AVENUE HENDERSON, TN 38340","bldgnbr":"126","predir":null,"streetname":"CROOK AVENUE","streettype":null,"suffdir":null,"city":"HENDERSON","state_code":"TN","zip5":"38340","latitude":"35.4400370000000000","longitude":"-88.640940000000000","publicwifi":"U","url":null,"broadband_type_id":6}
{"id":null,"anchorname":"CHESTER COUNTY CLERK - DL","address":"133 EAST MAIN HENDERSON, TN 38340","bldgnbr":"133","predir":null,"streetname":"EAST MAIN","streettype":null,"suffdir":null,"city":"HENDERSON","state_code":"TN","zip5":"38340","latitude":"35.4400800000000000","longitude":"-88.640657000000000","publicwifi":"U","url":null,"broadband_type_id":6}
{"id":null,"anchorname":"CHESTER COUNTY DHS OFFICE","address":"525 NORTH CHURCH AVENUE HENDERSON, TN 38340","bldgnbr":"525","predir":null,"streetname":"NORTH CHURCH AVENUE","streettype":null,"suffdir":null,"city":"HENDERSON","state_code":"TN","zip5":"38340","latitude":"35.4449190000000000","longitude":"-88.654390000000000","publicwifi":"U","url":null,"broadband_type_id":6}
{"id":null,"anchorname":"CHESTER COUNTY ADULT EDUCATION","address":"123-A NORTH CHURCH STREET HENDERSON, TN 38340","bldgnbr":"123","predir":null,"streetname":"NORTH CHURCH STREET","streettype":null,"suffdir":null,"city":"HENDERSON","state_code":"TN","zip5":"38340","latitude":"35.4377000000000000","longitude":"-88.645100000000000","publicwifi":"U","url":null,"broadband_type_id":6}
{"id":null,"anchorname":"CHESTER CO. JUSTICE CENTER","address":"333 ERIC BELL DRIVE HENDERSON, TN 38340","bldgnbr":"333","predir":null,"streetname":"ERIC BELL DRIVE","streettype":null,"suffdir":null,"city":"HENDERSON","state_code":"TN","zip5":"38340","latitude":"35.4277530000000000","longitude":"-88.641512000000000","publicwifi":"U","url":null,"broadband_type_id":6}
{"id":null,"anchorname":"HARPETH MIDDLE SCHOOL","address":"170 HARPETH VIEW TR KINGSTON SPRINGS, TN 37082","bldgnbr":"170","predir":null,"streetname":"HARPETH VIEW TR","streettype":null,"suffdir":null,"city":"KINGSTON SPRINGS","state_code":"TN","zip5":"37082","latitude":"36.1011950000000000","longitude":"-87.087347000000000","publicwifi":"U","url":null,"broadband_type_id":6}
{"id":null,"anchorname":"SOUTH CHEATHAM PUBLIC LIBRARY","address":"358 NORTH MAIN STREET KINGSTON SPRINGS, TN 37082","bldgnbr":"358","predir":null,"streetname":"NORTH MAIN STREET","streettype":null,"suffdir":null,"city":"KINGSTON SPRINGS","state_code":"TN","zip5":"37082","latitude":"36.0996620000000000","longitude":"-87.114845000000000","publicwifi":"U","url":null,"broadband_type_id":6}
{"id":null,"anchorname":"ENVILLE VOLUNTEER FIRE DEPT","address":"55 HILL STREET ENVILLE, TN 38332","bldgnbr":"55","predir":null,"streetname":"HILL STREET","streettype":null,"suffdir":null,"city":"ENVILLE","state_code":"TN","zip5":"38332","latitude":"35.3868000000000000","longitude":"-88.430500000000000","publicwifi":"U","url":null,"broadband_type_id":5}
{"id":null,"anchorname":"JACK'S CREEK APOSTOLIC CHURCH SCHOOL","address":"150 MCADAMS LOOP JACK'S CREEK, TN 38347","bldgnbr":"150","predir":null,"streetname":"MCADAMS LOOP","streettype":null,"suffdir":null,"city":"JACK'S CREEK","state_code":"TN","zip5":"38347","latitude":"35.4737400000000000","longitude":"-88.506625000000000","publicwifi":"U","url":null,"broadband_type_id":6}
{"id":null,"anchorname":"CHESTER COUNTY TECHNOLOGY OFFICE-ALT. SCHOOL","address":"524 LURAY AVENUE HENDERSON, TN 38340","bldgnbr":"524","predir":null,"streetname":"LURAY AVENUE","streettype":null,"suffdir":null,"city":"HENDERSON","state_code":"TN","zip5":"38340","latitude":"35.4474640000000000","longitude":"-88.630229000000000","publicwifi":"U","url":null,"broadband_type_id":6}
{"id":null,"anchorname":"CHESTER COUNTY JUNIOR HIGH SCHOOL","address":"930 EAST MAIN ST HENDERSON, TN 38340","bldgnbr":"930","predir":null,"streetname":"EAST MAIN ST","streettype":null,"suffdir":null,"city":"HENDERSON","state_code":"TN","zip5":"38340","latitude":"35.4415490000000000","longitude":"-88.629811000000000","publicwifi":"U","url":null,"broadband_type_id":6}
{"id":null,"anchorname":"CHESTER COUNTY LIBRARY","address":"1012 EAST MAIN STREET HENDERSON, TN 38340","bldgnbr":"1012","predir":null,"streetname":"EAST MAIN STREET","streettype":null,"suffdir":null,"city":"HENDERSON","state_code":"TN","zip5":"38340","latitude":"35.4455840000000000","longitude":"-88.614886000000000","publicwifi":"U","url":null,"broadband_type_id":6}
{"id":null,"anchorname":"CHESTER COUNTY EAST ELEMENTARY SCHOOL","address":"708 EAST MAIN STREET HENDERSON, TN 38340","bldgnbr":"708","predir":null,"streetname":"EAST MAIN STREET","streettype":null,"suffdir":null,"city":"HENDERSON","state_code":"TN","zip5":"38340","latitude":"35.4435090000000000","longitude":"-88.623206000000000","publicwifi":"U","url":null,"broadband_type_id":6}
{"id":null,"anchorname":"CHESTER COUNTY HEALTH DEPARTMENT","address":"301 QUINCO DRIVE HENDERSON, TN 38340","bldgnbr":"301","predir":null,"streetname":"QUINCO DRIVE","streettype":null,"suffdir":null,"city":"HENDERSON","state_code":"TN","zip5":"38340","latitude":"35.4466270000000000","longitude":"-88.617446000000000","publicwifi":"U","url":null,"broadband_type_id":3}
{"id":null,"anchorname":"CHESTER COUNTY NURSING HOME","address":"412 JUANITA DRIVE HENDERSON, TN 38340","bldgnbr":"412","predir":null,"streetname":"JUANITA DRIVE","streettype":null,"suffdir":null,"city":"HENDERSON","state_code":"TN","zip5":"38340","latitude":"35.4476980000000000","longitude":"-88.619700000000000","publicwifi":"U","url":null,"broadband_type_id":3}
{"id":null,"anchorname":"HENDERSON HEALTH CENTER","address":"1132 INDUSTRIAL DRIVE HENDERSON, TN 38340","bldgnbr":"1132","predir":null,"streetname":"INDUSTRIAL DRIVE","streettype":null,"suffdir":null,"city":"HENDERSON","state_code":"TN","zip5":"38340","latitude":"35.4579890000000000","longitude":"-88.666481000000000","publicwifi":"U","url":null,"broadband_type_id":3}
{"id":null,"anchorname":"HENDERSON HEALTH CENTER","address":"208 NORTH AVENUE HENDERSON, TN 38340","bldgnbr":"208","predir":null,"streetname":"NORTH AVENUE","streettype":null,"suffdir":null,"city":"HENDERSON","state_code":"TN","zip5":"38340","latitude":"35.4407550000000000","longitude":"-88.642300000000000","publicwifi":"U","url":null,"broadband_type_id":3}
{"id":null,"anchorname":"CHESTER COUNTY CITY HALL","address":"121 CROOK AVENUE HENDERSON, TN 38340","bldgnbr":"121","predir":null,"streetname":"CROOK AVENUE","streettype":null,"suffdir":null,"city":"HENDERSON","state_code":"TN","zip5":"38340","latitude":"35.4403060000000000","longitude":"-88.641184000000000","publicwifi":"U","url":null,"broadband_type_id":1}
{"id":null,"anchorname":"EAST CHESTER ELEMENTARY SCHOOL","address":"708 EAST MAIN ST HENDERSON, TN 38340","bldgnbr":"708","predir":null,"streetname":"EAST MAIN ST","streettype":null,"suffdir":null,"city":"HENDERSON","state_code":"TN","zip5":"38340","latitude":"35.4410490000000000","longitude":"-88.634123000000000","publicwifi":"U","url":null,"broadband_type_id":6}
{"id":null,"anchorname":"CHESTER COUNTY MIDDLE SCHOOL","address":"634 EAST MAIN ST HENDERSON, TN 38340","bldgnbr":"634","predir":null,"streetname":"EAST MAIN ST","streettype":null,"suffdir":null,"city":"HENDERSON","state_code":"TN","zip5":"38340","latitude":"35.4410080000000000","longitude":"-88.635514000000000","publicwifi":"U","url":null,"broadband_type_id":6}
{"id":null,"anchorname":"FREED-HARDEMAN UNIVERSITY","address":"158 EAST MAIN STREET HENDERSON, TN 38340","bldgnbr":"158","predir":null,"streetname":"EAST MAIN STREET","streettype":null,"suffdir":null,"city":"HENDERSON","state_code":"TN","zip5":"38340","latitude":"35.4400100000000000","longitude":"-88.638169000000000","publicwifi":"U","url":null,"broadband_type_id":6}
{"id":null,"anchorname":"CHESTER COUNTY HIGH SCHOOL - AGGREGATION CIRCUIT","address":"552 EAST MAIN ST HENDERSON, TN 38340","bldgnbr":"552","predir":null,"streetname":"EAST MAIN ST","streettype":null,"suffdir":null,"city":"HENDERSON","state_code":"TN","zip5":"38340","latitude":"35.4409950000000000","longitude":"-88.636608000000000","publicwifi":"U","url":null,"broadband_type_id":6}
{"id":null,"anchorname":"THE GROVE PRIMARY CARE CLINIC, LLC","address":"541 WEST PARK PLACE HENDERSON, TN 38340","bldgnbr":"541","predir":null,"streetname":"WEST PARK PLACE","streettype":null,"suffdir":null,"city":"HENDERSON","state_code":"TN","zip5":"38340","latitude":"35.4417620000000000","longitude":"-88.662100000000000","publicwifi":"U","url":null,"broadband_type_id":3}
{"id":null,"anchorname":"HENDERSON FIRE DEPT","address":"505 SANFORD STREET HENDERSON, TN 38340","bldgnbr":"505","predir":null,"streetname":"SANFORD STREET","streettype":null,"suffdir":null,"city":"HENDERSON","state_code":"TN","zip5":"38340","latitude":"35.4337000000000000","longitude":"-88.651000000000000","publicwifi":"U","url":null,"broadband_type_id":5}
{"id":null,"anchorname":"W CHESTER ELEMENTARY SCHOOL","address":"1243 WEST MAIN ST HENDERSON, TN 38340","bldgnbr":"1243","predir":null,"streetname":"WEST MAIN ST","streettype":null,"suffdir":null,"city":"HENDERSON","state_code":"TN","zip5":"38340","latitude":"35.4266370000000000","longitude":"-88.664208000000000","publicwifi":"U","url":null,"broadband_type_id":6}
{"id":null,"anchorname":"CHESTER COUNTY WEST ELEMENTARY SCHOOL","address":"1243 W MAIN ST HENDERSON, TN 38340","bldgnbr":"1243","predir":null,"streetname":"W MAIN ST","streettype":null,"suffdir":null,"city":"HENDERSON","state_code":"TN","zip5":"38340","latitude":"35.4228340000000000","longitude":"-88.673409000000000","publicwifi":"U","url":null,"broadband_type_id":6}
{"id":null,"anchorname":"J FRANK WHITE ACADEMY","address":"6965 CUMBERLAND GAP PARKWAY HARROGATE, TN 37752","bldgnbr":"6965","predir":null,"streetname":"CUMBERLAND GAP PARKWAY","streettype":null,"suffdir":null,"city":"HARROGATE","state_code":"TN","zip5":"37752","latitude":"36.5780690000000000","longitude":"-83.664256000000000","publicwifi":"U","url":null,"broadband_type_id":6}
{"id":null,"anchorname":"BRIGHT START EDUCATIONAL CENTER","address":"4-24 Saddle River Rd Fair Lawn, NJ 07410-5604 United States","bldgnbr":"4-24","predir":null,"streetname":"Saddle River Rd Fair Lawn","streettype":null,"suffdir":null,"city":"Fair Lawn","state_code":"NJ","zip5":"07410","latitude":"40.9338680000000000","longitude":"-74.096619000000000","publicwifi":"U","url":null,"broadband_type_id":6}
{"id":null,"anchorname":"BEAR TRACE AT CHICKASAW - HENDERSON","address":"9555 STATE ROUTE 100 HENDERSON, TN 38340","bldgnbr":"9555","predir":null,"streetname":"STATE ROUTE 100","streettype":null,"suffdir":null,"city":"HENDERSON","state_code":"TN","zip5":"38340","latitude":"35.3890980000000000","longitude":"-88.796240000000000","publicwifi":"U","url":null,"broadband_type_id":null}
{"id":null,"anchorname":"ELLEN MYERS ELEMENTARY","address":"275 NETTLETON RD HARROGATE, TN 37752","bldgnbr":"275","predir":null,"streetname":"NETTLETON RD","streettype":null,"suffdir":null,"city":"HARROGATE","state_code":"TN","zip5":"37752","latitude":"36.5865580000000000","longitude":"-83.655169000000000","publicwifi":"U","url":null,"broadband_type_id":6}
{"id":null,"anchorname":"VICTORY LEARNING CENTER","address":"1249 HIGHWAY 63 HARROGATE, TN 37752","bldgnbr":"1249","predir":null,"streetname":"HIGHWAY 63","streettype":null,"suffdir":null,"city":"HARROGATE","state_code":"TN","zip5":"37752","latitude":"36.5410380000000000","longitude":"-83.679220000000000","publicwifi":"U","url":null,"broadband_type_id":6}
{"id":null,"anchorname":"HERITAGE CHRISTIAN ADACEMY","address":"428 HARMON RD NEW TAZEWELL, TN 37825","bldgnbr":"428","predir":null,"streetname":"HARMON RD","streettype":null,"suffdir":null,"city":"NEW TAZEWELL","state_code":"TN","zip5":"37825","latitude":"36.4305280000000000","longitude":"-83.637295000000000","publicwifi":"U","url":null,"broadband_type_id":6}
{"id":null,"anchorname":"CLAIBORNE COUNTY DCS","address":"1720 CHURCH STREET TAZEWELL, TN 37879","bldgnbr":"1720","predir":null,"streetname":"CHURCH STREET","streettype":null,"suffdir":null,"city":"TAZEWELL","state_code":"TN","zip5":"37879","latitude":"36.4551630000000000","longitude":"-83.570252000000000","publicwifi":"U","url":null,"broadband_type_id":1}
{"id":null,"anchorname":"CLAIBORNE COUNTY - TAZEWELL DHS","address":"310 COURT STREET TAZEWELL, TN 37879","bldgnbr":"310","predir":null,"streetname":"COURT STREET","streettype":null,"suffdir":null,"city":"TAZEWELL","state_code":"TN","zip5":"37879","latitude":"36.4554510000000000","longitude":"-83.570729000000000","publicwifi":"U","url":null,"broadband_type_id":6}
{"id":null,"anchorname":"CLAIBORNE COUNTY THP OFFICE","address":"1722 EPPS STREET TAZEWELL, TN 37879","bldgnbr":"1722","predir":null,"streetname":"EPPS STREET","streettype":null,"suffdir":null,"city":"TAZEWELL","state_code":"TN","zip5":"37879","latitude":"36.4544440000000000","longitude":"-83.569974000000000","publicwifi":"U","url":null,"broadband_type_id":1}
{"id":null,"anchorname":"CLAIBORNE COUNTY EXTENSION","address":"1732 MAIN STREET  SUITE 4 TAZEWELL, TN 37879","bldgnbr":"1732","predir":null,"streetname":"MAIN STREET,  SUITE 4","streettype":null,"suffdir":null,"city":"TAZEWELL","state_code":"TN","zip5":"37879","latitude":"36.4542730000000000","longitude":"-83.569488000000000","publicwifi":"U","url":null,"broadband_type_id":1}
{"id":null,"anchorname":"CLAIBORNE COUNTY ADULT EDUCATION","address":"1802 MAIN STREET TAZEWELL, TN 37879","bldgnbr":"1802","predir":null,"streetname":"MAIN STREET","streettype":null,"suffdir":null,"city":"TAZEWELL","state_code":"TN","zip5":"37879","latitude":"36.4547000000000000","longitude":"-83.569200000000000","publicwifi":"U","url":null,"broadband_type_id":6}
{"id":null,"anchorname":"TAZEWELL-NEW TAZEWELL ELEMENTARY","address":"501 DAVIS DR NEW TAZEWELL, TN 37825","bldgnbr":"501","predir":null,"streetname":"DAVIS DR","streettype":null,"suffdir":null,"city":"NEW TAZEWELL","state_code":"TN","zip5":"37825","latitude":"36.4387800000000000","longitude":"-83.577118000000000","publicwifi":"U","url":null,"broadband_type_id":6}
{"id":null,"anchorname":"DA GENERAL OFFICE - TAZEWELL","address":"1716 MAIN STREET TAZEWELL, TN 37879","bldgnbr":"1716","predir":null,"streetname":"MAIN STREET","streettype":null,"suffdir":null,"city":"TAZEWELL","state_code":"TN","zip5":"37879","latitude":"36.4534540000000000","longitude":"-83.569713000000000","publicwifi":"U","url":null,"broadband_type_id":null}
{"id":null,"anchorname":"CUMBERLAND GAP VOLUNTEER FIRE DEPT","address":"805 N CUMBERLAND DRIVE CUMBERLAND GAP, TN 37724","bldgnbr":"805","predir":null,"streetname":"N CUMBERLAND DRIVE","streettype":null,"suffdir":null,"city":"CUMBERLAND GAP","state_code":"TN","zip5":"37724","latitude":"36.5990000000000000","longitude":"-83.665700000000000","publicwifi":"U","url":null,"broadband_type_id":5}
{"id":null,"anchorname":"CITY OF HARROGATE VOLUNTEER FIRE DEPT","address":"7076 CUMBERLAND GAP PKWY HARROGATE, TN 37752","bldgnbr":"7076","predir":null,"streetname":"CUMBERLAND GAP PKWY","streettype":null,"suffdir":null,"city":"HARROGATE","state_code":"TN","zip5":"37752","latitude":"36.5837000000000000","longitude":"-83.656500000000000","publicwifi":"U","url":null,"broadband_type_id":5}
{"id":null,"anchorname":"TRI-STATE HEALTH AND REHABILITATION CENTER","address":"600 SHAWNEE ROAD HARROGATE, TN 37752","bldgnbr":"600","predir":null,"streetname":"SHAWNEE ROAD","streettype":null,"suffdir":null,"city":"HARROGATE","state_code":"TN","zip5":"37752","latitude":"36.5792330000000000","longitude":"-83.641400000000000","publicwifi":"U","url":null,"broadband_type_id":3}
{"id":null,"anchorname":"LINCOLN MEMORIAL UNIVERSITY","address":"6965 CUMBERLAND GAP PARKWAY HARROGATE, TN 37752","bldgnbr":"6965","predir":null,"streetname":"CUMBERLAND GAP PARKWAY","streettype":null,"suffdir":null,"city":"HARROGATE","state_code":"TN","zip5":"37752","latitude":"36.5801470000000000","longitude":"-83.656480000000000","publicwifi":"U","url":null,"broadband_type_id":6}
{"id":null,"anchorname":"H. Y. LIVESAY MIDDLE SCHOOL","address":"475 HWY 63 HARROGATE, TN 37752","bldgnbr":"475","predir":null,"streetname":"HWY 63","streettype":null,"suffdir":null,"city":"HARROGATE","state_code":"TN","zip5":"37752","latitude":"36.5577820000000000","longitude":"-83.658734000000000","publicwifi":"U","url":null,"broadband_type_id":6}
{"id":null,"anchorname":"CUMBERLAND GAP HIGH SCHOOL","address":"661 OLD JACKBORO PK CUMBERLAND GAP, TN 37724","bldgnbr":"661","predir":null,"streetname":"OLD JACKBORO PK","streettype":null,"suffdir":null,"city":"CUMBERLAND GAP","state_code":"TN","zip5":"37724","latitude":"36.5383550000000000","longitude":"-83.675244000000000","publicwifi":"U","url":null,"broadband_type_id":6}
{"id":null,"anchorname":"CLEAR FORK VOLUNTEER FIRE DEPT","address":"6394 HIGHWAY 90 CLAIRFIELD, TN 37715","bldgnbr":"6394","predir":null,"streetname":"HIGHWAY 90","streettype":null,"suffdir":null,"city":"CLAIRFIELD","state_code":"TN","zip5":"37715","latitude":"36.5690000000000000","longitude":"-83.925800000000000","publicwifi":"U","url":null,"broadband_type_id":5}
{"id":null,"anchorname":"SPEEDWELL VOLUNTEER FIRE DEPT","address":"7465 HIGHWAY 63 SPEEDWELL, TN 37870","bldgnbr":"7465","predir":null,"streetname":"HIGHWAY 63","streettype":null,"suffdir":null,"city":"SPEEDWELL","state_code":"TN","zip5":"37870","latitude":"36.4599000000000000","longitude":"-83.871700000000000","publicwifi":"U","url":null,"broadband_type_id":5}
{"id":null,"anchorname":"CLAIBORNE COUNTY HOSPITAL AND NURSING HOME","address":"1850 OLD KNOXVILLE ROAD TAZEWELL, TN 37879","bldgnbr":"1850","predir":null,"streetname":"OLD KNOXVILLE ROAD","streettype":null,"suffdir":null,"city":"TAZEWELL","state_code":"TN","zip5":"37879","latitude":"36.4535760000000000","longitude":"-83.572400000000000","publicwifi":"U","url":null,"broadband_type_id":3}
{"id":null,"anchorname":"CLAIBORNE ADULT HIGH SCHOOL","address":"1802 MAIN ST TAZEWELL, TN 37879","bldgnbr":"1802","predir":null,"streetname":"MAIN ST","streettype":null,"suffdir":null,"city":"TAZEWELL","state_code":"TN","zip5":"37879","latitude":"36.4544990000000000","longitude":"-83.569388000000000","publicwifi":"U","url":null,"broadband_type_id":6}
{"id":null,"anchorname":"CLAIBORNE COURTHOUSE (ADMIN OF COURTS)","address":"1740 MAIN STREET TAZEWELL, TN 37879","bldgnbr":"1740","predir":null,"streetname":"MAIN STREET","streettype":null,"suffdir":null,"city":"TAZEWELL","state_code":"TN","zip5":"37879","latitude":"36.4542730000000000","longitude":"-83.569488000000000","publicwifi":"U","url":null,"broadband_type_id":1}
{"id":null,"anchorname":"WE CARE MEDICAL GROUP","address":"209 IRISH CEMETARY ROAD TAZEWELL, TN 37879","bldgnbr":"209","predir":null,"streetname":"IRISH CEMETARY ROAD","streettype":null,"suffdir":null,"city":"TAZEWELL","state_code":"TN","zip5":"37879","latitude":"36.4518000000000000","longitude":"-83.572300000000000","publicwifi":"U","url":null,"broadband_type_id":3}
{"id":null,"anchorname":"SOLDIERS MEMORIAL MIDDLE SCHOOL","address":"1510 LEGION ST TAZEWELL, TN 37879","bldgnbr":"1510","predir":null,"streetname":"LEGION ST","streettype":null,"suffdir":null,"city":"TAZEWELL","state_code":"TN","zip5":"37879","latitude":"36.4521920000000000","longitude":"-83.580919000000000","publicwifi":"U","url":null,"broadband_type_id":6}
{"id":null,"anchorname":"TAZEWELL/NEW TAZEWELL FIRE DEPARTMENT","address":"1402 NORTH BROAD STREET TAZEWELL, TN 37879","bldgnbr":"1402","predir":null,"streetname":"NORTH BROAD STREET","streettype":null,"suffdir":null,"city":"TAZEWELL","state_code":"TN","zip5":"37879","latitude":"36.4477000000000000","longitude":"-83.578000000000000","publicwifi":"U","url":null,"broadband_type_id":5}
{"id":null,"anchorname":"BARBARA REYNOLDS CARR MEMORIAL LIBRARY","address":"1304 OLD KNOXVILLE RD TAZEWELL, TN 37879","bldgnbr":"1304","predir":null,"streetname":"OLD KNOXVILLE RD","streettype":null,"suffdir":null,"city":"TAZEWELL","state_code":"TN","zip5":"37879","latitude":"36.4487400000000000","longitude":"-83.581418000000000","publicwifi":"U","url":null,"broadband_type_id":6}
{"id":null,"anchorname":"LAUREL MANOR HEALTH CARE","address":"902 BUCHANAN ROAD NEW TAZEWELL, TN 37825","bldgnbr":"902","predir":null,"streetname":"BUCHANAN ROAD","streettype":null,"suffdir":null,"city":"NEW TAZEWELL","state_code":"TN","zip5":"37825","latitude":"36.4488390000000000","longitude":"-83.591300000000000","publicwifi":"U","url":null,"broadband_type_id":3}
{"id":null,"anchorname":"WALTERS STATE COMMUNITY COLLEGE","address":"907 MAIN STREET NEW TAZWELL, TN 37825","bldgnbr":"907","predir":null,"streetname":"MAIN STREET","streettype":null,"suffdir":null,"city":"NEW TAZWELL","state_code":"TN","zip5":"37825","latitude":"36.4424000000000000","longitude":"-83.597700000000000","publicwifi":"U","url":null,"broadband_type_id":6}
{"id":null,"anchorname":"SPRINGDALE VOLUNTEER FIRE DEPT","address":"1818 HIGHWAY 25 EAST SOUTH SPRINGDALE, TN 37879","bldgnbr":"1818","predir":null,"streetname":"HIGHWAY 25 EAST SOUTH","streettype":null,"suffdir":null,"city":"SPRINGDALE","state_code":"TN","zip5":"37879","latitude":"36.4247000000000000","longitude":"-83.528000000000000","publicwifi":"U","url":null,"broadband_type_id":5}
{"id":null,"anchorname":"CLAIBORNE COUNTY HEALTH DEPARTMENT","address":"620 DAVIS DRIVE TAZEWELL, TN 37879","bldgnbr":"620","predir":null,"streetname":"DAVIS DRIVE","streettype":null,"suffdir":null,"city":"TAZEWELL","state_code":"TN","zip5":"37879","latitude":"36.4401450000000000","longitude":"-83.581018000000000","publicwifi":"U","url":null,"broadband_type_id":3}
{"id":null,"anchorname":"ANTIOCH HIGH SCHOOL","address":"1900 HOBSON PK ANTIOCH, TN 37013","bldgnbr":"1900","predir":null,"streetname":"HOBSON PK","streettype":null,"suffdir":null,"city":"ANTIOCH","state_code":"TN","zip5":"37013","latitude":"36.0696180000000000","longitude":"-86.580654000000000","publicwifi":"U","url":null,"broadband_type_id":6}
{"id":null,"anchorname":"STAY WELL SERVICES, INC","address":"26-02 Broadway,Fair Lawn NJ 07410","bldgnbr":"26-02","predir":null,"streetname":"Broadway","streettype":null,"suffdir":null,"city":"Fair Lawn","state_code":"NJ","zip5":"07410","latitude":"40.9233400000000000","longitude":"-74.109222000000000","publicwifi":"U","url":null,"broadband_type_id":6}
{"id":null,"anchorname":"YCS FORT LEE EDUCATION CENTER","address":"2300 3rd St Fort Lee, NJ 07024-4016 United States","bldgnbr":"2300","predir":null,"streetname":"3rd St Fort Lee","streettype":null,"suffdir":null,"city":"Fort Lee","state_code":"NJ","zip5":"07024","latitude":"40.8632200000000000","longitude":"-73.964070000000000","publicwifi":"U","url":null,"broadband_type_id":6}
{"id":null,"anchorname":"JAMES LEE MD PA","address":"1608 Lemoine Ave Suite 201,Fort Lee NJ 07024","bldgnbr":"1608","predir":null,"streetname":"Lemoine Ave","streettype":null,"suffdir":null,"city":"Fort Lee","state_code":"NJ","zip5":"07024","latitude":"40.8491780000000000","longitude":"-73.970383000000000","publicwifi":"U","url":null,"broadband_type_id":6}
{"id":null,"anchorname":"MAPLE GROVE ELEMENTARY","address":"1077 CLEO JOHNSON RD ALLONS, TN 38541","bldgnbr":"1077","predir":null,"streetname":"CLEO JOHNSON RD","streettype":null,"suffdir":null,"city":"ALLONS","state_code":"TN","zip5":"38541","latitude":"36.5276550000000000","longitude":"-85.312719000000000","publicwifi":"U","url":null,"broadband_type_id":6}
{"id":null,"anchorname":"CLAY COUNTY EXTENSION","address":"145 CORDELL HULL DRIVE CELINA, TN 38551","bldgnbr":"145","predir":null,"streetname":"CORDELL HULL DRIVE","streettype":null,"suffdir":null,"city":"CELINA","state_code":"TN","zip5":"38551","latitude":"36.5548620000000000","longitude":"-85.506915000000000","publicwifi":"U","url":null,"broadband_type_id":1}
{"id":null,"anchorname":"CLAY COUNTY MAYOR'S OFFICE","address":"145 CORDELL HULL DRIVE CELINA, TN 38551","bldgnbr":"145","predir":null,"streetname":"CORDELL HULL DRIVE","streettype":null,"suffdir":null,"city":"CELINA","state_code":"TN","zip5":"38551","latitude":"36.5543220000000000","longitude":"-85.506967000000000","publicwifi":"U","url":null,"broadband_type_id":1}
{"id":null,"anchorname":"CLAY COUNTY REGISTER OF DEED","address":"145 CORDELL HULL DRIVE CELINA, TN 38551","bldgnbr":"145","predir":null,"streetname":"CORDELL HULL DRIVE","streettype":null,"suffdir":null,"city":"CELINA","state_code":"TN","zip5":"38551","latitude":"36.5543220000000000","longitude":"-85.506967000000000","publicwifi":"U","url":null,"broadband_type_id":6}
{"id":null,"anchorname":"CLAY COUNTY OFFICE - DHS","address":"141 EAST LAKE AVENUE CELINA, TN 38551","bldgnbr":"141","predir":null,"streetname":"EAST LAKE AVENUE","streettype":null,"suffdir":null,"city":"CELINA","state_code":"TN","zip5":"38551","latitude":"36.5502750000000000","longitude":"-85.502967000000000","publicwifi":"U","url":null,"broadband_type_id":6}
{"id":null,"anchorname":"CLAY COUNTY UCHRA","address":"500 DOW AVENUE CELINA, TN 38551","bldgnbr":"500","predir":null,"streetname":"DOW AVENUE","streettype":null,"suffdir":null,"city":"CELINA","state_code":"TN","zip5":"38551","latitude":"36.5513820000000000","longitude":"-85.508318000000000","publicwifi":"U","url":null,"broadband_type_id":1}
{"id":null,"anchorname":"CLAY COUNTY ADULT EDUCATION","address":"520 BROWN STREET CELINA, TN 38551","bldgnbr":"520","predir":null,"streetname":"BROWN STREET","streettype":null,"suffdir":null,"city":"CELINA","state_code":"TN","zip5":"38551","latitude":"36.5493000000000000","longitude":"-85.505700000000000","publicwifi":"U","url":null,"broadband_type_id":6}
{"id":null,"anchorname":"CLAY COUNTY CHAMBER OF COMMERCE","address":"424 BROWN STREET CELINA, TN 38551","bldgnbr":"424","predir":null,"streetname":"BROWN STREET","streettype":null,"suffdir":null,"city":"CELINA","state_code":"TN","zip5":"38551","latitude":"36.5481100000000000","longitude":"-85.505457000000000","publicwifi":"U","url":null,"broadband_type_id":1}
{"id":null,"anchorname":"CELINA K-8","address":"1324 MITCHELL ST CELINA, TN 38551","bldgnbr":"1324","predir":null,"streetname":"MITCHELL ST","streettype":null,"suffdir":null,"city":"CELINA","state_code":"TN","zip5":"38551","latitude":"36.5395890000000000","longitude":"-85.506925000000000","publicwifi":"U","url":null,"broadband_type_id":null}
{"id":null,"anchorname":"CLAY COUNTY MANOR","address":"120 PITCOCK LANE CELINA, TN 38551","bldgnbr":"120","predir":null,"streetname":"PITCOCK LANE","streettype":null,"suffdir":null,"city":"CELINA","state_code":"TN","zip5":"38551","latitude":"36.5427100000000000","longitude":"-85.504600000000000","publicwifi":"U","url":null,"broadband_type_id":1}
{"id":null,"anchorname":"TDOT - CLAY COUNTY MAINTENANCE GARAGE","address":"2745 CLAY COUNTY HIGHWAY MOSS, TN 38575","bldgnbr":"2745","predir":null,"streetname":"CLAY COUNTY HIGHWAY","streettype":null,"suffdir":null,"city":"MOSS","state_code":"TN","zip5":"38575","latitude":"36.5920580000000000","longitude":"-85.603439000000000","publicwifi":"U","url":null,"broadband_type_id":1}
{"id":null,"anchorname":"CENTERVIEW ELEMENTARY","address":"2400 HWY 160 NEWPORT, TN 37821","bldgnbr":"2400","predir":null,"streetname":"HWY 160","streettype":null,"suffdir":null,"city":"NEWPORT","state_code":"TN","zip5":"37821","latitude":"36.0745620000000000","longitude":"-83.178603000000000","publicwifi":"U","url":null,"broadband_type_id":6}
{"id":null,"anchorname":"COCKE COUNTY EXTENSION","address":"360 EAST MAIN STREET NEWPORT, TN 37821","bldgnbr":"360","predir":null,"streetname":"EAST MAIN STREET","streettype":null,"suffdir":null,"city":"NEWPORT","state_code":"TN","zip5":"37821","latitude":"35.9679370000000000","longitude":"-83.183184000000000","publicwifi":"U","url":null,"broadband_type_id":1}
{"id":null,"anchorname":"COCKE COUNTY JAIL","address":"358 EAST MAIN STREET NEWPORT, TN 37821","bldgnbr":"358","predir":null,"streetname":"EAST MAIN STREET","streettype":null,"suffdir":null,"city":"NEWPORT","state_code":"TN","zip5":"37821","latitude":"35.9679370000000000","longitude":"-83.183184000000000","publicwifi":"U","url":null,"broadband_type_id":1}
{"id":null,"anchorname":"DCS - NEWPORT OFFICE","address":"615 W. BROADWAY NEWPORT, TN 37821","bldgnbr":"615","predir":null,"streetname":"W. BROADWAY","streettype":null,"suffdir":null,"city":"NEWPORT","state_code":"TN","zip5":"37821","latitude":"35.9722570000000000","longitude":"-83.212642000000000","publicwifi":"U","url":null,"broadband_type_id":null}
{"id":null,"anchorname":"CITY OF NEWPORT","address":"300 E. MAIN STREET NEWPORT, TN 37821","bldgnbr":"300","predir":null,"streetname":"E. MAIN STREET","streettype":null,"suffdir":null,"city":"NEWPORT","state_code":"TN","zip5":"37821","latitude":"35.9678730000000000","longitude":"-83.185472000000000","publicwifi":"U","url":null,"broadband_type_id":1}
{"id":null,"anchorname":"LABOR \u0026 WORKFORCE - NEWPORT","address":"440 EASTERN PLAZA WAY NEWPORT, TN 37821","bldgnbr":"440","predir":null,"streetname":"EASTERN PLAZA WAY","streettype":null,"suffdir":null,"city":"NEWPORT","state_code":"TN","zip5":"37821","latitude":"35.9666420000000000","longitude":"-83.181116000000000","publicwifi":"U","url":null,"broadband_type_id":4}
{"id":null,"anchorname":"CLAIBORNE HIGH SCHOOL","address":"815 DAVIS DR NEW TAZEWELL, TN 37825","bldgnbr":"815","predir":null,"streetname":"DAVIS DR","streettype":null,"suffdir":null,"city":"NEW TAZEWELL","state_code":"TN","zip5":"37825","latitude":"36.4367810000000000","longitude":"-83.576568000000000","publicwifi":"U","url":null,"broadband_type_id":6}
{"id":null,"anchorname":"EAST CLAY VOLUNTEER FIRE DEPT","address":"27 FIRE DEPT ROAD ALLONS, TN 38541","bldgnbr":"27","predir":null,"streetname":"FIRE DEPT ROAD","streettype":null,"suffdir":null,"city":"ALLONS","state_code":"TN","zip5":"38541","latitude":"36.5462000000000000","longitude":"-85.316600000000000","publicwifi":"U","url":null,"broadband_type_id":5}
{"id":null,"anchorname":"EAST 52 VOLUNTEER FIRE DEPT","address":"6120 LIVINGSTON HIGHWAY CELINA, TN 38551","bldgnbr":"6120","predir":null,"streetname":"LIVINGSTON HIGHWAY","streettype":null,"suffdir":null,"city":"CELINA","state_code":"TN","zip5":"38551","latitude":"36.5070000000000000","longitude":"-85.444400000000000","publicwifi":"U","url":null,"broadband_type_id":5}
{"id":null,"anchorname":"BAPTIST RIDGE VOLUNTEER FIRE DEPT","address":"28 OIL HOLLOW ROAD HILHAM, TN 38568","bldgnbr":"28","predir":null,"streetname":"OIL HOLLOW ROAD","streettype":null,"suffdir":null,"city":"HILHAM","state_code":"TN","zip5":"38568","latitude":"36.4837000000000000","longitude":"-85.508500000000000","publicwifi":"U","url":null,"broadband_type_id":5}
{"id":null,"anchorname":"CELINA FIRE DEPARTMENT","address":"211 GREEN STREET CELINA, TN 38551","bldgnbr":"211","predir":null,"streetname":"GREEN STREET","streettype":null,"suffdir":null,"city":"CELINA","state_code":"TN","zip5":"38551","latitude":"36.5512000000000000","longitude":"-85.506600000000000","publicwifi":"U","url":null,"broadband_type_id":5}
{"id":null,"anchorname":"CLAY COUNTY COURTHOUSE","address":"100 COURTHOUSE SQUARE CELINA, TN 38551","bldgnbr":"100","predir":null,"streetname":"COURTHOUSE SQUARE","streettype":null,"suffdir":null,"city":"CELINA","state_code":"TN","zip5":"38551","latitude":"36.5503490000000000","longitude":"-85.506425000000000","publicwifi":"U","url":null,"broadband_type_id":1}
{"id":null,"anchorname":"CLAY COUNTY HEALTH DEPARTMENT","address":"115 GUFFEY STREET CELINA, TN 38551","bldgnbr":"115","predir":null,"streetname":"GUFFEY STREET","streettype":null,"suffdir":null,"city":"CELINA","state_code":"TN","zip5":"38551","latitude":"36.5480810000000000","longitude":"-85.507059000000000","publicwifi":"U","url":null,"broadband_type_id":3}
{"id":null,"anchorname":"CLAY CO ADULT HIGH SCHOOL","address":"520 BROWN ST CELINA, TN 38551","bldgnbr":"520","predir":null,"streetname":"BROWN ST","streettype":null,"suffdir":null,"city":"CELINA","state_code":"TN","zip5":"38551","latitude":"36.5438130000000000","longitude":"-85.503339000000000","publicwifi":"U","url":null,"broadband_type_id":6}
{"id":null,"anchorname":"CLAY COUNTY HIGH SCHOOL","address":"1102 CLAY COUNTY HW CELINA, TN 38551","bldgnbr":"1102","predir":null,"streetname":"CLAY COUNTY HW","streettype":null,"suffdir":null,"city":"CELINA","state_code":"TN","zip5":"38551","latitude":"36.5556230000000000","longitude":"-85.516399000000000","publicwifi":"U","url":null,"broadband_type_id":6}
{"id":null,"anchorname":"HERMITAGE SPRINGS ELEMENTARY SCHOOL","address":"6000 CLAY COUNTY HW RED BOILING SPRINGS, TN 37150","bldgnbr":"6000","predir":null,"streetname":"CLAY COUNTY HW","streettype":null,"suffdir":null,"city":"RED BOILING SPRINGS","state_code":"TN","zip5":"37150","latitude":"36.5780700000000000","longitude":"-85.779003000000000","publicwifi":"U","url":null,"broadband_type_id":6}
{"id":null,"anchorname":"HERMITAGE SPRINGS VOLUNTEER FIRE DEPT","address":"5825 CLAY COUNTY HWY RED BOILING SPRINGS, TN 37150","bldgnbr":"5825","predir":null,"streetname":"CLAY COUNTY HWY","streettype":null,"suffdir":null,"city":"RED BOILING SPRINGS","state_code":"TN","zip5":"37150","latitude":"36.5806000000000000","longitude":"-85.778600000000000","publicwifi":"U","url":null,"broadband_type_id":5}
{"id":null,"anchorname":"CENTERVIEW VOLUNTEER FIRE DEPT","address":"210 TURNER RIDGE ROAD NEWPORT, TN 37821","bldgnbr":"210","predir":null,"streetname":"TURNER RIDGE ROAD","streettype":null,"suffdir":null,"city":"NEWPORT","state_code":"TN","zip5":"37821","latitude":"36.0894000000000000","longitude":"-83.171900000000000","publicwifi":"U","url":null,"broadband_type_id":5}
{"id":null,"anchorname":"AOC - COURTHOUSE ANNEX - NEWPORT","address":"360 EAST MAIN STREET NEWPORT, TN 37821","bldgnbr":"360","predir":null,"streetname":"EAST MAIN STREET","streettype":null,"suffdir":null,"city":"NEWPORT","state_code":"TN","zip5":"37821","latitude":"35.9679370000000000","longitude":"-83.183184000000000","publicwifi":"U","url":null,"broadband_type_id":1}
{"id":null,"anchorname":"COCKE COUNTY COURTHOUSE - AOC","address":"111 COURT AVENUE NEWPORT, TN 37821","bldgnbr":"111","predir":null,"streetname":"COURT AVENUE","streettype":null,"suffdir":null,"city":"NEWPORT","state_code":"TN","zip5":"37821","latitude":"35.9670560000000000","longitude":"-83.184254000000000","publicwifi":"U","url":null,"broadband_type_id":1}
{"id":null,"anchorname":"TN CAREER CENTER - NEWPORT","address":"440 EASTERN PLAZA WAY NEWPORT, TN 37821","bldgnbr":"440","predir":null,"streetname":"EASTERN PLAZA WAY","streettype":null,"suffdir":null,"city":"NEWPORT","state_code":"TN","zip5":"37821","latitude":"35.9666000000000000","longitude":"-83.181100000000000","publicwifi":"U","url":null,"broadband_type_id":3}
{"id":null,"anchorname":"PARROTTSVILLE COMMUNITY LIBRARY","address":"2060 CANARY DRIVE PARROTTSVILLE, TN 37843-9999","bldgnbr":"2060","predir":null,"streetname":"CANARY DRIVE","streettype":null,"suffdir":null,"city":"PARROTTSVILLE","state_code":"TN","zip5":"37843","latitude":"36.0083130000000000","longitude":"-83.091185000000000","publicwifi":"U","url":null,"broadband_type_id":6}
{"id":null,"anchorname":"NORTH JERSEY FERTILITY ASSOCIATES LLC","address":"15-01 Broadway Suite 1,Fair Lawn NJ 07410","bldgnbr":"15-01","predir":null,"streetname":"Broadway","streettype":null,"suffdir":null,"city":"Fair Lawn","state_code":"NJ","zip5":"07410","latitude":"40.9208200000000000","longitude":"-74.119069000000000","publicwifi":"U","url":null,"broadband_type_id":6}
{"id":null,"anchorname":"CENTER PHARMACY","address":"251 Main St","bldgnbr":"251","predir":null,"streetname":"Main St","streettype":null,"suffdir":null,"city":"Fort Lee","state_code":"NJ","zip5":"07024","latitude":"40.8521046000000000","longitude":"-73.972194300000000","publicwifi":"U","url":null,"broadband_type_id":3}
{"id":null,"anchorname":"COCKE COUNTY ADULT EDUCATION","address":"241 HEDRICK DRIVE NEWPORT, TN 37821","bldgnbr":"241","predir":null,"streetname":"HEDRICK DRIVE","streettype":null,"suffdir":null,"city":"NEWPORT","state_code":"TN","zip5":"37821","latitude":"35.9626000000000000","longitude":"-83.199600000000000","publicwifi":"U","url":null,"broadband_type_id":6}
{"id":null,"anchorname":"BRIDGEPORT ELEMENTARY","address":"1935 EDWINA BRIDGEPORT RD NEWPORT, TN 37821","bldgnbr":"1935","predir":null,"streetname":"EDWINA BRIDGEPORT RD","streettype":null,"suffdir":null,"city":"NEWPORT","state_code":"TN","zip5":"37821","latitude":"35.9147800000000000","longitude":"-83.163241000000000","publicwifi":"U","url":null,"broadband_type_id":6}
{"id":null,"anchorname":"COCKE COUNTY THP OFFICE","address":"1052 COSBY HIGHWAY NEWPORT, TN 37821","bldgnbr":"1052","predir":null,"streetname":"COSBY HIGHWAY","streettype":null,"suffdir":null,"city":"NEWPORT","state_code":"TN","zip5":"37821","latitude":"35.9443480000000000","longitude":"-83.206027000000000","publicwifi":"U","url":null,"broadband_type_id":1}
{"id":null,"anchorname":"TDOT REG 1 DISTRICT 13 (OLD BLDG) NEWPORT","address":"1050 COSBY HIGHWAY NEWPORT, TN 37821","bldgnbr":"1050","predir":null,"streetname":"COSBY HIGHWAY","streettype":null,"suffdir":null,"city":"NEWPORT","state_code":"TN","zip5":"37821","latitude":"35.9444140000000000","longitude":"-83.206105000000000","publicwifi":"U","url":null,"broadband_type_id":6}
{"id":null,"anchorname":"COCKE COUNTY E-911 CENTER","address":"145 MINERAL STREET NEWPORT, TN 37821","bldgnbr":"145","predir":null,"streetname":"MINERAL STREET","streettype":null,"suffdir":null,"city":"NEWPORT","state_code":"TN","zip5":"37821","latitude":"35.9592050000000000","longitude":"-83.193284000000000","publicwifi":"U","url":null,"broadband_type_id":1}
{"id":null,"anchorname":"COCKE COUNTY OFFICE - DHS","address":"330 HERITAGE BOULEVARD NEWPORT, TN 37821","bldgnbr":"330","predir":null,"streetname":"HERITAGE BOULEVARD","streettype":null,"suffdir":null,"city":"NEWPORT","state_code":"TN","zip5":"37821","latitude":"35.9462730000000000","longitude":"-83.199570000000000","publicwifi":"U","url":null,"broadband_type_id":6}
{"id":null,"anchorname":"DISTRICT PUBLIC DEFENDER - NEWPORT","address":"325 EAST BROADWAY NEWPORT, TN 37821","bldgnbr":"325","predir":null,"streetname":"EAST BROADWAY","streettype":null,"suffdir":null,"city":"NEWPORT","state_code":"TN","zip5":"37821","latitude":"35.9664990000000000","longitude":"-83.185343000000000","publicwifi":"U","url":null,"broadband_type_id":6}
{"id":null,"anchorname":"CLAIMS COMMISSION OFFICE - NEWPORT","address":"307 EAST BROADWAY NEWPORT, TN 37821","bldgnbr":"307","predir":null,"streetname":"EAST BROADWAY","streettype":null,"suffdir":null,"city":"NEWPORT","state_code":"TN","zip5":"37821","latitude":"35.9665970000000000","longitude":"-83.185990000000000","publicwifi":"U","url":null,"broadband_type_id":6}
{"id":null,"anchorname":"DCS - NEWPORT OFFICE","address":"355 EAST BROADWAY NEWPORT, TN 37821","bldgnbr":"355","predir":null,"streetname":"EAST BROADWAY","streettype":null,"suffdir":null,"city":"NEWPORT","state_code":"TN","zip5":"37821","latitude":"35.9662830000000000","longitude":"-83.184614000000000","publicwifi":"U","url":null,"broadband_type_id":null}
{"id":null,"anchorname":"BAPTIST COVALESCENT CENTER","address":"450 COLLEGE STREET NEWPORT, TN 37821","bldgnbr":"450","predir":null,"streetname":"COLLEGE STREET","streettype":null,"suffdir":null,"city":"NEWPORT","state_code":"TN","zip5":"37821","latitude":"35.9631950000000000","longitude":"-83.185100000000000","publicwifi":"U","url":null,"broadband_type_id":6}
{"id":null,"anchorname":"GRASSY FORK ELEMENTARY","address":"4120 BIG CREEK RD HARTFORD, TN 37753","bldgnbr":"4120","predir":null,"streetname":"BIG CREEK RD","streettype":null,"suffdir":null,"city":"HARTFORD","state_code":"TN","zip5":"37753","latitude":"35.8327180000000000","longitude":"-83.096727000000000","publicwifi":"U","url":null,"broadband_type_id":6}
{"id":null,"anchorname":"DA GENERAL OFFICE - NEWPORT","address":"355 EAST BROADWAY NEWPORT, TN 37821","bldgnbr":"355","predir":null,"streetname":"EAST BROADWAY","streettype":null,"suffdir":null,"city":"NEWPORT","state_code":"TN","zip5":"37821","latitude":"35.9666240000000000","longitude":"-83.187519000000000","publicwifi":"U","url":null,"broadband_type_id":null}
{"id":null,"anchorname":"SMOKY MOUNTAIN ELEMENTARY","address":"135 SOUTH 32 HW COSBY, TN 37722","bldgnbr":"135","predir":null,"streetname":"SOUTH 32 HW","streettype":null,"suffdir":null,"city":"COSBY","state_code":"TN","zip5":"37722","latitude":"35.7910430000000000","longitude":"-83.235257000000000","publicwifi":"U","url":null,"broadband_type_id":2}
{"id":null,"anchorname":"COSBY ELEMENTARY","address":"3320 COSBY HW COSBY, TN 37722","bldgnbr":"3320","predir":null,"streetname":"COSBY HW","streettype":null,"suffdir":null,"city":"COSBY","state_code":"TN","zip5":"37722","latitude":"35.8535180000000000","longitude":"-83.217348000000000","publicwifi":"U","url":null,"broadband_type_id":6}
{"id":null,"anchorname":"WELCOME CENTER - HARTFORD","address":"I-40 SE OF NEWPORT ON NC LINE HARTFORD, TN 37753","bldgnbr":"N/A","predir":null,"streetname":"N/A","streettype":null,"suffdir":null,"city":"HARTFORD","state_code":"TN","zip5":"37753","latitude":"35.7840580000000000","longitude":"-83.110459000000000","publicwifi":"U","url":null,"broadband_type_id":null}
{"id":null,"anchorname":"EAST COFFEE ELEMENTARY","address":"6264 MCMINNVILLE HW MANCHESTER, TN 37355","bldgnbr":"6264","predir":null,"streetname":"MCMINNVILLE HW","streettype":null,"suffdir":null,"city":"MANCHESTER","state_code":"TN","zip5":"37355","latitude":"35.5395260000000000","longitude":"-86.002914000000000","publicwifi":"U","url":null,"broadband_type_id":6}
{"id":null,"anchorname":"LAKEVIEW CHRISTIAN ACADEMY- DUCK RIVER","address":"1117 RHOTON'S CHAPEL RD MANCHESTER, TN 37355","bldgnbr":"1117","predir":null,"streetname":"RHOTON'S CHAPEL RD","streettype":null,"suffdir":null,"city":"MANCHESTER","state_code":"TN","zip5":"37355","latitude":"35.4788050000000000","longitude":"-86.214829000000000","publicwifi":"U","url":null,"broadband_type_id":6}
{"id":null,"anchorname":"DEL RIO VOLUNTEER FIRE DEPT","address":"482 SOUTH HIGHWAY 107 DEL RIO, TN 37727","bldgnbr":"482","predir":null,"streetname":"SOUTH HIGHWAY 107","streettype":null,"suffdir":null,"city":"DEL RIO","state_code":"TN","zip5":"37727","latitude":"35.9027000000000000","longitude":"-83.016700000000000","publicwifi":"U","url":null,"broadband_type_id":5}
{"id":null,"anchorname":"MARIE ELLISON MEMORIAL LIBRARY","address":"480 SOUTH HIGHWAY 107 DEL RIO, TN 37727","bldgnbr":"480","predir":null,"streetname":"SOUTH HIGHWAY 107","streettype":null,"suffdir":null,"city":"DEL RIO","state_code":"TN","zip5":"37727","latitude":"35.9035410000000000","longitude":"-83.017326000000000","publicwifi":"U","url":null,"broadband_type_id":6}
{"id":null,"anchorname":"COCKE CO HIGH SCHOOL","address":"216 HEDRICK DR NEWPORT, TN 37821","bldgnbr":"216","predir":null,"streetname":"HEDRICK DR","streettype":null,"suffdir":null,"city":"NEWPORT","state_code":"TN","zip5":"37821","latitude":"35.9632850000000000","longitude":"-83.199036000000000","publicwifi":"U","url":null,"broadband_type_id":6}
{"id":null,"anchorname":"COCKE COUNTY FIRE DEPT","address":"120 FAIRGROUND CIRCLE NEWPORT, TN 37821","bldgnbr":"120","predir":null,"streetname":"FAIRGROUND CIRCLE","streettype":null,"suffdir":null,"city":"NEWPORT","state_code":"TN","zip5":"37821","latitude":"35.9735000000000000","longitude":"-83.216300000000000","publicwifi":"U","url":null,"broadband_type_id":5}
{"id":null,"anchorname":"GRACE CHRISTIAN SCHOOL","address":"526 HIGHWAY 73 NEWPORT, TN 37821","bldgnbr":"526","predir":null,"streetname":"HIGHWAY 73","streettype":null,"suffdir":null,"city":"NEWPORT","state_code":"TN","zip5":"37821","latitude":"35.9383050000000000","longitude":"-83.174277000000000","publicwifi":"U","url":null,"broadband_type_id":6}
{"id":null,"anchorname":"COSBY VOLUNTEER FIRE DEPT","address":"3292 COSBY HWY COSBY, TN 37722","bldgnbr":"3292","predir":null,"streetname":"COSBY HWY","streettype":null,"suffdir":null,"city":"COSBY","state_code":"TN","zip5":"37722","latitude":"35.8427000000000000","longitude":"-83.223300000000000","publicwifi":"U","url":null,"broadband_type_id":5}
{"id":null,"anchorname":"BAPTIST HOSPITAL OF COCKE COUNTY","address":"435 SECOND STREET NEWPORT, TN 37821","bldgnbr":"435","predir":null,"streetname":"SECOND STREET","streettype":null,"suffdir":null,"city":"NEWPORT","state_code":"TN","zip5":"37821","latitude":"35.9650860000000000","longitude":"-83.182000000000000","publicwifi":"U","url":null,"broadband_type_id":3}
{"id":null,"anchorname":"RURAL MEDICAL SERVICES-NEWPORT CENTER","address":"207 MURRAY DRIVE NEWPORT, TN 37821","bldgnbr":"207","predir":null,"streetname":"MURRAY DRIVE","streettype":null,"suffdir":null,"city":"NEWPORT","state_code":"TN","zip5":"37821","latitude":"35.9657250000000000","longitude":"-83.182200000000000","publicwifi":"U","url":null,"broadband_type_id":3}
{"id":null,"anchorname":"STOKELY MEMORIAL LIBRARY","address":"383 EAST BROADWAY NEWPORT, TN 37821","bldgnbr":"383","predir":null,"streetname":"EAST BROADWAY","streettype":null,"suffdir":null,"city":"NEWPORT","state_code":"TN","zip5":"37821","latitude":"35.9661210000000000","longitude":"-83.182241000000000","publicwifi":"U","url":null,"broadband_type_id":6}
{"id":null,"anchorname":"COCKE COUNTY HEALTH DEPARTMENT","address":"430 COLLEGE STREET NEWPORT, TN 37821","bldgnbr":"430","predir":null,"streetname":"COLLEGE STREET","streettype":null,"suffdir":null,"city":"NEWPORT","state_code":"TN","zip5":"37821","latitude":"35.9644570000000000","longitude":"-83.183220000000000","publicwifi":"U","url":null,"broadband_type_id":3}
{"id":null,"anchorname":"GRASSY FORK VOLUNTEER FIRE DEPT","address":"4110 BIG CREEK ROAD HARTFORD, TN 37753","bldgnbr":"4110","predir":null,"streetname":"BIG CREEK ROAD","streettype":null,"suffdir":null,"city":"HARTFORD","state_code":"TN","zip5":"37753","latitude":"35.8430000000000000","longitude":"-83.097400000000000","publicwifi":"U","url":null,"broadband_type_id":5}
{"id":null,"anchorname":"COSBY HIGH SCHOOL","address":"3318 COSBY HW COSBY, TN 37722","bldgnbr":"3318","predir":null,"streetname":"COSBY HW","streettype":null,"suffdir":null,"city":"COSBY","state_code":"TN","zip5":"37722","latitude":"35.8535830000000000","longitude":"-83.217369000000000","publicwifi":"U","url":null,"broadband_type_id":6}
{"id":null,"anchorname":"COSBY COMMUNITY LIBRARY","address":"3292 COSBY HIGHWAY COSBY, TN 37722","bldgnbr":"3292","predir":null,"streetname":"COSBY HIGHWAY","streettype":null,"suffdir":null,"city":"COSBY","state_code":"TN","zip5":"37722","latitude":"35.8426620000000000","longitude":"-83.223305000000000","publicwifi":"U","url":null,"broadband_type_id":6}
{"id":null,"anchorname":"RURAL MEDICAL SERVICE - BOGARD CENTER","address":"2920 COSBY HIGHWAY COSBY, TN 37821","bldgnbr":"2920","predir":null,"streetname":"COSBY HIGHWAY","streettype":null,"suffdir":null,"city":"COSBY","state_code":"TN","zip5":"37821","latitude":"35.8626900000000000","longitude":"-83.221400000000000","publicwifi":"U","url":null,"broadband_type_id":3}
{"id":null,"anchorname":"RURAL MEDICAL SERVICES COSBY","address":"103 WILTON SPRINGS ROAD NEWPORT, TN 37821","bldgnbr":"103","predir":null,"streetname":"WILTON SPRINGS ROAD","streettype":null,"suffdir":null,"city":"NEWPORT","state_code":"TN","zip5":"37821","latitude":"35.8717700000000000","longitude":"-83.223124000000000","publicwifi":"U","url":null,"broadband_type_id":3}
{"id":null,"anchorname":"SUMMITVILLE VOLUNTEER FIRE DEPT","address":"118 SCHOOL ROAD SUMMITVILLE, TN 37355","bldgnbr":"118","predir":null,"streetname":"SCHOOL ROAD","streettype":null,"suffdir":null,"city":"SUMMITVILLE","state_code":"TN","zip5":"37355","latitude":"35.5616000000000000","longitude":"-85.993500000000000","publicwifi":"U","url":null,"broadband_type_id":5}
{"id":null,"anchorname":"OLD STONE FORT STATE PARK GOLF COURSE","address":"1017 COUNTRY CLUB DRIVE MANCHESTER, TN 37355","bldgnbr":"1017","predir":null,"streetname":"COUNTRY CLUB DRIVE","streettype":null,"suffdir":null,"city":"MANCHESTER","state_code":"TN","zip5":"37355","latitude":"35.4869360000000000","longitude":"-86.117711000000000","publicwifi":"U","url":null,"broadband_type_id":2}
{"id":null,"anchorname":"NORTH JERSEY GI ASSOCIATES","address":"15-01 Broadway, Suite # 28, Second Floor,Fair Lawn NJ 07410-6003","bldgnbr":"15-01","predir":null,"streetname":"Broadway,","streettype":null,"suffdir":null,"city":"Fair Lawn","state_code":"NJ","zip5":"07410","latitude":"40.9208200000000000","longitude":"-74.119069000000000","publicwifi":"U","url":null,"broadband_type_id":6}
{"id":null,"anchorname":"NJ SUCCESS-DOL-BERGEN","address":"60 STATE ST,","bldgnbr":"60","predir":null,"streetname":"STATE ST","streettype":null,"suffdir":null,"city":"Hackensack","state_code":"NJ","zip5":"07601","latitude":"40.8803340000000000","longitude":"-74.046451000000000","publicwifi":"U","url":null,"broadband_type_id":6}
{"id":null,"anchorname":"COFFEE COUNTY ASSESSORS OFFICE","address":"1341 MCARTHUR DRIVE MANCHESTER, TN 37355","bldgnbr":"1341","predir":null,"streetname":"MCARTHUR DRIVE","streettype":null,"suffdir":null,"city":"MANCHESTER","state_code":"TN","zip5":"37355","latitude":"35.4610080000000000","longitude":"-86.089577000000000","publicwifi":"U","url":null,"broadband_type_id":6}
{"id":null,"anchorname":"COFFEE COUNTY EXTENSION","address":"1331 MCARTHUR DRIVE MANCHESTER, TN 37355","bldgnbr":"1331","predir":null,"streetname":"MCARTHUR DRIVE","streettype":null,"suffdir":null,"city":"MANCHESTER","state_code":"TN","zip5":"37355","latitude":"35.4614930000000000","longitude":"-86.089307000000000","publicwifi":"U","url":null,"broadband_type_id":1}
{"id":null,"anchorname":"COFFEE COUNTY GOVERNMENT","address":"1327 MCARTHUR STREET MANCHESTER, TN 37355","bldgnbr":"1327","predir":null,"streetname":"MCARTHUR STREET","streettype":null,"suffdir":null,"city":"MANCHESTER","state_code":"TN","zip5":"37355","latitude":"35.4604300000000000","longitude":"-86.089927000000000","publicwifi":"U","url":null,"broadband_type_id":1}
{"id":null,"anchorname":"RIVERVIEW ALTERNATIVE","address":"813 EMERSON ST MANCHESTER, TN 37355","bldgnbr":"813","predir":null,"streetname":"EMERSON ST","streettype":null,"suffdir":null,"city":"MANCHESTER","state_code":"TN","zip5":"37355","latitude":"35.4777810000000000","longitude":"-86.079570000000000","publicwifi":"U","url":null,"broadband_type_id":null}
{"id":null,"anchorname":"COFFEE COUNTY OFFICE - DHS","address":"55 ST. BEDES DRIVE MANCHESTER, TN 37355","bldgnbr":"55","predir":null,"streetname":"ST. BEDES DRIVE","streettype":null,"suffdir":null,"city":"MANCHESTER","state_code":"TN","zip5":"37355","latitude":"35.4839490000000000","longitude":"-86.076411000000000","publicwifi":"U","url":null,"broadband_type_id":6}
{"id":null,"anchorname":"DA GENERAL OFFICE - MANCHESTER","address":"409 MADISON STREET MANCHESTER, TN 37355","bldgnbr":"409","predir":null,"streetname":"MADISON STREET","streettype":null,"suffdir":null,"city":"MANCHESTER","state_code":"TN","zip5":"37355","latitude":"35.4794350000000000","longitude":"-86.083165000000000","publicwifi":"U","url":null,"broadband_type_id":6}
{"id":null,"anchorname":"MANCHESTER CSO","address":"320 MURFREESBORO HIGHWAY MANCHESTER, TN 37349","bldgnbr":"320","predir":null,"streetname":"MURFREESBORO HIGHWAY","streettype":null,"suffdir":null,"city":"MANCHESTER","state_code":"TN","zip5":"37349","latitude":"35.4836260000000000","longitude":"-86.089856000000000","publicwifi":"U","url":null,"broadband_type_id":6}
{"id":null,"anchorname":"CID OFFICE MANCHESTER","address":"101 WEST FORT STREET MANCHESTER, TN 37355","bldgnbr":"101","predir":null,"streetname":"WEST FORT STREET","streettype":null,"suffdir":null,"city":"MANCHESTER","state_code":"TN","zip5":"37355","latitude":"35.4835810000000000","longitude":"-86.088291000000000","publicwifi":"U","url":null,"broadband_type_id":6}
{"id":null,"anchorname":"MANCHESTER VOCATIONAL REHAB","address":"91 VOLUNTEER PARKWAY MANCHESTER, TN 37355","bldgnbr":"91","predir":null,"streetname":"VOLUNTEER PARKWAY","streettype":null,"suffdir":null,"city":"MANCHESTER","state_code":"TN","zip5":"37355","latitude":"35.4440730000000000","longitude":"-86.028531000000000","publicwifi":"U","url":null,"broadband_type_id":6}
{"id":null,"anchorname":"COFFEE SCALES EAST SIDE","address":"4610 INTERSTATE 24 MANCHESTER, TN 37355","bldgnbr":"4610","predir":null,"streetname":"INTERSTATE 24","streettype":null,"suffdir":null,"city":"MANCHESTER","state_code":"TN","zip5":"37355","latitude":"35.4332430000000000","longitude":"-86.030989000000000","publicwifi":"U","url":null,"broadband_type_id":6}
{"id":null,"anchorname":"HILLSBORO ELEMENTARY","address":"284 WINCHESTER HW HILLSBORO, TN 37342","bldgnbr":"284","predir":null,"streetname":"WINCHESTER HW","streettype":null,"suffdir":null,"city":"HILLSBORO","state_code":"TN","zip5":"37342","latitude":"35.4088860000000000","longitude":"-85.973161000000000","publicwifi":"U","url":null,"broadband_type_id":6}
{"id":null,"anchorname":"TDOT - COFFEE CO/HILLSBORO MAINTENANCE GARAGE","address":"248 AEDC ROAD HILLSBORO, TN 37342","bldgnbr":"248","predir":null,"streetname":"AEDC ROAD","streettype":null,"suffdir":null,"city":"HILLSBORO","state_code":"TN","zip5":"37342","latitude":"35.4334000000000000","longitude":"-86.012250000000000","publicwifi":"U","url":null,"broadband_type_id":null}
{"id":null,"anchorname":"ROBERT E LEE ELEMENTARY","address":"313 LAYNE ST TULLAHOMA, TN 37388","bldgnbr":"313","predir":null,"streetname":"LAYNE ST","streettype":null,"suffdir":null,"city":"TULLAHOMA","state_code":"TN","zip5":"37388","latitude":"35.3779390000000000","longitude":"-86.216381000000000","publicwifi":"U","url":null,"broadband_type_id":6}
{"id":null,"anchorname":"EAST LINCOLN ELEMENTARY","address":"700 EAST LINCOLN ST TULLAHOMA, TN 37388","bldgnbr":"700","predir":null,"streetname":"EAST LINCOLN ST","streettype":null,"suffdir":null,"city":"TULLAHOMA","state_code":"TN","zip5":"37388","latitude":"35.3682650000000000","longitude":"-86.200661000000000","publicwifi":"U","url":null,"broadband_type_id":6}
{"id":null,"anchorname":"TULLAHOMA SURGERY CENTER, LLC","address":"725 KINGS LANE TULLAHOMA, TN 37388","bldgnbr":"725","predir":null,"streetname":"KINGS LANE","streettype":null,"suffdir":null,"city":"TULLAHOMA","state_code":"TN","zip5":"37388","latitude":"35.3831800000000000","longitude":"-86.222623000000000","publicwifi":"U","url":null,"broadband_type_id":null}
{"id":null,"anchorname":"CENTER FOR DAY SURGERY","address":"1821 N. WASHINGTON TULLAHOMA, TN 37388","bldgnbr":"1821","predir":null,"streetname":"N. WASHINGTON","streettype":null,"suffdir":null,"city":"TULLAHOMA","state_code":"TN","zip5":"37388","latitude":"35.3831810000000000","longitude":"-86.226000000000000","publicwifi":"U","url":null,"broadband_type_id":null}
{"id":null,"anchorname":"DISTRICT PUBLIC DEFENDER - TULLAHOMA","address":"1950 NORTH JACKSON STREET TULLAHOMA, TN 37388","bldgnbr":"1950","predir":null,"streetname":"NORTH JACKSON STREET","streettype":null,"suffdir":null,"city":"TULLAHOMA","state_code":"TN","zip5":"37388","latitude":"35.3867510000000000","longitude":"-86.233649000000000","publicwifi":"U","url":null,"broadband_type_id":6}
{"id":null,"anchorname":"HICKERSON ELEMENTARY","address":"5017 OLD MANCHESTER HW TULLAHOMA, TN 37388","bldgnbr":"5017","predir":null,"streetname":"OLD MANCHESTER HW","streettype":null,"suffdir":null,"city":"TULLAHOMA","state_code":"TN","zip5":"37388","latitude":"35.3981250000000000","longitude":"-86.143038000000000","publicwifi":"U","url":null,"broadband_type_id":6}
{"id":null,"anchorname":"INMAN GROUP HOME","address":"264 HAWKERSMITH RD TULLAHOMA, TN 37388","bldgnbr":"264","predir":null,"streetname":"HAWKERSMITH RD","streettype":null,"suffdir":null,"city":"TULLAHOMA","state_code":"TN","zip5":"37388","latitude":"35.3913910000000000","longitude":"-86.146863000000000","publicwifi":"U","url":null,"broadband_type_id":null}
{"id":null,"anchorname":"OLD STONE FORT STATE PARK OFFICE","address":"732 STONE FORT DRIVE MANCHESTER, TN 37355","bldgnbr":"732","predir":null,"streetname":"STONE FORT DRIVE","streettype":null,"suffdir":null,"city":"MANCHESTER","state_code":"TN","zip5":"37355","latitude":"35.4862150000000000","longitude":"-86.102007000000000","publicwifi":"U","url":null,"broadband_type_id":2}
{"id":null,"anchorname":"UNITED REGIONAL MEDICAL CENTER","address":"1001 MCARTHUR DRIVE MANCHESTER, TN 37355","bldgnbr":"1001","predir":null,"streetname":"MCARTHUR DRIVE","streettype":null,"suffdir":null,"city":"MANCHESTER","state_code":"TN","zip5":"37355","latitude":"35.4696660000000000","longitude":"-86.085100000000000","publicwifi":"U","url":null,"broadband_type_id":3}
{"id":null,"anchorname":"MANCHESTER FIRE AND RESCUE","address":"1509 HILLSBORO BLVD. MANCHESTER, TN 37355","bldgnbr":"1509","predir":null,"streetname":"HILLSBORO BLVD.","streettype":null,"suffdir":null,"city":"MANCHESTER","state_code":"TN","zip5":"37355","latitude":"35.4688000000000000","longitude":"-86.071800000000000","publicwifi":"U","url":null,"broadband_type_id":5}
{"id":null,"anchorname":"COFFEE COUNTY-MANCHESTER PUBLIC LIBRARY","address":"1005 HILLSBORO BLVD MANCHESTER, TN 37355","bldgnbr":"1005","predir":null,"streetname":"HILLSBORO BLVD","streettype":null,"suffdir":null,"city":"MANCHESTER","state_code":"TN","zip5":"37355","latitude":"35.4735990000000000","longitude":"-86.077902000000000","publicwifi":"U","url":null,"broadband_type_id":6}
{"id":null,"anchorname":"COFFEE COUNTY HEALTH DEPARTMENT","address":"800 PARK STREET MANCHESTER, TN 37355","bldgnbr":"800","predir":null,"streetname":"PARK STREET","streettype":null,"suffdir":null,"city":"MANCHESTER","state_code":"TN","zip5":"37355","latitude":"35.4694700000000000","longitude":"-86.082841000000000","publicwifi":"U","url":null,"broadband_type_id":3}
{"id":null,"anchorname":"MANCHESTER HEALTHCARE CENTER","address":"395 INTERSTATE DRIVE MANCHESTER, TN 37355","bldgnbr":"395","predir":null,"streetname":"INTERSTATE DRIVE","streettype":null,"suffdir":null,"city":"MANCHESTER","state_code":"TN","zip5":"37355","latitude":"35.4990670000000000","longitude":"-86.080600000000000","publicwifi":"U","url":null,"broadband_type_id":3}
{"id":null,"anchorname":"COFFEE COUNTY MIDDLE SCHOOL","address":"865 MCMINNVILLE HW MANCHESTER, TN 37355","bldgnbr":"865","predir":null,"streetname":"MCMINNVILLE HW","streettype":null,"suffdir":null,"city":"MANCHESTER","state_code":"TN","zip5":"37355","latitude":"35.4931150000000000","longitude":"-86.072199000000000","publicwifi":"U","url":null,"broadband_type_id":6}
{"id":null,"anchorname":"COLLEGE STREET ELEMENTARY","address":"405 COLLEGE ST MANCHESTER, TN 37355","bldgnbr":"405","predir":null,"streetname":"COLLEGE ST","streettype":null,"suffdir":null,"city":"MANCHESTER","state_code":"TN","zip5":"37355","latitude":"35.4799510000000000","longitude":"-86.082641000000000","publicwifi":"U","url":null,"broadband_type_id":6}
{"id":null,"anchorname":"WESTWOOD JR HIGH SCHOOL","address":"505 TAYLOR ST MANCHESTER, TN 37355","bldgnbr":"505","predir":null,"streetname":"TAYLOR ST","streettype":null,"suffdir":null,"city":"MANCHESTER","state_code":"TN","zip5":"37355","latitude":"35.5036850000000000","longitude":"-86.026707000000000","publicwifi":"U","url":null,"broadband_type_id":6}
{"id":null,"anchorname":"HILLSBORO VOLUNTEER FIRE DEPT","address":"193 WINCHESTER HWY HILLSBORO, TN 37342","bldgnbr":"193","predir":null,"streetname":"WINCHESTER HWY","streettype":null,"suffdir":null,"city":"HILLSBORO","state_code":"TN","zip5":"37342","latitude":"35.4096000000000000","longitude":"-85.972700000000000","publicwifi":"U","url":null,"broadband_type_id":5}
{"id":null,"anchorname":"EAST MIDDLE SCHOOL","address":"908 COUNTRY CLUB DR TULLAHOMA, TN 37388","bldgnbr":"908","predir":null,"streetname":"COUNTRY CLUB DR","streettype":null,"suffdir":null,"city":"TULLAHOMA","state_code":"TN","zip5":"37388","latitude":"35.3789750000000000","longitude":"-86.204756000000000","publicwifi":"U","url":null,"broadband_type_id":6}
{"id":null,"anchorname":"TN CAREER CENTER - TULLAHOMA","address":"111 EAST LINCOLN STREET TULLAHOMA, TN 37388","bldgnbr":"111","predir":null,"streetname":"EAST LINCOLN STREET","streettype":null,"suffdir":null,"city":"TULLAHOMA","state_code":"TN","zip5":"37388","latitude":"35.3638000000000000","longitude":"-86.208400000000000","publicwifi":"U","url":null,"broadband_type_id":3}
{"id":null,"anchorname":"HICKERSON STATION VOLUNTEER FIRE DEPT","address":"4373 OLD MANCHESTER HIGHWAY TULLAHOMA, TN 37355","bldgnbr":"4373","predir":null,"streetname":"OLD MANCHESTER HIGHWAY","streettype":null,"suffdir":null,"city":"TULLAHOMA","state_code":"TN","zip5":"37355","latitude":"35.3955000000000000","longitude":"-86.146500000000000","publicwifi":"U","url":null,"broadband_type_id":5}
{"id":null,"anchorname":"COFFEE COUNTY E-911 CENTER","address":"911 JACK WELCH DRIVE MANCHESTER, TN 37355","bldgnbr":"911","predir":null,"streetname":"JACK WELCH DRIVE","streettype":null,"suffdir":null,"city":"MANCHESTER","state_code":"TN","zip5":"37355","latitude":"35.4160240000000000","longitude":"-86.115496000000000","publicwifi":"U","url":null,"broadband_type_id":1}
{"id":null,"anchorname":"INMAN GROUP HOME TULLAHOMA","address":"264 HAWKENSMITH ROAD TULLAHOMA, TN 37388","bldgnbr":"264","predir":null,"streetname":"HAWKENSMITH ROAD","streettype":null,"suffdir":null,"city":"TULLAHOMA","state_code":"TN","zip5":"37388","latitude":"35.3918150000000000","longitude":"-86.146598000000000","publicwifi":"U","url":null,"broadband_type_id":null}
{"id":null,"anchorname":"TN CORRECTIONS ACADEMY TULLAHOMA","address":"1314 SOUTH JACKSON STREET TULLAHOMA, TN 37388","bldgnbr":"1314","predir":null,"streetname":"SOUTH JACKSON STREET","streettype":null,"suffdir":null,"city":"TULLAHOMA","state_code":"TN","zip5":"37388","latitude":"35.3451930000000000","longitude":"-86.197739000000000","publicwifi":"U","url":null,"broadband_type_id":6}
{"id":null,"anchorname":"PALISADE SURGERY CENTER LLC","address":"1567 Palisade Ave Fort Lee, NJ 07024-6911 United States","bldgnbr":"1567","predir":null,"streetname":"Palisade Ave Fort Lee","streettype":null,"suffdir":null,"city":"Fort Lee","state_code":"NJ","zip5":"07024","latitude":"40.8478010000000000","longitude":"-73.969849000000000","publicwifi":"U","url":null,"broadband_type_id":6}
{"id":null,"anchorname":"TULLAHOMA TRAINING SITE","address":"400 INDUSTRIAL BOULEVARD TULLAHOMA, TN 37388","bldgnbr":"400","predir":null,"streetname":"INDUSTRIAL BOULEVARD","streettype":null,"suffdir":null,"city":"TULLAHOMA","state_code":"TN","zip5":"37388","latitude":"35.3680160000000000","longitude":"-86.180808000000000","publicwifi":"U","url":null,"broadband_type_id":null}
{"id":null,"anchorname":"TDOT ENG/BRIDGE INSP OFFICE TULLAHOMA","address":"1210 EAST CARROLL STREET TULLAHOMA, TN 37388","bldgnbr":"1210","predir":null,"streetname":"EAST CARROLL STREET","streettype":null,"suffdir":null,"city":"TULLAHOMA","state_code":"TN","zip5":"37388","latitude":"35.3645010000000000","longitude":"-86.192801000000000","publicwifi":"U","url":null,"broadband_type_id":null}
{"id":null,"anchorname":"COMPTROLLER OFFICE - TULLAHOMA","address":"110 MITCHELL BOULEVARD TULLAHOMA, TN 37388","bldgnbr":"110","predir":null,"streetname":"MITCHELL BOULEVARD","streettype":null,"suffdir":null,"city":"TULLAHOMA","state_code":"TN","zip5":"37388","latitude":"35.3612550000000000","longitude":"-86.194537000000000","publicwifi":"U","url":null,"broadband_type_id":null}
{"id":null,"anchorname":"PEDIATRIC SERVICES OF AMERICA, INC","address":"2 University Plaza, Suite 405,Hackensack NJ 07601","bldgnbr":"2","predir":null,"streetname":"University Plaza","streettype":null,"suffdir":null,"city":"Hackensack","state_code":"NJ","zip5":"07601","latitude":"40.8980110000000000","longitude":"-74.033742000000000","publicwifi":"U","url":null,"broadband_type_id":6}
{"id":null,"anchorname":"TULLAHOMA OFFICE - DCS","address":"151 FREEMAN STREET TULLAHOMA, TN 37388","bldgnbr":"151","predir":null,"streetname":"FREEMAN STREET","streettype":null,"suffdir":null,"city":"TULLAHOMA","state_code":"TN","zip5":"37388","latitude":"35.3710120000000000","longitude":"-86.185391000000000","publicwifi":"U","url":null,"broadband_type_id":null}
{"id":null,"anchorname":"CROWN SURGERY CENTER","address":"1956 NORTH JACKSON RD. TULLAHOMA, TN 37388","bldgnbr":"1956","predir":null,"streetname":"NORTH JACKSON RD.","streettype":null,"suffdir":null,"city":"TULLAHOMA","state_code":"TN","zip5":"37388","latitude":"35.3867240000000000","longitude":"-86.234200000000000","publicwifi":"U","url":null,"broadband_type_id":null}
{"id":null,"anchorname":"TULLAHOMA PEDIATRICS PLLC/ MANCHESTER PEDIATRICS","address":"1330 CEDAR LANE TULLAHOMA, TN 37388","bldgnbr":"1330","predir":null,"streetname":"CEDAR LANE","streettype":null,"suffdir":null,"city":"TULLAHOMA","state_code":"TN","zip5":"37388","latitude":"35.3776850000000000","longitude":"-86.230400000000000","publicwifi":"U","url":null,"broadband_type_id":6}
{"id":null,"anchorname":"HIGHLAND RIM CHRISTIAN ACADEMY","address":"1151 BEL AIRE DR TULLAHOMA, TN 37388","bldgnbr":"1151","predir":null,"streetname":"BEL AIRE DR","streettype":null,"suffdir":null,"city":"TULLAHOMA","state_code":"TN","zip5":"37388","latitude":"35.3581010000000000","longitude":"-86.227800000000000","publicwifi":"U","url":null,"broadband_type_id":6}
{"id":null,"anchorname":"JACK T FARRAR ELEMENTARY","address":"215 WESTSIDE DR TULLAHOMA, TN 37388","bldgnbr":"215","predir":null,"streetname":"WESTSIDE DR","streettype":null,"suffdir":null,"city":"TULLAHOMA","state_code":"TN","zip5":"37388","latitude":"35.3540670000000000","longitude":"-86.218356000000000","publicwifi":"U","url":null,"broadband_type_id":6}
{"id":null,"anchorname":"TULLAHOMA SCHRA OFFICE","address":"414 WILSON AVENUE TULLAHOMA, TN 37388","bldgnbr":"414","predir":null,"streetname":"WILSON AVENUE","streettype":null,"suffdir":null,"city":"TULLAHOMA","state_code":"TN","zip5":"37388","latitude":"35.3665610000000000","longitude":"-86.220563000000000","publicwifi":"U","url":null,"broadband_type_id":null}
{"id":null,"anchorname":"TULLAHOMA P \u0026 P OFFICE","address":"630 WILSON AVENUE TULLAHOMA, TN 37388","bldgnbr":"630","predir":null,"streetname":"WILSON AVENUE","streettype":null,"suffdir":null,"city":"TULLAHOMA","state_code":"TN","zip5":"37388","latitude":"35.3659130000000000","longitude":"-86.224934000000000","publicwifi":"U","url":null,"broadband_type_id":null}
{"id":null,"anchorname":"BEL AIRE ELEMENTARY","address":"500 STONE BLVD TULLAHOMA, TN 37388","bldgnbr":"500","predir":null,"streetname":"STONE BLVD","streettype":null,"suffdir":null,"city":"TULLAHOMA","state_code":"TN","zip5":"37388","latitude":"35.3596620000000000","longitude":"-86.230086000000000","publicwifi":"U","url":null,"broadband_type_id":6}
{"id":null,"anchorname":"ATA SECURITY FORCES ARNOLD AFB","address":"251 VON KARMAN ROAD ARNOLD AFB, TN 37389","bldgnbr":"251","predir":null,"streetname":"VON KARMAN ROAD","streettype":null,"suffdir":null,"city":"ARNOLD AFB","state_code":"TN","zip5":"37389","latitude":"35.3785940000000000","longitude":"-86.049606000000000","publicwifi":"U","url":null,"broadband_type_id":4}
{"id":null,"anchorname":"GADSDEN ELEMENTARY","address":"18989 HIGHWAY 79 GADSDEN, TN 38337","bldgnbr":"18989","predir":null,"streetname":"HIGHWAY 79","streettype":null,"suffdir":null,"city":"GADSDEN","state_code":"TN","zip5":"38337","latitude":"35.7807410000000000","longitude":"-88.985751000000000","publicwifi":"U","url":null,"broadband_type_id":6}
{"id":null,"anchorname":"CROCKETT COUNTY THP OFFICE","address":"228 EAST CHURCH STREET ALAMO, TN 38001","bldgnbr":"228","predir":null,"streetname":"EAST CHURCH STREET","streettype":null,"suffdir":null,"city":"ALAMO","state_code":"TN","zip5":"38001","latitude":"35.7870390000000000","longitude":"-89.114159000000000","publicwifi":"U","url":null,"broadband_type_id":1}
{"id":null,"anchorname":"CROCKETT COUNTY ASSESSORS OFFICE","address":"1 SOUTH BELLS STREET ALAMO, TN 38001","bldgnbr":"1","predir":null,"streetname":"SOUTH BELLS STREET","streettype":null,"suffdir":null,"city":"ALAMO","state_code":"TN","zip5":"38001","latitude":"35.7846200000000000","longitude":"-89.117639000000000","publicwifi":"U","url":null,"broadband_type_id":6}
{"id":null,"anchorname":"CROCKETT COUNTY OFFICE - DHS","address":"169 NORTH CHERRY STREET ALAMO, TN 38001","bldgnbr":"169","predir":null,"streetname":"NORTH CHERRY STREET","streettype":null,"suffdir":null,"city":"ALAMO","state_code":"TN","zip5":"38001","latitude":"35.7864450000000000","longitude":"-89.113269000000000","publicwifi":"U","url":null,"broadband_type_id":6}
{"id":null,"anchorname":"ALAMO ELEMENTARY","address":"264 EAST PARK STREET ALAMO, TN 38001","bldgnbr":"264","predir":null,"streetname":"EAST PARK STREET","streettype":null,"suffdir":null,"city":"ALAMO","state_code":"TN","zip5":"38001","latitude":"35.7834800000000000","longitude":"-89.112722000000000","publicwifi":"U","url":null,"broadband_type_id":6}
{"id":null,"anchorname":"TULLAHOMA FIRE DEPT","address":"613 SOUTH JACKSON TULLAHOMA, TN 37388","bldgnbr":"613","predir":null,"streetname":"SOUTH JACKSON","streettype":null,"suffdir":null,"city":"TULLAHOMA","state_code":"TN","zip5":"37388","latitude":"35.3555000000000000","longitude":"-86.205100000000000","publicwifi":"U","url":null,"broadband_type_id":5}
{"id":null,"anchorname":"HARTON REGIONAL MEDICAL CENTER","address":"1801 NORTH JACKSON STREET TULLAHOMA, TN 37388","bldgnbr":"1801","predir":null,"streetname":"NORTH JACKSON STREET","streettype":null,"suffdir":null,"city":"TULLAHOMA","state_code":"TN","zip5":"37388","latitude":"35.3833800000000000","longitude":"-86.231400000000000","publicwifi":"U","url":null,"broadband_type_id":3}
{"id":null,"anchorname":"LIFE CARE CENTER OF TULLAHOMA","address":"1715 NORTH JACKSON STREET TULLAHOMA, TN 37388","bldgnbr":"1715","predir":null,"streetname":"NORTH JACKSON STREET","streettype":null,"suffdir":null,"city":"TULLAHOMA","state_code":"TN","zip5":"37388","latitude":"35.3839270000000000","longitude":"-86.231700000000000","publicwifi":"U","url":null,"broadband_type_id":3}
{"id":null,"anchorname":"TULLAHOMA HIGH SCHOOL","address":"1001 NORTH JACKSON ST TULLAHOMA, TN 37388","bldgnbr":"1001","predir":null,"streetname":"NORTH JACKSON ST","streettype":null,"suffdir":null,"city":"TULLAHOMA","state_code":"TN","zip5":"37388","latitude":"35.3719670000000000","longitude":"-86.220692000000000","publicwifi":"U","url":null,"broadband_type_id":6}
{"id":null,"anchorname":"ST. PAUL THE APOSTLE SCHOOL","address":"306 WEST GRIZZARD ST TULLAHOMA, TN 37388","bldgnbr":"306","predir":null,"streetname":"WEST GRIZZARD ST","streettype":null,"suffdir":null,"city":"TULLAHOMA","state_code":"TN","zip5":"37388","latitude":"35.3640480000000000","longitude":"-86.215454000000000","publicwifi":"U","url":null,"broadband_type_id":6}
{"id":null,"anchorname":"COFFEE COUNTY HEALTH DEPARTMENT","address":"615 WILSON AVENUE TULLAHOMA, TN 37388","bldgnbr":"615","predir":null,"streetname":"WILSON AVENUE","streettype":null,"suffdir":null,"city":"TULLAHOMA","state_code":"TN","zip5":"37388","latitude":"35.3650500000000000","longitude":"-86.224547000000000","publicwifi":"U","url":null,"broadband_type_id":3}
{"id":null,"anchorname":"TULLAHOMA HEALTH CENTER","address":"321 NORTH COLLINS TULLAHOMA, TN 37388","bldgnbr":"321","predir":null,"streetname":"NORTH COLLINS","streettype":null,"suffdir":null,"city":"TULLAHOMA","state_code":"TN","zip5":"37388","latitude":"35.3604190000000000","longitude":"-86.219000000000000","publicwifi":"U","url":null,"broadband_type_id":3}
{"id":null,"anchorname":"AEDC FIRE DEPT","address":"251 VON KARMAN ROAD ARNOLD AFB, TN 37389","bldgnbr":"251","predir":null,"streetname":"VON KARMAN ROAD","streettype":null,"suffdir":null,"city":"ARNOLD AFB","state_code":"TN","zip5":"37389","latitude":"35.3785000000000000","longitude":"-86.047000000000000","publicwifi":"U","url":null,"broadband_type_id":5}
{"id":null,"anchorname":"GADSDEN VOLUNTEER FIRE DEPT","address":"229 HIGH STREET GADSDEN, TN 38337","bldgnbr":"229","predir":null,"streetname":"HIGH STREET","streettype":null,"suffdir":null,"city":"GADSDEN","state_code":"TN","zip5":"38337","latitude":"35.7795000000000000","longitude":"-88.991100000000000","publicwifi":"U","url":null,"broadband_type_id":5}
{"id":null,"anchorname":"CROCKETT COUNTY SHERIFF OFFICE","address":"884 CAVALIER DRIVE ALAMO, TN 38001","bldgnbr":"884","predir":null,"streetname":"CAVALIER DRIVE","streettype":null,"suffdir":null,"city":"ALAMO","state_code":"TN","zip5":"38001","latitude":"35.8037930000000000","longitude":"-89.152524000000000","publicwifi":"U","url":null,"broadband_type_id":4}
{"id":null,"anchorname":"CROCKETT COUNTY HIGH SCHOOL","address":"2014 HIGHWAY 88 ALAMO, TN 38001","bldgnbr":"2014","predir":null,"streetname":"HIGHWAY 88","streettype":null,"suffdir":null,"city":"ALAMO","state_code":"TN","zip5":"38001","latitude":"35.7936150000000000","longitude":"-89.148916000000000","publicwifi":"U","url":null,"broadband_type_id":6}
{"id":null,"anchorname":"CROCKETT COUNTY HEALTH DEPT","address":"228 EAST CHURCH STREET ALAMO, TN 38001","bldgnbr":"228","predir":null,"streetname":"EAST CHURCH STREET","streettype":null,"suffdir":null,"city":"ALAMO","state_code":"TN","zip5":"38001","latitude":"35.7866190000000000","longitude":"-89.114300000000000","publicwifi":"U","url":null,"broadband_type_id":3}
{"id":null,"anchorname":"CROCKETT COUNTY LIBRARY","address":"258 EAST CHURCH STREET ALAMO, TN 38001","bldgnbr":"258","predir":null,"streetname":"EAST CHURCH STREET","streettype":null,"suffdir":null,"city":"ALAMO","state_code":"TN","zip5":"38001","latitude":"35.7865600000000000","longitude":"-89.113758000000000","publicwifi":"U","url":null,"broadband_type_id":6}
{"id":null,"anchorname":"CROCKETT COUNTY NURSING HOME, INC.","address":"580 WEST MAIN STREET ALAMO, TN 38001","bldgnbr":"580","predir":null,"streetname":"WEST MAIN STREET","streettype":null,"suffdir":null,"city":"ALAMO","state_code":"TN","zip5":"38001","latitude":"35.7853650000000000","longitude":"-89.127800000000000","publicwifi":"U","url":null,"broadband_type_id":3}
{"id":null,"anchorname":"CROCKETT COUNTY MIDDLE SCHOOL","address":"497 NORTH CAVALIER DR ALAMO, TN 38001","bldgnbr":"497","predir":null,"streetname":"NORTH CAVALIER DR","streettype":null,"suffdir":null,"city":"ALAMO","state_code":"TN","zip5":"38001","latitude":"35.7888480000000000","longitude":"-89.139753000000000","publicwifi":"U","url":null,"broadband_type_id":6}
{"id":null,"anchorname":"CROSSVILLE JUDICAL COUNCIL COURT","address":"2 NORTH MAIN STREET CROSSVILLE, TN 38555","bldgnbr":"2","predir":null,"streetname":"NORTH MAIN STREET","streettype":null,"suffdir":null,"city":"CROSSVILLE","state_code":"TN","zip5":"38555","latitude":"35.9491150000000000","longitude":"-85.026642000000000","publicwifi":"U","url":null,"broadband_type_id":1}
{"id":null,"anchorname":"CANCER CENTER AT FRANKLIN LAKES","address":"795 Franklin Avenue,Franklin Lakes NJ 07417","bldgnbr":"795","predir":null,"streetname":"Franklin Avenue","streettype":null,"suffdir":null,"city":"Franklin Lakes","state_code":"NJ","zip5":"07417","latitude":"41.0218090000000000","longitude":"-74.206322000000000","publicwifi":"U","url":null,"broadband_type_id":6}
{"id":null,"anchorname":"TDOT - CROCKETT COUNTY MAINTENANCE GARAGE","address":"2146 HIGHWAY 88 ALAMO, TN 38001","bldgnbr":"2146","predir":null,"streetname":"HIGHWAY 88","streettype":null,"suffdir":null,"city":"ALAMO","state_code":"TN","zip5":"38001","latitude":"35.8005260000000000","longitude":"-89.172714000000000","publicwifi":"U","url":null,"broadband_type_id":1}
{"id":null,"anchorname":"CROCKETT COUNTY ADULT EDUCATION","address":"151 CONLEY ROAD ALAMO, TN 38001","bldgnbr":"151","predir":null,"streetname":"CONLEY ROAD","streettype":null,"suffdir":null,"city":"ALAMO","state_code":"TN","zip5":"38001","latitude":"35.7768000000000000","longitude":"-89.119400000000000","publicwifi":"U","url":null,"broadband_type_id":6}
{"id":null,"anchorname":"NORTHWEST TN HEADSTART - CROCKETT","address":"151 CONLEY ROAD ALAMO, TN 38391","bldgnbr":"151","predir":null,"streetname":"CONLEY ROAD","streettype":null,"suffdir":null,"city":"ALAMO","state_code":"TN","zip5":"38391","latitude":"35.7765930000000000","longitude":"-89.119495000000000","publicwifi":"U","url":null,"broadband_type_id":6}
{"id":null,"anchorname":"FRIENDSHIP ELEMENTARY","address":"6117 HIGHWAY 189 FRIENDSHIP, TN 38034","bldgnbr":"6117","predir":null,"streetname":"HIGHWAY 189","streettype":null,"suffdir":null,"city":"FRIENDSHIP","state_code":"TN","zip5":"38034","latitude":"35.8340270000000000","longitude":"-89.218175000000000","publicwifi":"U","url":null,"broadband_type_id":6}
{"id":null,"anchorname":"CITY OF BELLS, TENNESSEE","address":"12987 HWY 79 BELLS, TN 38006","bldgnbr":"12987","predir":null,"streetname":"HWY 79","streettype":null,"suffdir":null,"city":"BELLS","state_code":"TN","zip5":"38006","latitude":"35.7210700000000000","longitude":"-89.072154000000000","publicwifi":"U","url":null,"broadband_type_id":6}
{"id":null,"anchorname":"BELLS ELEMENTARY","address":"4532 HIGHWAY 88 SOUTH BELLS, TN 38006","bldgnbr":"4532","predir":null,"streetname":"HIGHWAY 88 SOUTH","streettype":null,"suffdir":null,"city":"BELLS","state_code":"TN","zip5":"38006","latitude":"35.7310560000000000","longitude":"-89.093453000000000","publicwifi":"U","url":null,"broadband_type_id":6}
{"id":null,"anchorname":"LIBERTY CHRISTIAN ACADEMY","address":"4158 TABOR LOOP CROSSVILLE, TN 38571","bldgnbr":"4158","predir":null,"streetname":"TABOR LOOP","streettype":null,"suffdir":null,"city":"CROSSVILLE","state_code":"TN","zip5":"38571","latitude":"36.0291300000000000","longitude":"-85.046442000000000","publicwifi":"U","url":null,"broadband_type_id":6}
{"id":null,"anchorname":"CUMBERLAND COUNTY UCHRA","address":"73 METHODIST CAMPGROUND LOOP CROSSVILLE, TN 38557","bldgnbr":"73","predir":null,"streetname":"METHODIST CAMPGROUND LOOP","streettype":null,"suffdir":null,"city":"CROSSVILLE","state_code":"TN","zip5":"38557","latitude":"35.9809600000000000","longitude":"-85.035401000000000","publicwifi":"U","url":null,"broadband_type_id":1}
{"id":null,"anchorname":"CUMBERLAND COUNTY EXTENSION","address":"1398 LIVINGSTON ROAD CROSSVILLE, TN 38571","bldgnbr":"1398","predir":null,"streetname":"LIVINGSTON ROAD","streettype":null,"suffdir":null,"city":"CROSSVILLE","state_code":"TN","zip5":"38571","latitude":"35.9684140000000000","longitude":"-85.045105000000000","publicwifi":"U","url":null,"broadband_type_id":1}
{"id":null,"anchorname":"STONE ELEMENTARY","address":"1219 COOK RD CROSSVILLE, TN 38571","bldgnbr":"1219","predir":null,"streetname":"COOK RD","streettype":null,"suffdir":null,"city":"CROSSVILLE","state_code":"TN","zip5":"38571","latitude":"35.9680460000000000","longitude":"-85.004124000000000","publicwifi":"U","url":null,"broadband_type_id":6}
{"id":null,"anchorname":"TWRA REGIONAL OFFICE CROSSVILLE","address":"464 INDUSTRIAL BOULEVARD CROSSVILLE, TN 38555","bldgnbr":"464","predir":null,"streetname":"INDUSTRIAL BOULEVARD","streettype":null,"suffdir":null,"city":"CROSSVILLE","state_code":"TN","zip5":"38555","latitude":"35.9715800000000000","longitude":"-85.024258000000000","publicwifi":"U","url":null,"broadband_type_id":null}
{"id":null,"anchorname":"TDOT REG 2 DISTRICT 23 GENESIS RD CROSSVILLE","address":"218 GENESIS ROAD CROSSVILLE, TN 38555","bldgnbr":"218","predir":null,"streetname":"GENESIS ROAD","streettype":null,"suffdir":null,"city":"CROSSVILLE","state_code":"TN","zip5":"38555","latitude":"35.9562910000000000","longitude":"-85.026642000000000","publicwifi":"U","url":null,"broadband_type_id":6}
{"id":null,"anchorname":"CHRISTIAN ACADEMY OF THE CUMBERLANDS","address":"325 BRAUN ST CROSSVILLE, TN 38555","bldgnbr":"325","predir":null,"streetname":"BRAUN ST","streettype":null,"suffdir":null,"city":"CROSSVILLE","state_code":"TN","zip5":"38555","latitude":"35.9531110000000000","longitude":"-85.025618000000000","publicwifi":"U","url":null,"broadband_type_id":6}
{"id":null,"anchorname":"CUMBERLAND COUNTY CLERK TRUST","address":"2 NORTH MAIN STREET CROSSVILLE, TN 38555","bldgnbr":"2","predir":null,"streetname":"NORTH MAIN STREET","streettype":null,"suffdir":null,"city":"CROSSVILLE","state_code":"TN","zip5":"38555","latitude":"35.9481400000000000","longitude":"-85.026362000000000","publicwifi":"U","url":null,"broadband_type_id":1}
{"id":null,"anchorname":"HOUSE OF HOPE - DCS","address":"165 BOB TOLETT LOOP CROSSVILLE, TN 38555","bldgnbr":"165","predir":null,"streetname":"BOB TOLETT LOOP","streettype":null,"suffdir":null,"city":"CROSSVILLE","state_code":"TN","zip5":"38555","latitude":"35.9152460000000000","longitude":"-84.993097000000000","publicwifi":"U","url":null,"broadband_type_id":null}
{"id":null,"anchorname":"CUMBERLAND COUNTY E-911","address":"90 JUSTICE CENTER WAY CROSSVILLE, TN 38555","bldgnbr":"90","predir":null,"streetname":"JUSTICE CENTER WAY","streettype":null,"suffdir":null,"city":"CROSSVILLE","state_code":"TN","zip5":"38555","latitude":"35.9408500000000000","longitude":"-85.024141000000000","publicwifi":"U","url":null,"broadband_type_id":1}
{"id":null,"anchorname":"CROSSVILLE-CUMBERLAND COUNTY CHAMBER OF COMMERCE","address":"34 SOUTH MAIN STREET CROSSVILLE, TN 38555","bldgnbr":"34","predir":null,"streetname":"SOUTH MAIN STREET","streettype":null,"suffdir":null,"city":"CROSSVILLE","state_code":"TN","zip5":"38555","latitude":"35.9475590000000000","longitude":"-85.026443000000000","publicwifi":"U","url":null,"broadband_type_id":1}
{"id":null,"anchorname":"CUMBERLAND CHANCERY OFFICE","address":"450 SOUTH MAIN STREET CROSSVILLE, TN 38555","bldgnbr":"450","predir":null,"streetname":"SOUTH MAIN STREET","streettype":null,"suffdir":null,"city":"CROSSVILLE","state_code":"TN","zip5":"38555","latitude":"35.9423280000000000","longitude":"-85.022702000000000","publicwifi":"U","url":null,"broadband_type_id":null}
{"id":null,"anchorname":"CROCKETT CHRISTIAN SCHOOL","address":"70 NORTH CAVALIER DR ALAMO, TN 38001","bldgnbr":"70","predir":null,"streetname":"NORTH CAVALIER DR","streettype":null,"suffdir":null,"city":"ALAMO","state_code":"TN","zip5":"38001","latitude":"35.7852390000000000","longitude":"-89.136196000000000","publicwifi":"U","url":null,"broadband_type_id":6}
{"id":null,"anchorname":"CITY OF FRIENDSHIP FIRE DEPT","address":"105 CHURCH STREET. FRIENDSHIP, TN 38034","bldgnbr":"105","predir":null,"streetname":"CHURCH STREET.","streettype":null,"suffdir":null,"city":"FRIENDSHIP","state_code":"TN","zip5":"38034","latitude":"35.9075000000000000","longitude":"-89.246400000000000","publicwifi":"U","url":null,"broadband_type_id":5}
{"id":null,"anchorname":"MAURY CITY FIRE DEPARTMENT","address":"223 BROADWAY STREET MAURY CITY, TN 38050","bldgnbr":"223","predir":null,"streetname":"BROADWAY STREET","streettype":null,"suffdir":null,"city":"MAURY CITY","state_code":"TN","zip5":"38050","latitude":"35.8153000000000000","longitude":"-89.225500000000000","publicwifi":"U","url":null,"broadband_type_id":5}
{"id":null,"anchorname":"BELLS FIRE DEPT","address":"12987 HIGHWAY 79 BELLS, TN 38006","bldgnbr":"12987","predir":null,"streetname":"HIGHWAY 79","streettype":null,"suffdir":null,"city":"BELLS","state_code":"TN","zip5":"38006","latitude":"35.7195000000000000","longitude":"-89.074400000000000","publicwifi":"U","url":null,"broadband_type_id":5}
{"id":null,"anchorname":"FAIRFIELD GLADE FIRE DEPT","address":"7258 PEAVINE RD FAIRFIELD GLADE, TN 38558","bldgnbr":"7258","predir":null,"streetname":"PEAVINE RD","streettype":null,"suffdir":null,"city":"FAIRFIELD GLADE","state_code":"TN","zip5":"38558","latitude":"36.0043000000000000","longitude":"-84.837000000000000","publicwifi":"U","url":null,"broadband_type_id":5}
{"id":null,"anchorname":"ROANE STATE COMMUNITY COLLEGE - CUMBERLAND COUNTY CAMPUS","address":"2567 COOK ROAD CROSSVILLE, TN 38571","bldgnbr":"2567","predir":null,"streetname":"COOK ROAD","streettype":null,"suffdir":null,"city":"CROSSVILLE","state_code":"TN","zip5":"38571","latitude":"35.9811360000000000","longitude":"-85.003732000000000","publicwifi":"U","url":null,"broadband_type_id":6}
