{"id":null,"anchorname":"PRICE COUNTY","address":"164  CHERRY ST","bldgnbr":"164","predir":null,"streetname":"CHERRY","streettype":"ST","suffdir":null,"city":"PHILLIPS","state_code":"WI","zip5":"54555","latitude":"45.6900900000000000","longitude":"-90.398506000000000","publicwifi":"U","url":null,"broadband_type_id":1}
{"id":null,"anchorname":"ALMOND BRANCH","address":"122  MAIN ST","bldgnbr":"122","predir":null,"streetname":"MAIN","streettype":"ST","suffdir":null,"city":"ALMOND","state_code":"WI","zip5":"54909","latitude":"44.2626400000000000","longitude":"-89.408740000000000","publicwifi":"Y","url":null,"broadband_type_id":null}
{"id":null,"anchorname":"PRENTICE ELEMENTARY","address":"1025  TOWN ST","bldgnbr":"1025","predir":null,"streetname":"TOWN","streettype":"ST","suffdir":null,"city":"PRENTICE","state_code":"WI","zip5":"54556","latitude":"45.5437430000000000","longitude":"-90.290813000000000","publicwifi":"N","url":null,"broadband_type_id":6}
{"id":null,"anchorname":"PRENTICE MIDDLE","address":"1025  TOWN ST","bldgnbr":"1025","predir":null,"streetname":"TOWN","streettype":"ST","suffdir":null,"city":"PRENTICE","state_code":"WI","zip5":"54556","latitude":"45.5437430000000000","longitude":"-90.290813000000000","publicwifi":"N","url":null,"broadband_type_id":6}
{"id":null,"anchorname":"RACINE COUNTY","address":"717  WISCONSIN AVE","bldgnbr":"717","predir":null,"streetname":"WISCONSIN","streettype":"AVE","suffdir":null,"city":"RACINE","state_code":"WI","zip5":"53403","latitude":"42.7257160000000000","longitude":"-87.783737000000000","publicwifi":"U","url":null,"broadband_type_id":1}
{"id":null,"anchorname":"WALDEN III MIDDLE","address":"1012  CENTER ST","bldgnbr":"1012","predir":null,"streetname":"CENTER","streettype":"ST","suffdir":null,"city":"RACINE","state_code":"WI","zip5":"53403","latitude":"42.7206310000000000","longitude":"-87.789405000000000","publicwifi":"Y","url":null,"broadband_type_id":6}
{"id":null,"anchorname":"PLOVER FIRE DEPT","address":"2400  POST RD","bldgnbr":"2400","predir":null,"streetname":"POST","streettype":"RD","suffdir":null,"city":"PLOVER","state_code":"WI","zip5":"54467","latitude":"44.4332960000000000","longitude":"-89.552069000000000","publicwifi":"U","url":null,"broadband_type_id":5}
{"id":null,"anchorname":"AMHERST FIRE DISTRICT","address":"4585  FAIRGROUNDS RD.","bldgnbr":"4585","predir":null,"streetname":"Fairgrounds","streettype":"Rd.","suffdir":null,"city":"AMHERST","state_code":"WI","zip5":"54406","latitude":"44.4137840000000000","longitude":"-89.332735000000000","publicwifi":"U","url":null,"broadband_type_id":5}
{"id":null,"anchorname":"ALMOND-BANCROFT HIGH SCHOOL","address":"1336  ELM ST","bldgnbr":"1336","predir":null,"streetname":"ELM","streettype":"ST","suffdir":null,"city":"ALMOND","state_code":"WI","zip5":"54909","latitude":"44.2604100000000000","longitude":"-89.409969999000000","publicwifi":"N","url":null,"broadband_type_id":6}
{"id":null,"anchorname":"ALMOND VOL FIRE DEPT","address":"7912  FOURTH AVE","bldgnbr":"7912","predir":null,"streetname":"FOURTH","streettype":"AVE","suffdir":null,"city":"ALMOND","state_code":"WI","zip5":"54909","latitude":"44.3022990000000000","longitude":"-89.390602000000000","publicwifi":"N","url":null,"broadband_type_id":5}
{"id":null,"anchorname":"LEON-SAXEVILLE TOWNSHIP LIBRARY (PINE RIVER)","address":"4715 N COUNTY E RD","bldgnbr":"4715","predir":"N","streetname":"COUNTY E","streettype":"RD","suffdir":null,"city":"PINE RIVER","state_code":"WI","zip5":"54965","latitude":"44.2457700000000000","longitude":"-89.344097000000000","publicwifi":"Y","url":null,"broadband_type_id":6}
{"id":null,"anchorname":"PARK FALLS ELEMENTARY","address":"380  9TH ST","bldgnbr":"380","predir":null,"streetname":"9TH","streettype":"ST","suffdir":null,"city":"PARK FALLS","state_code":"WI","zip5":"54552","latitude":"45.9454430000000000","longitude":"-90.449953001000000","publicwifi":"N","url":null,"broadband_type_id":2}
{"id":null,"anchorname":"PARK FALLS HIGH SCHOOL","address":"400  9TH ST","bldgnbr":"400","predir":null,"streetname":"9TH","streettype":"ST","suffdir":null,"city":"PARK FALLS","state_code":"WI","zip5":"54552","latitude":"45.9454410000000000","longitude":"-90.450094000000000","publicwifi":"N","url":null,"broadband_type_id":6}
{"id":null,"anchorname":"CHEQUAMEGON HIGH SCHOOL","address":"400  9TH ST","bldgnbr":"400","predir":null,"streetname":"9TH","streettype":"ST","suffdir":null,"city":"PARK FALLS","state_code":"WI","zip5":"54552","latitude":"45.9454410000000000","longitude":"-90.450094000000000","publicwifi":"N","url":null,"broadband_type_id":6}
{"id":null,"anchorname":"PIKE LAKE FIRE DEPT","address":"14885 N SHADY KNOLL RD","bldgnbr":"14885","predir":"N","streetname":"SHADY KNOLL","streettype":"RD","suffdir":null,"city":"PARK FALLS","state_code":"WI","zip5":"54552","latitude":"45.9222070000000000","longitude":"-90.113892000000000","publicwifi":"N","url":null,"broadband_type_id":5}
{"id":null,"anchorname":"PARK FALLS VOL FIRE DEPT","address":"400  4TH AVE","bldgnbr":"400","predir":null,"streetname":"4TH","streettype":"AVE","suffdir":null,"city":"PARK FALLS","state_code":"WI","zip5":"54552","latitude":"45.9418130000000000","longitude":"-90.250768000000000","publicwifi":"U","url":null,"broadband_type_id":5}
{"id":null,"anchorname":"FLAMBEAU HOSPITAL","address":"98 SHERRY AVENUE","bldgnbr":"98","predir":null,"streetname":"SHERRY","streettype":"AVE","suffdir":null,"city":"PARK FALLS","state_code":"WI","zip5":"54552","latitude":"45.9315020000000000","longitude":"-90.442048999000000","publicwifi":"U","url":null,"broadband_type_id":3}
{"id":null,"anchorname":"PRICE COUNTY LIBRARY SERVICE","address":"121 N FOURTH AVE","bldgnbr":"121","predir":"N","streetname":"FOURTH","streettype":"AVE","suffdir":null,"city":"PARK FALLS","state_code":"WI","zip5":"54552","latitude":"45.9353930000000000","longitude":"-90.451691000000000","publicwifi":"U","url":null,"broadband_type_id":6}
{"id":null,"anchorname":"PARK FALLS PUBLIC LIBRARY","address":"121  4TH AVE N","bldgnbr":"121","predir":null,"streetname":"4TH","streettype":"AVE","suffdir":"N","city":"PARK FALLS","state_code":"WI","zip5":"54552","latitude":"45.9353930000000000","longitude":"-90.451691000000000","publicwifi":"N","url":null,"broadband_type_id":6}
{"id":null,"anchorname":"PHILLIPS VOL FIRE DEPT","address":"450 N LAKE AVE","bldgnbr":"450","predir":"N","streetname":"LAKE","streettype":"AVE","suffdir":null,"city":"PHILLIPS","state_code":"WI","zip5":"54555","latitude":"45.6933210000000000","longitude":"-90.402442001000000","publicwifi":"U","url":null,"broadband_type_id":5}
{"id":null,"anchorname":"PHILLIPS HIGH SCHOOL","address":"990  FLAMBEAU AVE","bldgnbr":"990","predir":null,"streetname":"FLAMBEAU","streettype":"AVE","suffdir":null,"city":"PHILLIPS","state_code":"WI","zip5":"54555","latitude":"45.6917260000000000","longitude":"-90.411292000000000","publicwifi":"Y","url":null,"broadband_type_id":6}
{"id":null,"anchorname":"PHILLIPS PUBLIC LIBRARY","address":"286  CHERRY ST","bldgnbr":"286","predir":null,"streetname":"CHERRY","streettype":"ST","suffdir":null,"city":"PHILLIPS","state_code":"WI","zip5":"54555","latitude":"45.6892740000000000","longitude":"-90.399832000000000","publicwifi":"N","url":null,"broadband_type_id":6}
{"id":null,"anchorname":"PRICE COUNTY 9TH JUDICIAL DISTRICT COURTHOUSE","address":"126 CHERRY ST","bldgnbr":"126","predir":null,"streetname":"CHERRY","streettype":"ST","suffdir":null,"city":"PHILLIPS","state_code":"WI","zip5":"54555","latitude":"45.6903330000000000","longitude":"-90.398103000000000","publicwifi":"U","url":null,"broadband_type_id":1}
{"id":null,"anchorname":"PRENTICE VOL FIRE DEPT","address":"605  SPRUCE ST","bldgnbr":"605","predir":null,"streetname":"SPRUCE","streettype":"ST","suffdir":null,"city":"PRENTICE","state_code":"WI","zip5":"54556","latitude":"45.5516850000000000","longitude":"-90.320808000000000","publicwifi":"U","url":null,"broadband_type_id":5}
{"id":null,"anchorname":"OGEMA VOL FIRE CO INC","address":"1974 N CTH G","bldgnbr":"1974","predir":"N","streetname":"CTH G","streettype":null,"suffdir":null,"city":"OGEMA","state_code":"WI","zip5":"54459","latitude":"45.4183240000000000","longitude":"-90.299049000000000","publicwifi":"U","url":null,"broadband_type_id":5}
{"id":null,"anchorname":"PRENTICE HIGH SCHOOL","address":"1025  TOWN ST","bldgnbr":"1025","predir":null,"streetname":"TOWN","streettype":"ST","suffdir":null,"city":"PRENTICE","state_code":"WI","zip5":"54556","latitude":"45.5437790000000000","longitude":"-90.290890000000000","publicwifi":"N","url":null,"broadband_type_id":6}
{"id":null,"anchorname":"OGEMA PUBLIC LIBRARY","address":"5005 W STATE RD 86","bldgnbr":"5005","predir":"W","streetname":"STATE RD 86","streettype":null,"suffdir":null,"city":"OGEMA","state_code":"WI","zip5":"54459","latitude":"45.4436350000000000","longitude":"-90.296364000000000","publicwifi":"Y","url":null,"broadband_type_id":6}
{"id":null,"anchorname":"CATAWBA -HARMONY FIRE DEPT","address":"US HIGHWAY 8","bldgnbr":"0","predir":null,"streetname":"US HIGHWAY 8","streettype":null,"suffdir":null,"city":"CATAWBA","state_code":"WI","zip5":"54515","latitude":"45.5077590000000000","longitude":"-90.494179001000000","publicwifi":"U","url":null,"broadband_type_id":5}
{"id":null,"anchorname":"KENNAN-GEORGETOWN VOL FIRE DEPT","address":"4315 N MEQUON STREET","bldgnbr":"4315","predir":"N","streetname":"MEQUON","streettype":"STREET","suffdir":null,"city":"KENNAN","state_code":"WI","zip5":"54537","latitude":"45.5318160000000000","longitude":"-90.585521000000000","publicwifi":"N","url":null,"broadband_type_id":5}
{"id":null,"anchorname":"ENGINE HOUSE NO 3 MUSEUM","address":"700  6TH ST","bldgnbr":"700","predir":null,"streetname":"6TH","streettype":"ST","suffdir":null,"city":"RACINE","state_code":"WI","zip5":"53403","latitude":"42.7262840000000000","longitude":"-87.788067000000000","publicwifi":"N","url":null,"broadband_type_id":1}
{"id":null,"anchorname":"GATEWAY TECHNICAL COLLEGE","address":"1001 MAIN ST","bldgnbr":"1001","predir":null,"streetname":"MAIN","streettype":"ST","suffdir":null,"city":"RACINE","state_code":"WI","zip5":"53403","latitude":"42.7214410000000000","longitude":"-87.782465001000000","publicwifi":"U","url":null,"broadband_type_id":6}
{"id":null,"anchorname":"RACINE PUBLIC LIBRARY","address":"75  7TH ST","bldgnbr":"75","predir":null,"streetname":"7TH","streettype":"ST","suffdir":null,"city":"RACINE","state_code":"WI","zip5":"53403","latitude":"42.7259370000000000","longitude":"-87.781881001000000","publicwifi":"Y","url":null,"broadband_type_id":6}
{"id":null,"anchorname":"RACINE HERITAGE MUSEUM","address":"701  MAIN ST","bldgnbr":"701","predir":null,"streetname":"MAIN","streettype":"ST","suffdir":null,"city":"RACINE","state_code":"WI","zip5":"53403","latitude":"42.7259530000000000","longitude":"-87.782589999000000","publicwifi":"N","url":null,"broadband_type_id":1}
{"id":null,"anchorname":"WHEATON FRANCISCAN HEALTHCARE - ALL SAINTS (ST LUKES)","address":"1320 WISCONSIN AVENUE","bldgnbr":"1320","predir":null,"streetname":"WISCONSIN","streettype":"AVE","suffdir":null,"city":"RACINE","state_code":"WI","zip5":"53403","latitude":"42.7167050000000000","longitude":"-87.783722000000000","publicwifi":"U","url":null,"broadband_type_id":3}
{"id":null,"anchorname":"RACINE FIRE DEPT","address":"810  8TH ST","bldgnbr":"810","predir":null,"streetname":"8TH","streettype":"ST","suffdir":null,"city":"RACINE","state_code":"WI","zip5":"53403","latitude":"42.7244840000000000","longitude":"-87.789719999000000","publicwifi":"N","url":null,"broadband_type_id":5}
{"id":null,"anchorname":"WESTLAKE VILLAGE","address":"28550 WESTLAKE VILLAGE DR WESTLAKE, OH 44145","bldgnbr":"28550","predir":null,"streetname":"WESTLAKE VILLAGE DR","streettype":null,"suffdir":null,"city":"WESTLAKE","state_code":"OH","zip5":"44145","latitude":"41.4404600000000000","longitude":"-81.937330000000000","publicwifi":"U","url":null,"broadband_type_id":6}
{"id":null,"anchorname":"RACINE EARLY EDUCATION CTR","address":"2015  FRANKLIN ST","bldgnbr":"2015","predir":null,"streetname":"FRANKLIN","streettype":"ST","suffdir":null,"city":"RACINE","state_code":"WI","zip5":"53403","latitude":"42.7056100000000000","longitude":"-87.790227001000000","publicwifi":"Y","url":null,"broadband_type_id":6}
{"id":null,"anchorname":"JULIAN THOMAS ELEMENTARY","address":"930  MARTIN LUTHER KING DR","bldgnbr":"930","predir":null,"streetname":"MARTIN LUTHER KING","streettype":"DR","suffdir":null,"city":"RACINE","state_code":"WI","zip5":"53404","latitude":"42.7322310000000000","longitude":"-87.794223000000000","publicwifi":"Y","url":null,"broadband_type_id":6}
{"id":null,"anchorname":"JEFFERSON LIGHTHOUSE ELEMENTARY","address":"1722 W 6TH ST","bldgnbr":"1722","predir":"W","streetname":"6TH","streettype":"ST","suffdir":null,"city":"RACINE","state_code":"WI","zip5":"53404","latitude":"42.7260450000000000","longitude":"-87.802463000000000","publicwifi":"N","url":null,"broadband_type_id":6}
{"id":null,"anchorname":"MCKINLEY MIDDLE","address":"2326  MOHR AVE","bldgnbr":"2326","predir":null,"streetname":"MOHR","streettype":"AVE","suffdir":null,"city":"RACINE","state_code":"WI","zip5":"53405","latitude":"42.7260260000000000","longitude":"-87.811106999000000","publicwifi":"Y","url":null,"broadband_type_id":6}
{"id":null,"anchorname":"KNAPP ELEMENTARY-RACINE SD","address":"2701  17TH ST","bldgnbr":"2701","predir":null,"streetname":"17TH","streettype":"ST","suffdir":null,"city":"RACINE","state_code":"WI","zip5":"53405","latitude":"42.7106640000000000","longitude":"-87.811313000000000","publicwifi":"Y","url":null,"broadband_type_id":6}
{"id":null,"anchorname":"MITCHELL ELEMENTARY","address":"2713  DREXEL AVE","bldgnbr":"2713","predir":null,"streetname":"DREXEL","streettype":"AVE","suffdir":null,"city":"RACINE","state_code":"WI","zip5":"53403","latitude":"42.6989810000000000","longitude":"-87.812655000000000","publicwifi":"Y","url":null,"broadband_type_id":6}
{"id":null,"anchorname":"MITCHELL MIDDLE","address":"2701  DREXEL AVE","bldgnbr":"2701","predir":null,"streetname":"DREXEL","streettype":"AVE","suffdir":null,"city":"RACINE","state_code":"WI","zip5":"53403","latitude":"42.6993310000000000","longitude":"-87.812654999000000","publicwifi":"Y","url":null,"broadband_type_id":6}
{"id":null,"anchorname":"S.C. JOHNSON ELEMENTARY","address":"2420  KENTUCKY ST","bldgnbr":"2420","predir":null,"streetname":"KENTUCKY","streettype":"ST","suffdir":null,"city":"RACINE","state_code":"WI","zip5":"53405","latitude":"42.7015010000000000","longitude":"-87.829714000000000","publicwifi":"Y","url":null,"broadband_type_id":6}
{"id":null,"anchorname":"P-COC","address":"914  SAINT PATRICK ST","bldgnbr":"914","predir":null,"streetname":"SAINT PATRICK","streettype":"ST","suffdir":null,"city":"RACINE","state_code":"WI","zip5":"53402","latitude":"42.7405850000000000","longitude":"-87.790907000000000","publicwifi":"N","url":null,"broadband_type_id":null}
{"id":null,"anchorname":"JONES ELEMENTARY","address":"3300  CHICORY RD","bldgnbr":"3300","predir":null,"streetname":"CHICORY","streettype":"RD","suffdir":null,"city":"RACINE","state_code":"WI","zip5":"53403","latitude":"42.6823950000000000","longitude":"-87.819591000000000","publicwifi":"Y","url":null,"broadband_type_id":6}
{"id":null,"anchorname":"STARBUCK MIDDLE","address":"1516  OHIO ST","bldgnbr":"1516","predir":null,"streetname":"OHIO","streettype":"ST","suffdir":null,"city":"RACINE","state_code":"WI","zip5":"53405","latitude":"42.7137450000000000","longitude":"-87.836134999000000","publicwifi":"Y","url":null,"broadband_type_id":6}
{"id":null,"anchorname":"GIESE ELEMENTARY","address":"5120  BYRD AVE","bldgnbr":"5120","predir":null,"streetname":"BYRD","streettype":"AVE","suffdir":null,"city":"RACINE","state_code":"WI","zip5":"53406","latitude":"42.7095450000000000","longitude":"-87.841017000000000","publicwifi":"Y","url":null,"broadband_type_id":6}
{"id":null,"anchorname":"GOODLAND ELEMENTARY","address":"4800  GRACELAND BLVD","bldgnbr":"4800","predir":null,"streetname":"GRACELAND","streettype":"BLVD","suffdir":null,"city":"RACINE","state_code":"WI","zip5":"53406","latitude":"42.7259670000000000","longitude":"-87.837301000000000","publicwifi":"N","url":null,"broadband_type_id":6}
{"id":null,"anchorname":"FRATT ELEMENTARY","address":"3501  KINZIE AVE","bldgnbr":"3501","predir":null,"streetname":"KINZIE","streettype":"AVE","suffdir":null,"city":"RACINE","state_code":"WI","zip5":"53405","latitude":"42.7225450000000000","longitude":"-87.821263000000000","publicwifi":"Y","url":null,"broadband_type_id":6}
{"id":null,"anchorname":"WADEWITZ ELEMENTARY","address":"2700  YOUT ST","bldgnbr":"2700","predir":null,"streetname":"YOUT","streettype":"ST","suffdir":null,"city":"RACINE","state_code":"WI","zip5":"53404","latitude":"42.7458500000000000","longitude":"-87.812344000000000","publicwifi":"Y","url":null,"broadband_type_id":6}
{"id":null,"anchorname":"GILMORE MIDDLE","address":"2330 N NORTHWESTERN AVE","bldgnbr":"2330","predir":"N","streetname":"NORTHWESTERN","streettype":"AVE","suffdir":null,"city":"RACINE","state_code":"WI","zip5":"53404","latitude":"42.7385370000000000","longitude":"-87.808412000000000","publicwifi":"Y","url":null,"broadband_type_id":6}
{"id":null,"anchorname":"RACINE CORRECTIONAL INSTITUTION","address":"2019  WISCONSIN ST","bldgnbr":"2019","predir":null,"streetname":"WISCONSIN","streettype":"ST","suffdir":null,"city":"STURTEVANT","state_code":"WI","zip5":"53177","latitude":"42.7109670000000000","longitude":"-87.904810000000000","publicwifi":"N","url":null,"broadband_type_id":null}
{"id":null,"anchorname":"ROOSEVELT ELEMENTARY","address":"915  ROMAYNE AVE","bldgnbr":"915","predir":null,"streetname":"ROMAYNE","streettype":"AVE","suffdir":null,"city":"RACINE","state_code":"WI","zip5":"53402","latitude":"42.7512950000000000","longitude":"-87.791247000000000","publicwifi":"Y","url":null,"broadband_type_id":6}
{"id":null,"anchorname":"JOHNSON SC FIRE BRIGADE","address":"1525 HOWE ST","bldgnbr":"1525","predir":null,"streetname":"HOWE","streettype":"ST","suffdir":null,"city":"RACINE","state_code":"WI","zip5":"53403","latitude":"42.7135530000000000","longitude":"-87.791503000000000","publicwifi":"U","url":null,"broadband_type_id":5}
{"id":null,"anchorname":"21ST CENTURY PREP SCHOOL","address":"1220  MOUND AVE","bldgnbr":"1220","predir":null,"streetname":"MOUND","streettype":"AVE","suffdir":null,"city":"RACINE","state_code":"WI","zip5":"53404","latitude":"42.7281550000000000","longitude":"-87.795508000000000","publicwifi":"N","url":null,"broadband_type_id":6}
{"id":null,"anchorname":"PARK HIGH SCHOOL","address":"1901  12TH ST","bldgnbr":"1901","predir":null,"streetname":"12TH","streettype":"ST","suffdir":null,"city":"RACINE","state_code":"WI","zip5":"53403","latitude":"42.7184810000000000","longitude":"-87.802937000000000","publicwifi":"Y","url":null,"broadband_type_id":6}
{"id":null,"anchorname":"WHEATON FRANCISCAN HEALTHCARE - ALL SAINTS (ST MARYS)","address":"3807 SPRING STREET","bldgnbr":"3807","predir":null,"streetname":"SPRING","streettype":"ST","suffdir":null,"city":"RACINE","state_code":"WI","zip5":"53405","latitude":"42.7334050000000000","longitude":"-87.825360000000000","publicwifi":"U","url":null,"broadband_type_id":3}
{"id":null,"anchorname":"HORLICK HIGH SCHOOL","address":"2119  RAPIDS DR","bldgnbr":"2119","predir":null,"streetname":"RAPIDS","streettype":"DR","suffdir":null,"city":"RACINE","state_code":"WI","zip5":"53404","latitude":"42.7470800000000000","longitude":"-87.806934000000000","publicwifi":"Y","url":null,"broadband_type_id":6}
{"id":null,"anchorname":"RACINE ART MUSEUM","address":"441  MAIN STREET","bldgnbr":"441","predir":null,"streetname":"MAIN","streettype":"STREET","suffdir":null,"city":"RACINE","state_code":"WI","zip5":"53403","latitude":"42.7403220000000000","longitude":"-87.810406000000000","publicwifi":"N","url":null,"broadband_type_id":1}
{"id":null,"anchorname":"RACINE YOUTHFUL OFFENDER WARREN YOUNG HIGH SCHOOL","address":"1501  ALBERT ST","bldgnbr":"1501","predir":null,"streetname":"ALBERT","streettype":"ST","suffdir":null,"city":"RACINE","state_code":"WI","zip5":"53404","latitude":"42.7366260000000000","longitude":"-87.799355000000000","publicwifi":"N","url":null,"broadband_type_id":6}
{"id":null,"anchorname":"NORTH PARK ELEMENTARY","address":"4748  ELIZABETH ST","bldgnbr":"4748","predir":null,"streetname":"ELIZABETH","streettype":"ST","suffdir":null,"city":"RACINE","state_code":"WI","zip5":"53402","latitude":"42.7813400000000000","longitude":"-87.801675000000000","publicwifi":"Y","url":null,"broadband_type_id":2}
{"id":null,"anchorname":"RACINE HERITAGE MUSEUM","address":"4640  5 MILE RD","bldgnbr":"4640","predir":null,"streetname":"5 MILE","streettype":"RD","suffdir":null,"city":"RACINE","state_code":"WI","zip5":"53402","latitude":"42.7987560000000000","longitude":"-87.835188000000000","publicwifi":"U","url":null,"broadband_type_id":1}
{"id":null,"anchorname":"REAL CHARTER HIGH SCHOOL","address":"5915  ERIE ST","bldgnbr":"5915","predir":null,"streetname":"ERIE","streettype":"ST","suffdir":null,"city":"RACINE","state_code":"WI","zip5":"53402","latitude":"42.7975630000000000","longitude":"-87.786033000000000","publicwifi":"Y","url":null,"broadband_type_id":6}
{"id":null,"anchorname":"THE PRAIRIE SCHOOL","address":"4050  LIGHTHOUSE DR","bldgnbr":"4050","predir":null,"streetname":"LIGHTHOUSE","streettype":"DR","suffdir":null,"city":"RACINE","state_code":"WI","zip5":"53402","latitude":"42.7713840000000000","longitude":"-87.773302000000000","publicwifi":"U","url":null,"broadband_type_id":6}
{"id":null,"anchorname":"CALEDONIA FIRE DEPT","address":"6900 NICHOLSON RD","bldgnbr":"6900","predir":null,"streetname":"NICHOLSON","streettype":"RD","suffdir":null,"city":"CALEDONIA","state_code":"WI","zip5":"53108","latitude":"42.8129170000000000","longitude":"-87.894838000000000","publicwifi":"U","url":null,"broadband_type_id":5}
{"id":null,"anchorname":"CASE HIGH SCHOOL","address":"7345  WASHINGTON AVE","bldgnbr":"7345","predir":null,"streetname":"WASHINGTON","streettype":"AVE","suffdir":null,"city":"RACINE","state_code":"WI","zip5":"53406","latitude":"42.7183450000000000","longitude":"-87.870846000000000","publicwifi":"Y","url":null,"broadband_type_id":6}
{"id":null,"anchorname":"SOUTH SHORE CONSOL FIRE/EMS DEPT","address":"6200 DURAND","bldgnbr":"6200","predir":null,"streetname":"DURAND","streettype":null,"suffdir":null,"city":"RACINE","state_code":"WI","zip5":"53406","latitude":"42.6975130000000000","longitude":"-87.855834000000000","publicwifi":"U","url":null,"broadband_type_id":5}
{"id":null,"anchorname":"UNION GROVE UNION HIGH SCHOOL","address":"3433 S COLONY AVE","bldgnbr":"3433","predir":"S","streetname":"COLONY","streettype":"AVE","suffdir":null,"city":"UNION GROVE","state_code":"WI","zip5":"53182","latitude":"42.6935940000000000","longitude":"-88.051852000000000","publicwifi":"N","url":null,"broadband_type_id":6}
{"id":null,"anchorname":"RED APPLE ELEMENTARY","address":"914  SAINT PATRICK ST","bldgnbr":"914","predir":null,"streetname":"SAINT PATRICK","streettype":"ST","suffdir":null,"city":"RACINE","state_code":"WI","zip5":"53402","latitude":"42.7405850000000000","longitude":"-87.790907000000000","publicwifi":"Y","url":null,"broadband_type_id":6}
{"id":null,"anchorname":"JERSTAD-AGERHOLM ELEMENTARY","address":"3535  LA SALLE ST","bldgnbr":"3535","predir":null,"streetname":"LA SALLE","streettype":"ST","suffdir":null,"city":"RACINE","state_code":"WI","zip5":"53402","latitude":"42.7636560000000000","longitude":"-87.791894000000000","publicwifi":"Y","url":null,"broadband_type_id":6}
{"id":null,"anchorname":"JERSTAD-AGERHOLM MIDDLE","address":"3601  LA SALLE ST","bldgnbr":"3601","predir":null,"streetname":"LA SALLE","streettype":"ST","suffdir":null,"city":"RACINE","state_code":"WI","zip5":"53402","latitude":"42.7642380000000000","longitude":"-87.791934000000000","publicwifi":"Y","url":null,"broadband_type_id":6}
{"id":null,"anchorname":"OLYMPIA BROWN ELEMENTARY","address":"5915  ERIE ST","bldgnbr":"5915","predir":null,"streetname":"ERIE","streettype":"ST","suffdir":null,"city":"RACINE","state_code":"WI","zip5":"53402","latitude":"42.7975630000000000","longitude":"-87.786033000000000","publicwifi":"Y","url":null,"broadband_type_id":6}
{"id":null,"anchorname":"WIND POINT ELEMENTARY","address":"290  JONSUE LN","bldgnbr":"290","predir":null,"streetname":"JONSUE","streettype":"LN","suffdir":null,"city":"RACINE","state_code":"WI","zip5":"53402","latitude":"42.7828490000000000","longitude":"-87.779252999000000","publicwifi":"Y","url":null,"broadband_type_id":6}
{"id":null,"anchorname":"GIFFORD ELEMENTARY","address":"8332 N NORTHWESTERN AVE","bldgnbr":"8332","predir":"N","streetname":"NORTHWESTERN","streettype":"AVE","suffdir":null,"city":"RACINE","state_code":"WI","zip5":"53406","latitude":"42.7570820000000000","longitude":"-87.885682000000000","publicwifi":"Y","url":null,"broadband_type_id":6}
{"id":null,"anchorname":"WEST RIDGE ELEMENTARY","address":"1347 S EMMERTSEN RD","bldgnbr":"1347","predir":"S","streetname":"EMMERTSEN","streettype":"RD","suffdir":null,"city":"RACINE","state_code":"WI","zip5":"53406","latitude":"42.7153390000000000","longitude":"-87.855506000000000","publicwifi":"Y","url":null,"broadband_type_id":6}
{"id":null,"anchorname":"SCHULTE ELEMENTARY","address":"8515 W WESTMINSTER ST","bldgnbr":"8515","predir":"W","streetname":"WESTMINSTER","streettype":"ST","suffdir":null,"city":"STURTEVANT","state_code":"WI","zip5":"53177","latitude":"42.6941700000000000","longitude":"-87.888168000000000","publicwifi":"Y","url":null,"broadband_type_id":6}
{"id":null,"anchorname":"ROCKINGHAM COUNTY HIGH","address":"180 HIGH SCHOOL RD, REIDSVILLE, NC 27320","bldgnbr":"180","predir":null,"streetname":"HIGH SCHOOL","streettype":"RD","suffdir":null,"city":"REIDSVILLE","state_code":"NC","zip5":"27320","latitude":"36.3858530000000000","longitude":"-79.742515000000000","publicwifi":"U","url":"http://www.rock.k12.nc.us/Rchs/index.htm","broadband_type_id":6}
{"id":null,"anchorname":"YORKVILLE ELEMENTARY","address":"18621  WASHINGTON AVE","bldgnbr":"18621","predir":null,"streetname":"WASHINGTON","streettype":"AVE","suffdir":null,"city":"UNION GROVE","state_code":"WI","zip5":"53182","latitude":"42.7409580000000000","longitude":"-88.035547000000000","publicwifi":"N","url":null,"broadband_type_id":6}
{"id":null,"anchorname":"RAYMOND ELEMENTARY","address":"2659  76TH ST","bldgnbr":"2659","predir":null,"streetname":"76TH","streettype":"ST","suffdir":null,"city":"FRANKSVILLE","state_code":"WI","zip5":"53126","latitude":"42.7980100000000000","longitude":"-88.012282000000000","publicwifi":"N","url":null,"broadband_type_id":6}
{"id":null,"anchorname":"DROUGHT ELEMENTARY","address":"21016  7 MILE RD","bldgnbr":"21016","predir":null,"streetname":"7 MILE","streettype":"RD","suffdir":null,"city":"FRANKSVILLE","state_code":"WI","zip5":"53126","latitude":"42.8297500000000000","longitude":"-88.100169000000000","publicwifi":"N","url":null,"broadband_type_id":6}
{"id":null,"anchorname":"LAKEVIEW ELEMENTARY","address":"26335  FRIES LN","bldgnbr":"26335","predir":null,"streetname":"FRIES","streettype":"LN","suffdir":null,"city":"WIND LAKE","state_code":"WI","zip5":"53185","latitude":"42.8208420000000000","longitude":"-88.158198000000000","publicwifi":"N","url":null,"broadband_type_id":6}
{"id":null,"anchorname":"KANSASVILLE ELEMENTARY","address":"4101 S BEAUMONT AVE","bldgnbr":"4101","predir":"S","streetname":"BEAUMONT","streettype":"AVE","suffdir":null,"city":"KANSASVILLE","state_code":"WI","zip5":"53139","latitude":"42.6848670000000000","longitude":"-88.110445000000000","publicwifi":"Y","url":null,"broadband_type_id":6}
{"id":null,"anchorname":"COOPER ELEMENTARY","address":"249  CONKEY ST","bldgnbr":"249","predir":null,"streetname":"CONKEY","streettype":"ST","suffdir":null,"city":"BURLINGTON","state_code":"WI","zip5":"53105","latitude":"42.6768570000000000","longitude":"-88.283546000000000","publicwifi":"N","url":null,"broadband_type_id":6}
{"id":null,"anchorname":"WALLER ELEMENTARY","address":"195  GARDNER AVE","bldgnbr":"195","predir":null,"streetname":"GARDNER","streettype":"AVE","suffdir":null,"city":"BURLINGTON","state_code":"WI","zip5":"53105","latitude":"42.6704160000000000","longitude":"-88.279006000000000","publicwifi":"N","url":null,"broadband_type_id":6}
{"id":null,"anchorname":"DOVER CENTER","address":"23303  CHURCH RD","bldgnbr":"23303","predir":null,"streetname":"CHURCH","streettype":"RD","suffdir":null,"city":"KANSASVILLE","state_code":"WI","zip5":"53139","latitude":"42.7128670000000000","longitude":"-88.115875999000000","publicwifi":"N","url":null,"broadband_type_id":null}
{"id":null,"anchorname":"WINKLER ELEMENTARY","address":"34150  FULTON ST","bldgnbr":"34150","predir":null,"streetname":"FULTON","streettype":"ST","suffdir":null,"city":"BURLINGTON","state_code":"WI","zip5":"53105","latitude":"42.6354270000000000","longitude":"-88.288025001000000","publicwifi":"N","url":null,"broadband_type_id":6}
{"id":null,"anchorname":"TRAILSIDE ELEMENTARY","address":"615 N MILWAUKEE ST","bldgnbr":"615","predir":"N","streetname":"MILWAUKEE","streettype":"ST","suffdir":null,"city":"WATERFORD","state_code":"WI","zip5":"53185","latitude":"42.7692550000000000","longitude":"-88.204925000000000","publicwifi":"N","url":null,"broadband_type_id":6}
{"id":null,"anchorname":"WOODFIELD ELEMENTARY","address":"905  BARNES DR","bldgnbr":"905","predir":null,"streetname":"BARNES","streettype":"DR","suffdir":null,"city":"WATERFORD","state_code":"WI","zip5":"53185","latitude":"42.7632250000000000","longitude":"-88.228830000000000","publicwifi":"N","url":null,"broadband_type_id":6}
{"id":null,"anchorname":"WASHINGTON ELEMENTARY","address":"8937  BIG BEND RD","bldgnbr":"8937","predir":null,"streetname":"BIG BEND","streettype":"RD","suffdir":null,"city":"WATERFORD","state_code":"WI","zip5":"53185","latitude":"42.8418500000000000","longitude":"-88.197885000000000","publicwifi":"N","url":null,"broadband_type_id":6}
{"id":null,"anchorname":"ROBERT ELLSWORTH CORRECTIONAL CENTER","address":"21425A  SPRING ST","bldgnbr":"0","predir":null,"streetname":"SPRING","streettype":"ST","suffdir":null,"city":"UNION GROVE","state_code":"WI","zip5":"53182","latitude":"42.6986200000000000","longitude":"-88.082374999000000","publicwifi":"N","url":null,"broadband_type_id":null}
{"id":null,"anchorname":"ROCHESTER PUBLIC LIBRARY","address":"208 W SPRING ST","bldgnbr":"208","predir":"W","streetname":"SPRING","streettype":"ST","suffdir":null,"city":"ROCHESTER","state_code":"WI","zip5":"53167","latitude":"42.6948120000000000","longitude":"-88.029659000000000","publicwifi":"N","url":null,"broadband_type_id":6}
{"id":null,"anchorname":"GRAHAM PUBLIC LIBRARY (UNION GROVE)","address":"1215  MAIN ST","bldgnbr":"1215","predir":null,"streetname":"MAIN","streettype":"ST","suffdir":null,"city":"UNION GROVE","state_code":"WI","zip5":"53182","latitude":"42.6847750000000000","longitude":"-88.051781999000000","publicwifi":"N","url":null,"broadband_type_id":6}
{"id":null,"anchorname":"YORKVILLE JT 2 SCHOOL DISTRICT","address":"18621  WASHINGTON AVE","bldgnbr":"18621","predir":null,"streetname":"WASHINGTON","streettype":"AVE","suffdir":null,"city":"UNION GROVE","state_code":"WI","zip5":"53182","latitude":"42.7409580000000000","longitude":"-88.035547000000000","publicwifi":"N","url":null,"broadband_type_id":6}
{"id":null,"anchorname":"WIND LAKE VOL FIRE DEPT","address":"7857 S LOOMIS RD","bldgnbr":"7857","predir":"S","streetname":"LOOMIS","streettype":"RD","suffdir":null,"city":"WIND LAKE","state_code":"WI","zip5":"53185","latitude":"42.8267520000000000","longitude":"-88.159861999000000","publicwifi":"N","url":null,"broadband_type_id":5}
{"id":null,"anchorname":"KANSASVILLE FIRE DEPT","address":"2370  DURAND AVE","bldgnbr":"2370","predir":null,"streetname":"DURAND","streettype":"AVE","suffdir":null,"city":"KANSASVILLE","state_code":"WI","zip5":"53139","latitude":"42.7184860000000000","longitude":"-88.137937000000000","publicwifi":"U","url":null,"broadband_type_id":5}
{"id":null,"anchorname":"DR EDWARD G DYER SCHOOL","address":"201 S KENDRICK AVE","bldgnbr":"201","predir":"S","streetname":"KENDRICK","streettype":"AVE","suffdir":null,"city":"BURLINGTON","state_code":"WI","zip5":"53105","latitude":"42.6731110000000000","longitude":"-88.292645000000000","publicwifi":"N","url":null,"broadband_type_id":6}
{"id":null,"anchorname":"AURORA MEMORIAL HOSPITAL OF BURLINGTON","address":"252 MCHENRY STREET","bldgnbr":"252","predir":null,"streetname":"MCHENRY","streettype":"ST","suffdir":null,"city":"BURLINGTON","state_code":"WI","zip5":"53105","latitude":"42.6735000000000000","longitude":"-88.282557999000000","publicwifi":"U","url":null,"broadband_type_id":3}
{"id":null,"anchorname":"NETTIE E KARCHER SCHOOL","address":"225  ROBERT ST","bldgnbr":"225","predir":null,"streetname":"ROBERT","streettype":"ST","suffdir":null,"city":"BURLINGTON","state_code":"WI","zip5":"53105","latitude":"42.6713450000000000","longitude":"-88.273547000000000","publicwifi":"N","url":null,"broadband_type_id":6}
{"id":null,"anchorname":"BURLINGTON PUBLIC LIBRARY","address":"166 E JEFFERSON ST","bldgnbr":"166","predir":"E","streetname":"JEFFERSON","streettype":"ST","suffdir":null,"city":"BURLINGTON","state_code":"WI","zip5":"53105","latitude":"42.6783760000000000","longitude":"-88.275779000000000","publicwifi":"Y","url":null,"broadband_type_id":6}
{"id":null,"anchorname":"BURLINGTON HISTORICAL SOCIETY MUSEUM","address":"232 N PERKINS BLVD","bldgnbr":"232","predir":"N","streetname":"PERKINS","streettype":"BLVD","suffdir":null,"city":"BURLINGTON","state_code":"WI","zip5":"53105","latitude":"42.6778130000000000","longitude":"-88.276348000000000","publicwifi":"N","url":null,"broadband_type_id":1}
{"id":null,"anchorname":"BURLINGTON CITY FIRE DEPT","address":"165 W WASHINGTON ST","bldgnbr":"165","predir":"W","streetname":"WASHINGTON","streettype":"ST","suffdir":null,"city":"BURLINGTON","state_code":"WI","zip5":"53105","latitude":"42.6776050000000000","longitude":"-88.279747000000000","publicwifi":"N","url":null,"broadband_type_id":5}
{"id":null,"anchorname":"GATEWAY TECHNICAL COLLEGE","address":"496 MC CANNA PKWY","bldgnbr":"496","predir":null,"streetname":"MC CANNA","streettype":"PKWY","suffdir":null,"city":"BURLINGTON","state_code":"WI","zip5":"53105","latitude":"42.6758460000000000","longitude":"-88.258440000000000","publicwifi":"U","url":null,"broadband_type_id":6}
{"id":null,"anchorname":"BURLINGTON HIGH SCHOOL","address":"400  MC CANNA PKWY","bldgnbr":"400","predir":null,"streetname":"MC CANNA","streettype":"PKWY","suffdir":null,"city":"BURLINGTON","state_code":"WI","zip5":"53105","latitude":"42.6775400000000000","longitude":"-88.259154999000000","publicwifi":"N","url":null,"broadband_type_id":6}
{"id":null,"anchorname":"BURLINGTON TWP VOL FIRE DEPT","address":"32288 BUSHNELL RD","bldgnbr":"32288","predir":null,"streetname":"BUSHNELL","streettype":"RD","suffdir":null,"city":"BURLINGTON","state_code":"WI","zip5":"53105","latitude":"42.6749950000000000","longitude":"-88.266495000000000","publicwifi":"U","url":null,"broadband_type_id":5}
{"id":null,"anchorname":"ROCHESTER VOL FIRE CO","address":"31020  ACADEMY RD","bldgnbr":"31020","predir":null,"streetname":"ACADEMY","streettype":"RD","suffdir":null,"city":"BURLINGTON","state_code":"WI","zip5":"53167","latitude":"42.7651940000000000","longitude":"-88.209541000000000","publicwifi":"U","url":null,"broadband_type_id":5}
{"id":null,"anchorname":"WATERFORD VOL FIRE DEPT","address":"122 N 2ND ST","bldgnbr":"122","predir":"N","streetname":"2ND","streettype":"ST","suffdir":null,"city":"WATERFORD","state_code":"WI","zip5":"53185","latitude":"42.7633370000000000","longitude":"-88.211687001000000","publicwifi":"U","url":null,"broadband_type_id":5}
{"id":null,"anchorname":"WATERFORD PUBLIC LIBRARY","address":"101 N RIVER ST","bldgnbr":"101","predir":"N","streetname":"RIVER","streettype":"ST","suffdir":null,"city":"WATERFORD","state_code":"WI","zip5":"53185","latitude":"42.7632510000000000","longitude":"-88.214132000000000","publicwifi":"N","url":null,"broadband_type_id":6}
{"id":null,"anchorname":"LAKESHORES LIBRARY SYSTEM","address":"725  WATERFORD","bldgnbr":"725","predir":null,"streetname":"WATERFORD","streettype":null,"suffdir":null,"city":"WATERFORD","state_code":"WI","zip5":"53185","latitude":"42.7634200000000000","longitude":"-88.196300000000000","publicwifi":"N","url":null,"broadband_type_id":6}
{"id":null,"anchorname":"ST THOMAS AQUINAS SCHOOL","address":"320 S 2ND ST","bldgnbr":"320","predir":"S","streetname":"2ND","streettype":"ST","suffdir":null,"city":"WATERFORD","state_code":"WI","zip5":"53185","latitude":"42.7607490000000000","longitude":"-88.211723000000000","publicwifi":"U","url":null,"broadband_type_id":6}
{"id":null,"anchorname":"EVERGREEN ELEMENTARY SCHOOL","address":"817 W MAIN ST","bldgnbr":"817","predir":"W","streetname":"MAIN","streettype":"ST","suffdir":null,"city":"WATERFORD","state_code":"WI","zip5":"53185","latitude":"42.7665200000000000","longitude":"-88.221208000000000","publicwifi":"N","url":null,"broadband_type_id":6}
{"id":null,"anchorname":"WATERFORD UNION HIGH SCHOOL","address":"100  FIELD DR","bldgnbr":"100","predir":null,"streetname":"FIELD","streettype":"DR","suffdir":null,"city":"WATERFORD","state_code":"WI","zip5":"53185","latitude":"42.7647480000000000","longitude":"-88.218977000000000","publicwifi":"Y","url":null,"broadband_type_id":6}
{"id":null,"anchorname":"TICHIGAN VOL FIRE DEPT","address":"8205 BIG BEND RD","bldgnbr":"8205","predir":null,"streetname":"BIG BEND","streettype":"RD","suffdir":null,"city":"WATERFORD","state_code":"WI","zip5":"53185","latitude":"42.8319250000000000","longitude":"-88.198056000000000","publicwifi":"U","url":null,"broadband_type_id":5}
{"id":null,"anchorname":"WASHINGTON CALDWELL SCHOOL DISTRICT","address":"8937  BIG BEND RD","bldgnbr":"8937","predir":null,"streetname":"BIG BEND","streettype":"RD","suffdir":null,"city":"WATERFORD","state_code":"WI","zip5":"53185","latitude":"42.8418500000000000","longitude":"-88.197885000000000","publicwifi":"N","url":null,"broadband_type_id":6}
{"id":null,"anchorname":"SOUTHERN OAKS GIRLS SCHOOL","address":"21425  SPRING ST","bldgnbr":"21425","predir":null,"streetname":"SPRING","streettype":"ST","suffdir":null,"city":"UNION GROVE","state_code":"WI","zip5":"53182","latitude":"42.6985650000000000","longitude":"-88.080035999000000","publicwifi":"N","url":null,"broadband_type_id":6}
{"id":null,"anchorname":"CAZENOVIA VOL FIRE DEPT","address":"310  STATE HWY 58  N","bldgnbr":"310","predir":null,"streetname":"State Hwy 58","streettype":null,"suffdir":"N","city":"CAZENOVIA","state_code":"WI","zip5":"53924","latitude":"43.5253400000000000","longitude":"-90.196072000000000","publicwifi":"N","url":null,"broadband_type_id":5}
{"id":null,"anchorname":"YUBA VOL FIRE DEPT","address":"22099 MAIN ST","bldgnbr":"22099","predir":null,"streetname":"MAIN","streettype":"ST","suffdir":null,"city":"YUBA","state_code":"WI","zip5":"54634","latitude":"43.5389060000000000","longitude":"-90.429084999000000","publicwifi":"U","url":null,"broadband_type_id":5}
{"id":null,"anchorname":"CENTENNIAL LEARNING CENTER","address":"17630 SE MAIN ST","bldgnbr":"17630","predir":"SE","streetname":"MAIN","streettype":"ST","suffdir":null,"city":"PORTLAND","state_code":"OR","zip5":"97233","latitude":"45.5126299630000000","longitude":"-122.48153039500000","publicwifi":"U","url":null,"broadband_type_id":6}
{"id":null,"anchorname":"ITHACA MIDDLE","address":"24615  STATE HIGHWAY 58","bldgnbr":"24615","predir":null,"streetname":"STATE HIGHWAY 58","streettype":null,"suffdir":null,"city":"RICHLAND CENTER","state_code":"WI","zip5":"53581","latitude":"43.3408360000000000","longitude":"-90.281797000000000","publicwifi":"N","url":null,"broadband_type_id":6}
{"id":null,"anchorname":"RICHLAND MIDDLE","address":"1801  STATE HIGHWAY ST","bldgnbr":"1801","predir":null,"streetname":"STATE HIGHWAY","streettype":"ST","suffdir":null,"city":"RICHLAND CENTER","state_code":"WI","zip5":"53581","latitude":"43.3508700000000000","longitude":"-90.387369999000000","publicwifi":"N","url":null,"broadband_type_id":6}
{"id":null,"anchorname":"LINCOLN ELEMENTARY-RICHLAND SD","address":"678 S PARK ST","bldgnbr":"678","predir":"S","streetname":"PARK","streettype":"ST","suffdir":null,"city":"RICHLAND CENTER","state_code":"WI","zip5":"53581","latitude":"43.3303060000000000","longitude":"-90.383010000000000","publicwifi":"N","url":null,"broadband_type_id":6}
{"id":null,"anchorname":"JEFFERSON ELEMENTARY-RICHLAND SD","address":"586 N MAIN ST","bldgnbr":"586","predir":"N","streetname":"MAIN","streettype":"ST","suffdir":null,"city":"RICHLAND CENTER","state_code":"WI","zip5":"53581","latitude":"43.3399990000000000","longitude":"-90.386597000000000","publicwifi":"N","url":null,"broadband_type_id":6}
{"id":null,"anchorname":"RICHLAND COUNTY","address":"181 W SEMINARY ST","bldgnbr":"181","predir":"W","streetname":"SEMINARY","streettype":"ST","suffdir":null,"city":"RICHLAND CENTER","state_code":"WI","zip5":"53581","latitude":"43.3346520000000000","longitude":"-90.386322000000000","publicwifi":"U","url":null,"broadband_type_id":1}
{"id":null,"anchorname":"LONE ROCK ELEMENTARY","address":"222 W PEARL ST","bldgnbr":"222","predir":"W","streetname":"PEARL","streettype":"ST","suffdir":null,"city":"LONE ROCK","state_code":"WI","zip5":"53555","latitude":"43.1858320000000000","longitude":"-90.200267000000000","publicwifi":"N","url":null,"broadband_type_id":6}
{"id":null,"anchorname":"CRES ACAD","address":"302 N PARKER DR","bldgnbr":"302","predir":"N","streetname":"PARKER","streettype":"DR","suffdir":null,"city":"JANESVILLE","state_code":"WI","zip5":"53545","latitude":"42.6857660000000000","longitude":"-89.023954000000000","publicwifi":"U","url":null,"broadband_type_id":6}
{"id":null,"anchorname":"JANESVILLE ACADEMY OF INTERNATIONAL STUDIES","address":"31 W MILWAUKEE ST","bldgnbr":"31","predir":"W","streetname":"MILWAUKEE","streettype":"ST","suffdir":null,"city":"JANESVILLE","state_code":"WI","zip5":"53548","latitude":"42.6822920000000000","longitude":"-89.024307999000000","publicwifi":"N","url":null,"broadband_type_id":6}
{"id":null,"anchorname":"ROOSEVELT ELEMENTARY","address":"316 S RINGOLD ST","bldgnbr":"316","predir":"S","streetname":"RINGOLD","streettype":"ST","suffdir":null,"city":"JANESVILLE","state_code":"WI","zip5":"53545","latitude":"42.6828480000000000","longitude":"-89.007380999000000","publicwifi":"Y","url":null,"broadband_type_id":6}
{"id":null,"anchorname":"ROCK COUNTY DEPARTMENT OF TOURISM","address":"51 S MAIN ST","bldgnbr":"51","predir":"S","streetname":"MAIN","streettype":"ST","suffdir":null,"city":"JANESVILLE","state_code":"WI","zip5":"53545","latitude":"42.6818990000000000","longitude":"-89.021304001000000","publicwifi":"N","url":null,"broadband_type_id":6}
{"id":null,"anchorname":"WILSON ELEMENTARY","address":"465  ROCKPORT RD","bldgnbr":"465","predir":null,"streetname":"ROCKPORT","streettype":"RD","suffdir":null,"city":"JANESVILLE","state_code":"WI","zip5":"53548","latitude":"42.6722290000000000","longitude":"-89.024605000000000","publicwifi":"Y","url":null,"broadband_type_id":6}
{"id":null,"anchorname":"FRANKLIN MIDDLE","address":"450 N CROSBY AVE","bldgnbr":"450","predir":"N","streetname":"CROSBY","streettype":"AVE","suffdir":null,"city":"JANESVILLE","state_code":"WI","zip5":"53548","latitude":"42.6858270000000000","longitude":"-89.051815000000000","publicwifi":"Y","url":null,"broadband_type_id":6}
{"id":null,"anchorname":"MADISON ELEMENTARY-JANESVILLE SD","address":"331 N GRANT AVE","bldgnbr":"331","predir":"N","streetname":"GRANT","streettype":"AVE","suffdir":null,"city":"JANESVILLE","state_code":"WI","zip5":"53548","latitude":"42.6829940000000000","longitude":"-89.046904001000000","publicwifi":"Y","url":null,"broadband_type_id":6}
{"id":null,"anchorname":"WASHINGTON ELEMENTARY","address":"811 N PINE ST","bldgnbr":"811","predir":"N","streetname":"PINE","streettype":"ST","suffdir":null,"city":"JANESVILLE","state_code":"WI","zip5":"53548","latitude":"42.6912840000000000","longitude":"-89.039898000000000","publicwifi":"Y","url":null,"broadband_type_id":6}
{"id":null,"anchorname":"JEFFERSON ELEMENTARY-JANESVILLE AREA SD","address":"1831  MOUNT ZION AVE","bldgnbr":"1831","predir":null,"streetname":"MOUNT ZION","streettype":"AVE","suffdir":null,"city":"JANESVILLE","state_code":"WI","zip5":"53545","latitude":"42.7007030000000000","longitude":"-88.999976000000000","publicwifi":"Y","url":null,"broadband_type_id":6}
{"id":null,"anchorname":"JANESVILLE VIRTUAL ACAD","address":"1831  MOUNT ZION AVE","bldgnbr":"1831","predir":null,"streetname":"MOUNT ZION","streettype":"AVE","suffdir":null,"city":"JANESVILLE","state_code":"WI","zip5":"53545","latitude":"42.7007030000000000","longitude":"-88.999976000000000","publicwifi":"Y","url":null,"broadband_type_id":6}
{"id":null,"anchorname":"TAGOS LEADERSHIP ACAD","address":"1350 N PARKER DR","bldgnbr":"1350","predir":"N","streetname":"PARKER","streettype":"DR","suffdir":null,"city":"JANESVILLE","state_code":"WI","zip5":"53545","latitude":"42.7010930000000000","longitude":"-89.030764999000000","publicwifi":"Y","url":null,"broadband_type_id":null}
{"id":null,"anchorname":"ADAMS ELEMENTARY","address":"1138 E MEMORIAL DR","bldgnbr":"1138","predir":"E","streetname":"MEMORIAL","streettype":"DR","suffdir":null,"city":"JANESVILLE","state_code":"WI","zip5":"53545","latitude":"42.6935120000000000","longitude":"-89.011027999000000","publicwifi":"Y","url":null,"broadband_type_id":6}
{"id":null,"anchorname":"MONROE ELEMENTARY","address":"55 S PONTIAC DR","bldgnbr":"55","predir":"S","streetname":"PONTIAC","streettype":"DR","suffdir":null,"city":"JANESVILLE","state_code":"WI","zip5":"53545","latitude":"42.6900950000000000","longitude":"-88.987418000000000","publicwifi":"Y","url":null,"broadband_type_id":6}
{"id":null,"anchorname":"ITHACA HIGH SCHOOL","address":"24615  STATE HWY 58","bldgnbr":"24615","predir":null,"streetname":"STATE HWY 58","streettype":null,"suffdir":null,"city":"RICHLAND CENTER","state_code":"WI","zip5":"53581","latitude":"43.3408360000000000","longitude":"-90.281797000000000","publicwifi":"N","url":null,"broadband_type_id":6}
{"id":null,"anchorname":"BREWER PUBLIC LIBRARY (RICHLAND CENTER)","address":"325 N CENTRAL AVE","bldgnbr":"325","predir":"N","streetname":"CENTRAL","streettype":"AVE","suffdir":null,"city":"RICHLAND CENTER","state_code":"WI","zip5":"53581","latitude":"43.3376370000000000","longitude":"-90.385162000000000","publicwifi":"N","url":null,"broadband_type_id":6}
{"id":null,"anchorname":"THE RICHLAND HOSPITAL, INC.","address":"333 EAST SECOND STREET","bldgnbr":"333","predir":"E","streetname":"SECOND","streettype":"ST","suffdir":null,"city":"RICHLAND CENTER","state_code":"WI","zip5":"53581","latitude":"43.3391250000000000","longitude":"-90.382305000000000","publicwifi":"U","url":null,"broadband_type_id":3}
{"id":null,"anchorname":"RICHLAND CENTER HIGH SCHOOL","address":"1996  US HWY 14  W","bldgnbr":"1996","predir":null,"streetname":"US HWY 14","streettype":null,"suffdir":"W","city":"RICHLAND CENTER","state_code":"WI","zip5":"53581","latitude":"43.3390100000000000","longitude":"-90.395240000000000","publicwifi":"N","url":null,"broadband_type_id":6}
{"id":null,"anchorname":"RICHLAND CENTER FIRE DEPT","address":"205 E MILL ST","bldgnbr":"205","predir":"E","streetname":"MILL","streettype":"ST","suffdir":null,"city":"RICHLAND CENTER","state_code":"WI","zip5":"53581","latitude":"43.3363870000000000","longitude":"-90.383897000000000","publicwifi":"U","url":null,"broadband_type_id":5}
{"id":null,"anchorname":"RICHLAND COUNTY 7TH JUDICIAL DISTRICT COURTHOUSE","address":"181 W SEMINARY ST","bldgnbr":"181","predir":"W","streetname":"SEMINARY","streettype":"ST","suffdir":null,"city":"RICHLAND CENTER","state_code":"WI","zip5":"53581","latitude":"43.3346130000000000","longitude":"-90.386287000000000","publicwifi":"U","url":null,"broadband_type_id":1}
{"id":null,"anchorname":"LONE ROCK FIRE DEPT","address":"108 N FIREMAN LANE","bldgnbr":"108","predir":"N","streetname":"FIREMAN","streettype":"LANE","suffdir":null,"city":"LONE ROCK","state_code":"WI","zip5":"53556","latitude":"43.2477850000000000","longitude":"-90.266932000000000","publicwifi":"U","url":null,"broadband_type_id":5}
{"id":null,"anchorname":"LONE ROCK COMM LIBRARY","address":"234 N BROADWAY ST","bldgnbr":"234","predir":"N","streetname":"BROADWAY","streettype":"ST","suffdir":null,"city":"LONE ROCK","state_code":"WI","zip5":"53556","latitude":"43.1852360000000000","longitude":"-90.197405000000000","publicwifi":"N","url":null,"broadband_type_id":6}
{"id":null,"anchorname":"JANESVILLE FIRE DEPT","address":"303 MILTON AVE","bldgnbr":"303","predir":null,"streetname":"MILTON","streettype":"AVE","suffdir":null,"city":"JANESVILLE","state_code":"WI","zip5":"53545","latitude":"42.6868110000000000","longitude":"-89.017848000000000","publicwifi":"U","url":null,"broadband_type_id":5}
{"id":null,"anchorname":"ROCK RIVER CHARTER SCHOOL","address":"31 W MILWAUKEE ST","bldgnbr":"31","predir":"W","streetname":"MILWAUKEE","streettype":"ST","suffdir":null,"city":"JANESVILLE","state_code":"WI","zip5":"53548","latitude":"42.6822920000000000","longitude":"-89.024307999000000","publicwifi":"Y","url":null,"broadband_type_id":6}
{"id":null,"anchorname":"ARROWHEAD LIBRARY SYSTEM","address":"210  DODGE ST","bldgnbr":"210","predir":null,"streetname":"DODGE","streettype":"ST","suffdir":null,"city":"JANESVILLE","state_code":"WI","zip5":"53548","latitude":"42.6809760000000000","longitude":"-89.025435000000000","publicwifi":"N","url":null,"broadband_type_id":6}
{"id":null,"anchorname":"ROCK COUNTY 5TH JUDICIAL DISTRICT COURTHOUSE","address":"51 S MAIN ST","bldgnbr":"51","predir":"S","streetname":"MAIN","streettype":"ST","suffdir":null,"city":"JANESVILLE","state_code":"WI","zip5":"53545","latitude":"42.6818970000000000","longitude":"-89.021231000000000","publicwifi":"N","url":null,"broadband_type_id":1}
{"id":null,"anchorname":"HEDBERG PUBLIC LIBRARY (ARROWHEAD-JANESVILLE)","address":"316 S MAIN ST","bldgnbr":"316","predir":"S","streetname":"MAIN","streettype":"ST","suffdir":null,"city":"JANESVILLE","state_code":"WI","zip5":"53545","latitude":"42.6792770000000000","longitude":"-89.018539000000000","publicwifi":"N","url":null,"broadband_type_id":6}
{"id":null,"anchorname":"PRESCHOOL 4 JANESVILLE","address":"527 S FRANKLIN ST","bldgnbr":"527","predir":"S","streetname":"FRANKLIN","streettype":"ST","suffdir":null,"city":"JANESVILLE","state_code":"WI","zip5":"53548","latitude":"42.6749960000000000","longitude":"-89.019231000000000","publicwifi":"Y","url":null,"broadband_type_id":6}
{"id":null,"anchorname":"MERCY HEALTH SYSTEM CORPORATION","address":"1000 MINERAL POINT AVE","bldgnbr":"1000","predir":null,"streetname":"MINERAL POINT","streettype":"AVE","suffdir":null,"city":"JANESVILLE","state_code":"WI","zip5":"53547","latitude":"42.6867950000000000","longitude":"-89.032393000000000","publicwifi":"U","url":null,"broadband_type_id":3}
{"id":null,"anchorname":"MARSHALL MIDDLE","address":"25 S PONTIAC DR","bldgnbr":"25","predir":"S","streetname":"PONTIAC","streettype":"DR","suffdir":null,"city":"JANESVILLE","state_code":"WI","zip5":"53545","latitude":"42.6923770000000000","longitude":"-88.987475001000000","publicwifi":"Y","url":null,"broadband_type_id":1}
{"id":null,"anchorname":"CRAIG HIGH SCHOOL","address":"401 S RANDALL AVE","bldgnbr":"401","predir":"S","streetname":"RANDALL","streettype":"AVE","suffdir":null,"city":"JANESVILLE","state_code":"WI","zip5":"53545","latitude":"42.6815020000000000","longitude":"-89.002755000000000","publicwifi":"Y","url":null,"broadband_type_id":6}
{"id":null,"anchorname":"WI CTR FOR THE BLIND AND VISUALLY IMPAIRED","address":"1700 W STATE ST","bldgnbr":"1700","predir":"W","streetname":"STATE","streettype":"ST","suffdir":null,"city":"JANESVILLE","state_code":"WI","zip5":"53546","latitude":"42.6642090000000000","longitude":"-89.039805000000000","publicwifi":"N","url":null,"broadband_type_id":6}
{"id":null,"anchorname":"LINCOLN ELEMENTARY-JANESVILLE SD","address":"1821  CONDE ST","bldgnbr":"1821","predir":null,"streetname":"CONDE","streettype":"ST","suffdir":null,"city":"JANESVILLE","state_code":"WI","zip5":"53546","latitude":"42.6534180000000000","longitude":"-89.041403000000000","publicwifi":"Y","url":null,"broadband_type_id":6}
{"id":null,"anchorname":"ACADEMY OF COSMETOLOGY","address":"2310 W COURT ST","bldgnbr":"2310","predir":"W","streetname":"COURT","streettype":"ST","suffdir":null,"city":"JANESVILLE","state_code":"WI","zip5":"53548","latitude":"42.6792950000000000","longitude":"-89.048483000000000","publicwifi":"N","url":null,"broadband_type_id":6}
{"id":null,"anchorname":"WENTWORTH ELEMENTARY","address":"8806 NC HWY 87, REIDSVILLE, NC 27320","bldgnbr":"8806","predir":null,"streetname":"NC 87","streettype":"HWY","suffdir":null,"city":"REIDSVILLE","state_code":"NC","zip5":"27320","latitude":"36.3953240000000000","longitude":"-79.742856000000000","publicwifi":"U","url":"http://www.rock.k12.nc.us/Went/index.htm","broadband_type_id":6}
{"id":null,"anchorname":"ROCK COUNTY","address":"200 E US HWY 14","bldgnbr":"200","predir":"E","streetname":"US HWY 14","streettype":null,"suffdir":null,"city":"JANESVILLE","state_code":"WI","zip5":"53545","latitude":"42.7300000000000000","longitude":"-89.032608000000000","publicwifi":"U","url":null,"broadband_type_id":1}
{"id":null,"anchorname":"CONSOLIDATED ELEMENTARY","address":"4838 N COUNTY RD F","bldgnbr":"4838","predir":"N","streetname":"COUNTY RD F","streettype":null,"suffdir":null,"city":"JANESVILLE","state_code":"WI","zip5":"53545","latitude":"42.7435760000000000","longitude":"-89.054470000000000","publicwifi":"N","url":null,"broadband_type_id":6}
{"id":null,"anchorname":"HARRISON ELEMENTARY","address":"760  PRINCETON RD","bldgnbr":"760","predir":null,"streetname":"PRINCETON","streettype":"RD","suffdir":null,"city":"JANESVILLE","state_code":"WI","zip5":"53546","latitude":"42.6922900000000000","longitude":"-88.971953000000000","publicwifi":"Y","url":null,"broadband_type_id":6}
{"id":null,"anchorname":"HARMONY ELEMENTARY","address":"4243 E ROTAMER RD","bldgnbr":"4243","predir":"E","streetname":"ROTAMER","streettype":"RD","suffdir":null,"city":"JANESVILLE","state_code":"WI","zip5":"53546","latitude":"42.7287760000000000","longitude":"-88.960846001000000","publicwifi":"N","url":null,"broadband_type_id":6}
{"id":null,"anchorname":"KENNEDY ELEMENTARY","address":"3901  RANDOLPH RD","bldgnbr":"3901","predir":null,"streetname":"RANDOLPH","streettype":"RD","suffdir":null,"city":"JANESVILLE","state_code":"WI","zip5":"53546","latitude":"42.7067420000000000","longitude":"-88.969604000000000","publicwifi":"Y","url":null,"broadband_type_id":6}
{"id":null,"anchorname":"JACKSON ELEMENTARY","address":"441 W BURBANK AVE","bldgnbr":"441","predir":"W","streetname":"BURBANK","streettype":"AVE","suffdir":null,"city":"JANESVILLE","state_code":"WI","zip5":"53546","latitude":"42.6458990000000000","longitude":"-89.019118000000000","publicwifi":"Y","url":null,"broadband_type_id":6}
{"id":null,"anchorname":"ROY CHAPMAN ANDREWS ACAD","address":"1701  RIVERSIDE DR","bldgnbr":"1701","predir":null,"streetname":"RIVERSIDE","streettype":"DR","suffdir":null,"city":"BELOIT","state_code":"WI","zip5":"53511","latitude":"42.5200700000000000","longitude":"-89.033480000000000","publicwifi":"Y","url":null,"broadband_type_id":null}
{"id":null,"anchorname":"BELOIT CONVENTION \u0026 VISITOR BUREAU","address":"1003  PLEASANT ST","bldgnbr":"1003","predir":null,"streetname":"PLEASANT","streettype":"ST","suffdir":null,"city":"BELOIT","state_code":"WI","zip5":"53511","latitude":"42.5065020000000000","longitude":"-89.031789000000000","publicwifi":"N","url":null,"broadband_type_id":6}
{"id":null,"anchorname":"KOLAK EDUC CTR","address":"1633  KEELER AVE","bldgnbr":"1633","predir":null,"streetname":"KEELER","streettype":"AVE","suffdir":null,"city":"BELOIT","state_code":"WI","zip5":"53511","latitude":"42.5129560000000000","longitude":"-89.015430001000000","publicwifi":"N","url":null,"broadband_type_id":null}
{"id":null,"anchorname":"HACKETT ELEMENTARY","address":"533 W GRAND AVE","bldgnbr":"533","predir":"W","streetname":"GRAND","streettype":"AVE","suffdir":null,"city":"BELOIT","state_code":"WI","zip5":"53511","latitude":"42.5017120000000000","longitude":"-89.044481000000000","publicwifi":"N","url":null,"broadband_type_id":6}
{"id":null,"anchorname":"BURDGE ELEMENTARY","address":"321  OLYMPIAN BLVD","bldgnbr":"321","predir":null,"streetname":"OLYMPIAN","streettype":"BLVD","suffdir":null,"city":"BELOIT","state_code":"WI","zip5":"53511","latitude":"42.5161240000000000","longitude":"-89.042336000000000","publicwifi":"N","url":null,"broadband_type_id":6}
{"id":null,"anchorname":"ROYCE ELEMENTARY","address":"825  LIBERTY AVE","bldgnbr":"825","predir":null,"streetname":"LIBERTY","streettype":"AVE","suffdir":null,"city":"BELOIT","state_code":"WI","zip5":"53511","latitude":"42.5108760000000000","longitude":"-89.048331001000000","publicwifi":"Y","url":null,"broadband_type_id":6}
{"id":null,"anchorname":"MERRILL ELEMENTARY","address":"1333  COPELAND AVE","bldgnbr":"1333","predir":null,"streetname":"COPELAND","streettype":"AVE","suffdir":null,"city":"BELOIT","state_code":"WI","zip5":"53511","latitude":"42.5179410000000000","longitude":"-89.021471000000000","publicwifi":"Y","url":null,"broadband_type_id":6}
{"id":null,"anchorname":"TODD ELEMENTARY","address":"1621  OAKWOOD AVE","bldgnbr":"1621","predir":null,"streetname":"OAKWOOD","streettype":"AVE","suffdir":null,"city":"BELOIT","state_code":"WI","zip5":"53511","latitude":"42.5058360000000000","longitude":"-89.017004000000000","publicwifi":"Y","url":null,"broadband_type_id":6}
{"id":null,"anchorname":"CUNNINGHAM ELEMENTARY","address":"910  TOWNLINE AVE","bldgnbr":"910","predir":null,"streetname":"TOWNLINE","streettype":"AVE","suffdir":null,"city":"BELOIT","state_code":"WI","zip5":"53511","latitude":"42.5074320000000000","longitude":"-89.061404001000000","publicwifi":"N","url":null,"broadband_type_id":6}
{"id":null,"anchorname":"GASTON ELEMENTARY","address":"610  MCKINLEY AVE","bldgnbr":"610","predir":null,"streetname":"MCKINLEY","streettype":"AVE","suffdir":null,"city":"BELOIT","state_code":"WI","zip5":"53511","latitude":"42.5021990000000000","longitude":"-89.056438999000000","publicwifi":"N","url":null,"broadband_type_id":6}
{"id":null,"anchorname":"TOWNVIEW ELEMENTARY","address":"2442 W BELOIT NEWARK RD","bldgnbr":"2442","predir":"W","streetname":"BELOIT NEWARK","streettype":"RD","suffdir":null,"city":"BELOIT","state_code":"WI","zip5":"53511","latitude":"42.5400520000000000","longitude":"-89.074216000000000","publicwifi":"Y","url":null,"broadband_type_id":6}
{"id":null,"anchorname":"CONVERSE ELEMENTARY","address":"1602  TOWNLINE AVE","bldgnbr":"1602","predir":null,"streetname":"TOWNLINE","streettype":"AVE","suffdir":null,"city":"BELOIT","state_code":"WI","zip5":"53511","latitude":"42.5202140000000000","longitude":"-89.061373000000000","publicwifi":"N","url":null,"broadband_type_id":6}
{"id":null,"anchorname":"MCNEEL MIDDLE","address":"1524  FREDERICK ST","bldgnbr":"1524","predir":null,"streetname":"FREDERICK","streettype":"ST","suffdir":null,"city":"BELOIT","state_code":"WI","zip5":"53511","latitude":"42.5187230000000000","longitude":"-89.071053000000000","publicwifi":"Y","url":null,"broadband_type_id":6}
{"id":null,"anchorname":"BLACKHAWK TECHNICAL COLLEGE","address":"6004 S COUNTY RD RD","bldgnbr":"6004","predir":"S","streetname":"COUNTY RD","streettype":"RD","suffdir":null,"city":"JANESVILLE","state_code":"WI","zip5":"53545","latitude":"42.5930350000000000","longitude":"-89.011409999000000","publicwifi":"N","url":null,"broadband_type_id":6}
{"id":null,"anchorname":"BELOIT FIRE DEPT","address":"1111 CHURCH ST","bldgnbr":"1111","predir":null,"streetname":"CHURCH","streettype":"ST","suffdir":null,"city":"BELOIT","state_code":"WI","zip5":"53511","latitude":"42.5087870000000000","longitude":"-89.028210000000000","publicwifi":"U","url":null,"broadband_type_id":5}
{"id":null,"anchorname":"ANGEL MUSEUM","address":"656  PLEASANT ST","bldgnbr":"656","predir":null,"streetname":"PLEASANT","streettype":"ST","suffdir":null,"city":"BELOIT","state_code":"WI","zip5":"53511","latitude":"42.5022830000000000","longitude":"-89.032723000000000","publicwifi":"Y","url":null,"broadband_type_id":1}
{"id":null,"anchorname":"BELOIT COLLEGE","address":"700  COLLEGE ST","bldgnbr":"700","predir":null,"streetname":"COLLEGE","streettype":"ST","suffdir":null,"city":"BELOIT","state_code":"WI","zip5":"53511","latitude":"42.5030590000000000","longitude":"-89.029594000000000","publicwifi":"N","url":null,"broadband_type_id":6}
{"id":null,"anchorname":"MEMORIAL HIGH SCHOOL","address":"1225  4TH ST","bldgnbr":"1225","predir":null,"streetname":"4TH","streettype":"ST","suffdir":null,"city":"BELOIT","state_code":"WI","zip5":"53511","latitude":"42.5131340000000000","longitude":"-89.037844000000000","publicwifi":"Y","url":null,"broadband_type_id":6}
{"id":null,"anchorname":"BELOIT PUB LIBRARY","address":"605  ECLIPSE BLVD","bldgnbr":"605","predir":null,"streetname":"ECLIPSE","streettype":"BLVD","suffdir":null,"city":"BELOIT","state_code":"WI","zip5":"53511","latitude":"42.5191510000000000","longitude":"-89.033043000000000","publicwifi":"Y","url":null,"broadband_type_id":6}
{"id":null,"anchorname":"ECLIPSE CENTER CHARTER SCHOOL","address":"1701  RIVERSIDE DR","bldgnbr":"1701","predir":null,"streetname":"RIVERSIDE","streettype":"DR","suffdir":null,"city":"BELOIT","state_code":"WI","zip5":"53511","latitude":"42.5200700000000000","longitude":"-89.033480000000000","publicwifi":"N","url":null,"broadband_type_id":6}
{"id":null,"anchorname":"BELOIT KAPLAN VIRTUAL SCHOOL","address":"1633  KEELER AVE","bldgnbr":"1633","predir":null,"streetname":"KEELER","streettype":"AVE","suffdir":null,"city":"BELOIT","state_code":"WI","zip5":"53511","latitude":"42.5129560000000000","longitude":"-89.015430001000000","publicwifi":"Y","url":null,"broadband_type_id":6}
{"id":null,"anchorname":"BELOIT TWP FIRE DEPT","address":"2445 S AFTON RD","bldgnbr":"2445","predir":"S","streetname":"AFTON","streettype":"RD","suffdir":null,"city":"BELOIT","state_code":"WI","zip5":"53511","latitude":"42.5396350000000000","longitude":"-89.051820000000000","publicwifi":"U","url":null,"broadband_type_id":5}
{"id":null,"anchorname":"BELOIT TURNER HIGH SCHOOL","address":"1237 E INMAN PKWY","bldgnbr":"1237","predir":"E","streetname":"INMAN","streettype":"PKWY","suffdir":null,"city":"BELOIT","state_code":"WI","zip5":"53511","latitude":"42.5540940000000000","longitude":"-89.021310000000000","publicwifi":"N","url":null,"broadband_type_id":6}
{"id":null,"anchorname":"TURNER HIGH SCHOOL","address":"1231  INMAN PKWY","bldgnbr":"1231","predir":null,"streetname":"INMAN","streettype":"PKWY","suffdir":null,"city":"BELOIT","state_code":"WI","zip5":"53511","latitude":"42.5540940000000000","longitude":"-89.021328000000000","publicwifi":"Y","url":null,"broadband_type_id":6}
{"id":null,"anchorname":"BELOIT MEMORIAL HOSPITAL","address":"1969 WEST HART ROAD","bldgnbr":"1969","predir":"W","streetname":"HART","streettype":"RD","suffdir":null,"city":"BELOIT","state_code":"WI","zip5":"53511","latitude":"42.5468170000000000","longitude":"-89.008674000000000","publicwifi":"U","url":null,"broadband_type_id":3}
{"id":null,"anchorname":"TURTLE TWP VOL FIRE DEPT","address":"5131 E CREED RD","bldgnbr":"5131","predir":"E","streetname":"CREED","streettype":"RD","suffdir":null,"city":"BELOIT","state_code":"WI","zip5":"53511","latitude":"42.5748910000000000","longitude":"-88.942863000000000","publicwifi":"U","url":null,"broadband_type_id":5}
{"id":null,"anchorname":"BRODHEAD VOL FIRE DEPT","address":"1100 W 3RD AVE","bldgnbr":"1100","predir":"W","streetname":"3RD","streettype":"AVE","suffdir":null,"city":"BRODHEAD","state_code":"WI","zip5":"53520","latitude":"42.5613850000000000","longitude":"-89.306072000000000","publicwifi":"U","url":null,"broadband_type_id":5}
{"id":null,"anchorname":"ORFORDVILLE DIST FIRE DEPT","address":"173 N WRIGHT ST","bldgnbr":"173","predir":"N","streetname":"WRIGHT","streettype":"ST","suffdir":null,"city":"ORFORDVILLE","state_code":"WI","zip5":"53576","latitude":"42.6078030000000000","longitude":"-89.226067000000000","publicwifi":"U","url":null,"broadband_type_id":5}
{"id":null,"anchorname":"PARKVIEW PRIMARY","address":"121  JANESVILLE ST","bldgnbr":"121","predir":null,"streetname":"JANESVILLE","streettype":"ST","suffdir":null,"city":"FOOTVILLE","state_code":"WI","zip5":"53537","latitude":"42.6298180000000000","longitude":"-89.258739000000000","publicwifi":"N","url":null,"broadband_type_id":2}
{"id":null,"anchorname":"TURNER MIDDLE","address":"1237  INMAN PKWY","bldgnbr":"1237","predir":null,"streetname":"INMAN","streettype":"PKWY","suffdir":null,"city":"BELOIT","state_code":"WI","zip5":"53511","latitude":"42.5540940000000000","longitude":"-89.021310000000000","publicwifi":"Y","url":null,"broadband_type_id":6}
{"id":null,"anchorname":"ALDRICH MIDDLE","address":"1859 N NORTHGATE DR","bldgnbr":"1859","predir":"N","streetname":"NORTHGATE","streettype":"DR","suffdir":null,"city":"BELOIT","state_code":"WI","zip5":"53511","latitude":"42.5345580000000000","longitude":"-89.013534000000000","publicwifi":"N","url":null,"broadband_type_id":6}
{"id":null,"anchorname":"ROBINSON ELEMENTARY-BELOIT SD","address":"1801  CRANSTON ST","bldgnbr":"1801","predir":null,"streetname":"CRANSTON","streettype":"ST","suffdir":null,"city":"BELOIT","state_code":"WI","zip5":"53511","latitude":"42.5322850000000000","longitude":"-89.015448000000000","publicwifi":"N","url":null,"broadband_type_id":6}
{"id":null,"anchorname":"MCLENEGAN ELEMENTARY","address":"2639  SUNSHINE LN","bldgnbr":"2639","predir":null,"streetname":"SUNSHINE","streettype":"LN","suffdir":null,"city":"BELOIT","state_code":"WI","zip5":"53511","latitude":"42.5425330000000000","longitude":"-89.009654000000000","publicwifi":"N","url":null,"broadband_type_id":6}
{"id":null,"anchorname":"MORGAN ELEMENTARY","address":"1811  LEE LN","bldgnbr":"1811","predir":null,"streetname":"LEE","streettype":"LN","suffdir":null,"city":"BELOIT","state_code":"WI","zip5":"53511","latitude":"42.5219750000000000","longitude":"-88.990785000000000","publicwifi":"Y","url":null,"broadband_type_id":6}
{"id":null,"anchorname":"NEWARK ELEMENTARY","address":"11247 S MERLET RD","bldgnbr":"11247","predir":"S","streetname":"MERLET","streettype":"RD","suffdir":null,"city":"BELOIT","state_code":"WI","zip5":"53511","latitude":"42.5173080000000000","longitude":"-89.208154000000000","publicwifi":"N","url":null,"broadband_type_id":6}
{"id":null,"anchorname":"MONROETON ELEMENTARY","address":"8081 US HWY 158, REIDSVILLE, NC 27320","bldgnbr":"8081","predir":null,"streetname":"US 158","streettype":"HWY","suffdir":null,"city":"REIDSVILLE","state_code":"NC","zip5":"27320","latitude":"36.2975140000000000","longitude":"-79.725535000000000","publicwifi":"U","url":"http://www.rock.k12.nc.us/mnrt.htm","broadband_type_id":6}
{"id":null,"anchorname":"J C MCKENNA MIDDLE","address":"307 S 1ST ST","bldgnbr":"307","predir":"S","streetname":"1ST","streettype":"ST","suffdir":null,"city":"EVANSVILLE","state_code":"WI","zip5":"53536","latitude":"42.7761350000000000","longitude":"-89.301285000000000","publicwifi":"N","url":null,"broadband_type_id":6}
{"id":null,"anchorname":"LEVI LEONARD ELEMENTARY","address":"401 S 3RD ST","bldgnbr":"401","predir":"S","streetname":"3RD","streettype":"ST","suffdir":null,"city":"EVANSVILLE","state_code":"WI","zip5":"53536","latitude":"42.7755910000000000","longitude":"-89.306319001000000","publicwifi":"N","url":null,"broadband_type_id":6}
{"id":null,"anchorname":"EDGERTON MIDDLE","address":"300  ELM HIGH DR","bldgnbr":"300","predir":null,"streetname":"ELM HIGH","streettype":"DR","suffdir":null,"city":"EDGERTON","state_code":"WI","zip5":"53534","latitude":"42.8417120000000000","longitude":"-89.071562000000000","publicwifi":"N","url":null,"broadband_type_id":6}
{"id":null,"anchorname":"YAHARA ELEMENTARY","address":"100  ELM HIGH DR","bldgnbr":"100","predir":null,"streetname":"ELM HIGH","streettype":"DR","suffdir":null,"city":"EDGERTON","state_code":"WI","zip5":"53534","latitude":"42.8414230000000000","longitude":"-89.072040000000000","publicwifi":"N","url":null,"broadband_type_id":6}
{"id":null,"anchorname":"NORTHSIDE INTERMEDIATE","address":"159 N NORTHSIDE DR","bldgnbr":"159","predir":"N","streetname":"NORTHSIDE","streettype":"DR","suffdir":null,"city":"MILTON","state_code":"WI","zip5":"53563","latitude":"42.7815800000000000","longitude":"-88.946260000000000","publicwifi":"N","url":null,"broadband_type_id":6}
{"id":null,"anchorname":"MILTON MIDDLE","address":"20 E MADISON AVE","bldgnbr":"20","predir":"E","streetname":"MADISON","streettype":"AVE","suffdir":null,"city":"MILTON","state_code":"WI","zip5":"53563","latitude":"42.7804710000000000","longitude":"-88.952070000000000","publicwifi":"N","url":null,"broadband_type_id":6}
{"id":null,"anchorname":"WEST ELEMENTARY","address":"825 W MADISON AVE","bldgnbr":"825","predir":"W","streetname":"MADISON","streettype":"AVE","suffdir":null,"city":"MILTON","state_code":"WI","zip5":"53563","latitude":"42.7841230000000000","longitude":"-88.966023000000000","publicwifi":"N","url":null,"broadband_type_id":6}
{"id":null,"anchorname":"EAST ELEMENTARY-MILTON SD","address":"725  GREENMAN ST","bldgnbr":"725","predir":null,"streetname":"GREENMAN","streettype":"ST","suffdir":null,"city":"MILTON","state_code":"WI","zip5":"53563","latitude":"42.7753840000000000","longitude":"-88.938201999000000","publicwifi":"N","url":null,"broadband_type_id":6}
{"id":null,"anchorname":"CLINTON ELEMENTARY","address":"301  EAST ST","bldgnbr":"301","predir":null,"streetname":"EAST","streettype":"ST","suffdir":null,"city":"CLINTON","state_code":"WI","zip5":"53525","latitude":"42.5555670000000000","longitude":"-88.860288000000000","publicwifi":"N","url":null,"broadband_type_id":6}
{"id":null,"anchorname":"CLINTON HIGH","address":"112  MILWAUKEE RD","bldgnbr":"112","predir":null,"streetname":"MILWAUKEE","streettype":"RD","suffdir":null,"city":"CLINTON","state_code":"WI","zip5":"53525","latitude":"42.5589380000000000","longitude":"-88.856692000000000","publicwifi":"N","url":null,"broadband_type_id":6}
{"id":null,"anchorname":"WEYERHAUSER ELEMENTARY","address":"402 NORTH 2ND ST","bldgnbr":"402","predir":"NORTH","streetname":"2ND","streettype":"ST","suffdir":null,"city":"WEYERHAUSER","state_code":"WI","zip5":"54895","latitude":"45.4251350000000000","longitude":"-91.418631999000000","publicwifi":"N","url":null,"broadband_type_id":6}
{"id":null,"anchorname":"BRUCE MIDDLE","address":"104 W WASHINGTON AVE","bldgnbr":"104","predir":"W","streetname":"WASHINGTON","streettype":"AVE","suffdir":null,"city":"BRUCE","state_code":"WI","zip5":"54819","latitude":"45.4590330000000000","longitude":"-91.272499999000000","publicwifi":"N","url":null,"broadband_type_id":6}
{"id":null,"anchorname":"BRUCE ELEMENTARY","address":"104 W WASHINGTON AVE","bldgnbr":"104","predir":"W","streetname":"WASHINGTON","streettype":"AVE","suffdir":null,"city":"BRUCE","state_code":"WI","zip5":"54819","latitude":"45.4590330000000000","longitude":"-91.272499999000000","publicwifi":"N","url":null,"broadband_type_id":6}
{"id":null,"anchorname":"FLAMBEAU ELEMENTARY","address":"N4540  COUNTY ROAD I","bldgnbr":"0","predir":null,"streetname":"COUNTY ROAD I","streettype":null,"suffdir":null,"city":"TONY","state_code":"WI","zip5":"54563","latitude":"45.4531080000000000","longitude":"-90.997607000000000","publicwifi":"N","url":null,"broadband_type_id":6}
{"id":null,"anchorname":"FLAMBEAU JUNIOR HIGH","address":"N4540  COUNTY ROAD I","bldgnbr":"0","predir":null,"streetname":"COUNTY ROAD I","streettype":null,"suffdir":null,"city":"TONY","state_code":"WI","zip5":"54563","latitude":"45.4531080000000000","longitude":"-90.997607000000000","publicwifi":"N","url":null,"broadband_type_id":6}
{"id":null,"anchorname":"WHITETAIL ACADEMY","address":"N4540  COUNTY I ST","bldgnbr":"0","predir":null,"streetname":"COUNTY I","streettype":"ST","suffdir":null,"city":"TONY","state_code":"WI","zip5":"54563","latitude":"45.4835300000000000","longitude":"-90.994397000000000","publicwifi":"N","url":null,"broadband_type_id":6}
{"id":null,"anchorname":"FLAMBEAU CORRECTIONAL CENTER","address":"N671  CTY RD M","bldgnbr":"0","predir":null,"streetname":"CTY RD M","streettype":null,"suffdir":null,"city":"HAWKINS","state_code":"WI","zip5":"54530","latitude":"45.5243490000000000","longitude":"-90.709937999000000","publicwifi":"N","url":null,"broadband_type_id":null}
{"id":null,"anchorname":"PARKVIEW ELEMENTARY","address":"408 WEST BELOIT ST","bldgnbr":"408","predir":"WEST","streetname":"BELOIT","streettype":"ST","suffdir":null,"city":"ORFORDVILLE","state_code":"WI","zip5":"53576","latitude":"42.6298960000000000","longitude":"-89.256207000000000","publicwifi":"N","url":null,"broadband_type_id":2}
{"id":null,"anchorname":"EAGER FREE PUBLIC LIBRARY","address":"39 W MAIN ST","bldgnbr":"39","predir":"W","streetname":"MAIN","streettype":"ST","suffdir":null,"city":"EVANSVILLE","state_code":"WI","zip5":"53536","latitude":"42.7802710000000000","longitude":"-89.300068001000000","publicwifi":"N","url":null,"broadband_type_id":6}
{"id":null,"anchorname":"EVANSVILLE HIGH SCHOOL","address":"640 S 5TH ST","bldgnbr":"640","predir":"S","streetname":"5TH","streettype":"ST","suffdir":null,"city":"EVANSVILLE","state_code":"WI","zip5":"53536","latitude":"42.7731130000000000","longitude":"-89.313569000000000","publicwifi":"N","url":null,"broadband_type_id":6}
{"id":null,"anchorname":"THEODORE  ROBINSON INTERMEDIATE SCHOOL","address":"420 S 4TH ST","bldgnbr":"420","predir":"S","streetname":"4TH","streettype":"ST","suffdir":null,"city":"EVANSVILLE","state_code":"WI","zip5":"53536","latitude":"42.7750650000000000","longitude":"-89.308615000000000","publicwifi":"N","url":null,"broadband_type_id":6}
{"id":null,"anchorname":"EVANSVILLE FIRE PROT DIST","address":"10 W CHURCH ST","bldgnbr":"10","predir":"W","streetname":"CHURCH","streettype":"ST","suffdir":null,"city":"EVANSVILLE","state_code":"WI","zip5":"53536","latitude":"42.7763170000000000","longitude":"-89.270151000000000","publicwifi":"U","url":null,"broadband_type_id":5}
{"id":null,"anchorname":"EDGERTON FIRE PROT DIST COMM","address":"621 N MAIN ST","bldgnbr":"621","predir":"N","streetname":"MAIN","streettype":"ST","suffdir":null,"city":"EDGERTON","state_code":"WI","zip5":"53534","latitude":"42.8405210000000000","longitude":"-89.063443999000000","publicwifi":"Y","url":null,"broadband_type_id":5}
{"id":null,"anchorname":"EDGERTON HIGH SCHOOL","address":"200  ELM HIGH DR","bldgnbr":"200","predir":null,"streetname":"ELM HIGH","streettype":"DR","suffdir":null,"city":"EDGERTON","state_code":"WI","zip5":"53534","latitude":"42.8415720000000000","longitude":"-89.071809000000000","publicwifi":"N","url":null,"broadband_type_id":6}
{"id":null,"anchorname":"EDGERTON HOSPITAL AND HEALTH SERVICES","address":"313  STOUGHTON RD","bldgnbr":"313","predir":null,"streetname":"STOUGHTON","streettype":"RD","suffdir":null,"city":"EDGERTON","state_code":"WI","zip5":"53534","latitude":"42.8382760000000000","longitude":"-89.078129000000000","publicwifi":"Y","url":null,"broadband_type_id":3}
{"id":null,"anchorname":"EDGERTON PUBLIC LIBRARY","address":"101  ALBION ST","bldgnbr":"101","predir":null,"streetname":"ALBION","streettype":"ST","suffdir":null,"city":"EDGERTON","state_code":"WI","zip5":"53534","latitude":"42.8358520000000000","longitude":"-89.072005000000000","publicwifi":"Y","url":null,"broadband_type_id":6}
{"id":null,"anchorname":"MILTON HOUSE MUSEUM","address":"18 S JANESVILLE ST","bldgnbr":"18","predir":"S","streetname":"JANESVILLE","streettype":"ST","suffdir":null,"city":"MILTON","state_code":"WI","zip5":"53563","latitude":"42.7767850000000000","longitude":"-88.936516999000000","publicwifi":"N","url":null,"broadband_type_id":1}
{"id":null,"anchorname":"MILTON FIRE DEPARTMENT","address":"614 W MADISON AV","bldgnbr":"614","predir":"W","streetname":"MADISON","streettype":"AV","suffdir":null,"city":"MILTON","state_code":"WI","zip5":"53563","latitude":"42.7832210000000000","longitude":"-88.962482000000000","publicwifi":"N","url":null,"broadband_type_id":5}
{"id":null,"anchorname":"MILTON HIGH SCHOOL","address":"114 W WEST HIGH ST","bldgnbr":"114","predir":"W","streetname":"WEST HIGH","streettype":"ST","suffdir":null,"city":"MILTON","state_code":"WI","zip5":"53563","latitude":"42.7733000000000000","longitude":"-88.953207000000000","publicwifi":"N","url":null,"broadband_type_id":6}
{"id":null,"anchorname":"MILTON PUBLIC LIBRARY","address":"430 E HIGH ST","bldgnbr":"430","predir":"E","streetname":"HIGH","streettype":"ST","suffdir":null,"city":"MILTON","state_code":"WI","zip5":"53563","latitude":"42.7730190000000000","longitude":"-88.944422000000000","publicwifi":"N","url":null,"broadband_type_id":6}
{"id":null,"anchorname":"CLINTON MIDDLE SCHOOL","address":"115  MILWAUKEE RD","bldgnbr":"115","predir":null,"streetname":"MILWAUKEE","streettype":"RD","suffdir":null,"city":"CLINTON","state_code":"WI","zip5":"53525","latitude":"42.5589550000000000","longitude":"-88.856686000000000","publicwifi":"N","url":null,"broadband_type_id":6}
{"id":null,"anchorname":"CLINTON PUBLIC LIBRARY","address":"214  MILL ST","bldgnbr":"214","predir":null,"streetname":"MILL","streettype":"ST","suffdir":null,"city":"CLINTON","state_code":"WI","zip5":"53525","latitude":"42.5538740000000000","longitude":"-88.861284000000000","publicwifi":"N","url":null,"broadband_type_id":6}
{"id":null,"anchorname":"LADYSMITH FIRE DEPT","address":"311  MINER AVE EAST","bldgnbr":"311","predir":null,"streetname":"MINER","streettype":"AVE","suffdir":"EAST","city":"LADYSMITH","state_code":"WI","zip5":"54848","latitude":"45.5187070000000000","longitude":"-91.127167000000000","publicwifi":"U","url":null,"broadband_type_id":5}
{"id":null,"anchorname":"HAWKINS VOL FIRE DEPT","address":"PO BOX 108","bldgnbr":"0","predir":null,"streetname":"PO BOX 108","streettype":null,"suffdir":null,"city":"HAWKINS","state_code":"WI","zip5":"54530","latitude":"45.5243490000000000","longitude":"-90.709937999000000","publicwifi":"U","url":null,"broadband_type_id":5}
{"id":null,"anchorname":"HAWKINS AREA LIBRARY","address":"709  MAIN ST","bldgnbr":"709","predir":null,"streetname":"MAIN","streettype":"ST","suffdir":null,"city":"HAWKINS","state_code":"WI","zip5":"54530","latitude":"45.5124100000000000","longitude":"-90.714675000000000","publicwifi":"Y","url":null,"broadband_type_id":6}
{"id":null,"anchorname":"WEYERHAEUSER FIRE DEPT  (DIST 6)","address":"3788 N 5TH ST","bldgnbr":"3788","predir":"N","streetname":"5TH","streettype":"ST","suffdir":null,"city":"WEYERHAEUSER","state_code":"WI","zip5":"54895","latitude":"45.4233320000000000","longitude":"-91.415558000000000","publicwifi":"U","url":null,"broadband_type_id":5}
{"id":null,"anchorname":"NEW AUBURN HIGH SCHOOL","address":"704 N EAST ST","bldgnbr":"704","predir":"N","streetname":"EAST","streettype":"ST","suffdir":null,"city":"NEW AUBURN","state_code":"WI","zip5":"54757","latitude":"45.3595920000000000","longitude":"-91.427496000000000","publicwifi":"U","url":null,"broadband_type_id":6}
{"id":null,"anchorname":"BRUCE HIGH SCHOOL","address":"104 W WASHINGTON AVE","bldgnbr":"104","predir":"W","streetname":"WASHINGTON","streettype":"AVE","suffdir":null,"city":"BRUCE","state_code":"WI","zip5":"54819","latitude":"45.4590330000000000","longitude":"-91.272499999000000","publicwifi":"N","url":null,"broadband_type_id":6}
{"id":null,"anchorname":"BRUCE AREA PUBLIC LIBRARY","address":"300 W RIVER AVE","bldgnbr":"300","predir":"W","streetname":"RIVER","streettype":"AVE","suffdir":null,"city":"BRUCE","state_code":"WI","zip5":"54819","latitude":"45.4564590000000000","longitude":"-91.276118001000000","publicwifi":"N","url":null,"broadband_type_id":6}
{"id":null,"anchorname":"FLAMBEAU HIGH SCHOOL","address":"N4540  COUNTY ROAD I","bldgnbr":"0","predir":null,"streetname":"COUNTY ROAD I","streettype":null,"suffdir":null,"city":"TONY","state_code":"WI","zip5":"54563","latitude":"45.4475430000000000","longitude":"-90.997575000000000","publicwifi":"N","url":null,"broadband_type_id":6}
{"id":null,"anchorname":"FLAMBEAU CHARTER SCHOOL","address":"N4540  COUNTY ROAD I","bldgnbr":"0","predir":null,"streetname":"COUNTY ROAD I","streettype":null,"suffdir":null,"city":"TONY","state_code":"WI","zip5":"54563","latitude":"45.4531080000000000","longitude":"-90.997607000000000","publicwifi":"N","url":null,"broadband_type_id":6}
{"id":null,"anchorname":"SALISBURY HIGH","address":"500 LINCOLNTON RD, SALISBURY, NC 28144","bldgnbr":"500","predir":null,"streetname":"LINCOLNTON","streettype":"RD","suffdir":null,"city":"SALISBURY","state_code":"NC","zip5":"28144","latitude":"35.6637130000000000","longitude":"-80.483921000000000","publicwifi":"U","url":"http://www.rss.k12.nc.us/schoolpgs/shs/shs.html","broadband_type_id":6}
{"id":null,"anchorname":"SOUTH ROWAN HIGH","address":"1655 PATTERSON ST, CHINA GROVE, NC 28023","bldgnbr":"1655","predir":null,"streetname":"PATTERSON","streettype":"ST","suffdir":null,"city":"CHINA GROVE","state_code":"NC","zip5":"28023","latitude":"35.5745420000000000","longitude":"-80.612628000000000","publicwifi":"U","url":"http://www.rss.k12.nc.us/schoolpgs/srhs/srhs.html","broadband_type_id":6}
{"id":null,"anchorname":"LADYSMITH ELEMENTARY","address":"624 E 6TH ST","bldgnbr":"624","predir":"E","streetname":"6TH","streettype":"ST","suffdir":null,"city":"LADYSMITH","state_code":"WI","zip5":"54848","latitude":"45.4591250000000000","longitude":"-91.094443000000000","publicwifi":"N","url":null,"broadband_type_id":6}
{"id":null,"anchorname":"ST. CROIX COUNTY 10TH JUDICIAL DISTRICT GOVERNMENT CENTER","address":"1101  CARMICHAEL RD","bldgnbr":"1101","predir":null,"streetname":"CARMICHAEL","streettype":"RD","suffdir":null,"city":"HUDSON","state_code":"WI","zip5":"54016","latitude":"44.9811300000000000","longitude":"-92.721278999000000","publicwifi":"Y","url":null,"broadband_type_id":6}
{"id":null,"anchorname":"SAINT CROIX COUNTY","address":"1101  CARMICHAEL RD","bldgnbr":"1101","predir":null,"streetname":"CARMICHAEL","streettype":"RD","suffdir":null,"city":"HUDSON","state_code":"WI","zip5":"54016","latitude":"44.9811400000000000","longitude":"-92.721245000000000","publicwifi":"Y","url":null,"broadband_type_id":1}
{"id":null,"anchorname":"ROCK ELEMENTARY","address":"340  13TH ST","bldgnbr":"340","predir":null,"streetname":"13TH","streettype":"ST","suffdir":null,"city":"HUDSON","state_code":"WI","zip5":"54016","latitude":"44.9677850000000000","longitude":"-92.741255000000000","publicwifi":"Y","url":null,"broadband_type_id":6}
{"id":null,"anchorname":"NORTH HUDSON ELEMENTARY","address":"510  LEMON ST ST","bldgnbr":"510","predir":null,"streetname":"LEMON ST","streettype":"ST","suffdir":null,"city":"HUDSON","state_code":"WI","zip5":"54016","latitude":"44.9959940000000000","longitude":"-92.751676000000000","publicwifi":"Y","url":null,"broadband_type_id":6}
{"id":null,"anchorname":"SOMERSET MIDDLE","address":"625  SUNRISE DR","bldgnbr":"625","predir":null,"streetname":"SUNRISE","streettype":"DR","suffdir":null,"city":"SOMERSET","state_code":"WI","zip5":"54025","latitude":"45.1187630000000000","longitude":"-92.673950001000000","publicwifi":"N","url":null,"broadband_type_id":6}
{"id":null,"anchorname":"SOMERSET ELEMENTARY","address":"635  SUNRISE DR","bldgnbr":"635","predir":null,"streetname":"SUNRISE","streettype":"DR","suffdir":null,"city":"SOMERSET","state_code":"WI","zip5":"54025","latitude":"45.1187630000000000","longitude":"-92.673950001000000","publicwifi":"N","url":null,"broadband_type_id":6}
{"id":null,"anchorname":"NEW RICHMOND PAPERJACK ELEMENTARY","address":"701 E 11TH ST","bldgnbr":"701","predir":"E","streetname":"11TH","streettype":"ST","suffdir":null,"city":"NEW RICHMOND","state_code":"WI","zip5":"54017","latitude":"45.1115670000000000","longitude":"-92.531436000000000","publicwifi":"Y","url":null,"broadband_type_id":6}
{"id":null,"anchorname":"NEW RICHMOND STARR ELEMENTARY","address":"701 E 11TH ST","bldgnbr":"701","predir":"E","streetname":"11TH","streettype":"ST","suffdir":null,"city":"NEW RICHMOND","state_code":"WI","zip5":"54017","latitude":"45.1115670000000000","longitude":"-92.531436000000000","publicwifi":"N","url":null,"broadband_type_id":6}
{"id":null,"anchorname":"NEW RICHMOND HIGH","address":"701 E 11TH ST","bldgnbr":"701","predir":"E","streetname":"11TH","streettype":"ST","suffdir":null,"city":"NEW RICHMOND","state_code":"WI","zip5":"54017","latitude":"45.1115670000000000","longitude":"-92.531436000000000","publicwifi":"N","url":null,"broadband_type_id":6}
{"id":null,"anchorname":"NEW RICHMOND MIDDLE","address":"701 E 11TH ST","bldgnbr":"701","predir":"E","streetname":"11TH","streettype":"ST","suffdir":null,"city":"NEW RICHMOND","state_code":"WI","zip5":"54017","latitude":"45.1115670000000000","longitude":"-92.531436000000000","publicwifi":"N","url":null,"broadband_type_id":6}
{"id":null,"anchorname":"NEW RICHMOND HILLSIDE ELEMENTARY","address":"701 E 11TH ST","bldgnbr":"701","predir":"E","streetname":"11TH","streettype":"ST","suffdir":null,"city":"NEW RICHMOND","state_code":"WI","zip5":"54017","latitude":"45.1115670000000000","longitude":"-92.531436000000000","publicwifi":"N","url":null,"broadband_type_id":6}
{"id":null,"anchorname":"HERITAGE CENTER","address":"1100  HERITAGE DR","bldgnbr":"1100","predir":null,"streetname":"HERITAGE","streettype":"DR","suffdir":null,"city":"NEW RICHMOND","state_code":"WI","zip5":"54017","latitude":"45.1093030000000000","longitude":"-92.536242999000000","publicwifi":"Y","url":null,"broadband_type_id":1}
{"id":null,"anchorname":"GLENWOOD CITY ELEMENTARY","address":"857  320TH ST","bldgnbr":"857","predir":null,"streetname":"320TH","streettype":"ST","suffdir":null,"city":"GLENWOOD CITY","state_code":"WI","zip5":"54013","latitude":"45.0587100000000000","longitude":"-92.174980000000000","publicwifi":"N","url":null,"broadband_type_id":6}
{"id":null,"anchorname":"GLENWOOD CITY JUNIOR HIGH","address":"850  MAPLE ST","bldgnbr":"850","predir":null,"streetname":"MAPLE","streettype":"ST","suffdir":null,"city":"GLENWOOD CITY","state_code":"WI","zip5":"54013","latitude":"45.0587100000000000","longitude":"-92.174980000000000","publicwifi":"N","url":null,"broadband_type_id":6}
{"id":null,"anchorname":"VIKING MIDDLE","address":"500 S SOUTHSIDE DR","bldgnbr":"500","predir":"S","streetname":"SOUTHSIDE","streettype":"DR","suffdir":null,"city":"WOODVILLE","state_code":"WI","zip5":"54028","latitude":"44.9458660000000000","longitude":"-92.287811000000000","publicwifi":"Y","url":null,"broadband_type_id":6}
{"id":null,"anchorname":"TRANSITIONAL SKILLS CENTER","address":"850  MAPLE ST","bldgnbr":"850","predir":null,"streetname":"MAPLE","streettype":"ST","suffdir":null,"city":"GLENWOOD CITY","state_code":"WI","zip5":"54013","latitude":"45.0587100000000000","longitude":"-92.174980000000000","publicwifi":"N","url":null,"broadband_type_id":null}
{"id":null,"anchorname":"RUSK COUNTY 10TH JUDICIAL DISTRICT COURTHOUSE","address":"311  MINER AVE E","bldgnbr":"311","predir":null,"streetname":"MINER","streettype":"AVE","suffdir":"E","city":"LADYSMITH","state_code":"WI","zip5":"54848","latitude":"45.4643130000000000","longitude":"-91.098028000000000","publicwifi":"U","url":null,"broadband_type_id":1}
{"id":null,"anchorname":"RUSK COUNTY COMM LIBRARY","address":"418  CORBETT AVE W","bldgnbr":"418","predir":null,"streetname":"CORBETT","streettype":"AVE","suffdir":"W","city":"LADYSMITH","state_code":"WI","zip5":"54848","latitude":"45.4613790000000000","longitude":"-91.104981000000000","publicwifi":"N","url":null,"broadband_type_id":6}
{"id":null,"anchorname":"RUSK COUNTY MEMORIAL HOSPITAL AND NURSING HOME","address":"900  COLLEGE AVE W","bldgnbr":"900","predir":null,"streetname":"COLLEGE","streettype":"AVE","suffdir":"W","city":"LADYSMITH","state_code":"WI","zip5":"54848","latitude":"45.4555420000000000","longitude":"-91.109444000000000","publicwifi":"Y","url":null,"broadband_type_id":3}
{"id":null,"anchorname":"HUDSON PUBLIC LIBRARY","address":"911  4TH ST","bldgnbr":"911","predir":null,"streetname":"4TH","streettype":"ST","suffdir":null,"city":"HUDSON","state_code":"WI","zip5":"54016","latitude":"44.9793780000000000","longitude":"-92.754102000000000","publicwifi":"N","url":null,"broadband_type_id":6}
{"id":null,"anchorname":"HUDSON FIRE DEPT","address":"222 WALNUT ST","bldgnbr":"222","predir":null,"streetname":"WALNUT","streettype":"ST","suffdir":null,"city":"HUDSON","state_code":"WI","zip5":"54016","latitude":"44.9745640000000000","longitude":"-92.755852000000000","publicwifi":"U","url":null,"broadband_type_id":5}
{"id":null,"anchorname":"HUDSON HIGH SCHOOL","address":"1501  VINE ST","bldgnbr":"1501","predir":null,"streetname":"VINE","streettype":"ST","suffdir":null,"city":"HUDSON","state_code":"WI","zip5":"54016","latitude":"44.9777920000000000","longitude":"-92.737902000000000","publicwifi":"Y","url":null,"broadband_type_id":6}
{"id":null,"anchorname":"SOMERSET PUBLIC LIBRARY","address":"400  HUD ST","bldgnbr":"400","predir":null,"streetname":"HUD","streettype":"ST","suffdir":null,"city":"SOMERSET","state_code":"WI","zip5":"54025","latitude":"45.1249630000000000","longitude":"-92.677717000000000","publicwifi":"N","url":null,"broadband_type_id":6}
{"id":null,"anchorname":"SOMERSET HIGH SCHOOL","address":"645  SUNRISE DR","bldgnbr":"645","predir":null,"streetname":"SUNRISE","streettype":"DR","suffdir":null,"city":"SOMERSET","state_code":"WI","zip5":"54025","latitude":"45.1170900000000000","longitude":"-92.674519001000000","publicwifi":"N","url":null,"broadband_type_id":6}
{"id":null,"anchorname":"HOULTON ELEHIGH SCHOOL","address":"70  COUNTY RD","bldgnbr":"70","predir":null,"streetname":"COUNTY","streettype":"RD","suffdir":null,"city":"HOULTON","state_code":"WI","zip5":"54082","latitude":"45.0513100000000000","longitude":"-92.721695000000000","publicwifi":"Y","url":null,"broadband_type_id":6}
{"id":null,"anchorname":"ST JOSEPH VOL FIRE DEPT","address":"1339 COUNTY RD V","bldgnbr":"1339","predir":null,"streetname":"COUNTY RD V","streettype":null,"suffdir":null,"city":"HUDSON","state_code":"WI","zip5":"54016","latitude":"45.0560180000000000","longitude":"-92.740982999000000","publicwifi":"U","url":null,"broadband_type_id":5}
{"id":null,"anchorname":"WESTFIELDS HOSPITAL","address":"535 HOSPITAL ROAD","bldgnbr":"535","predir":null,"streetname":"HOSPITAL","streettype":"RD","suffdir":null,"city":"NEW RICHMOND","state_code":"WI","zip5":"54017","latitude":"45.1180740000000000","longitude":"-92.553148000000000","publicwifi":"U","url":null,"broadband_type_id":3}
{"id":null,"anchorname":"C.A. FRIDAY MEMORIAL LIBRARY (NEW RICHMOND)","address":"155 E 1ST ST","bldgnbr":"155","predir":"E","streetname":"1ST","streettype":"ST","suffdir":null,"city":"NEW RICHMOND","state_code":"WI","zip5":"54017","latitude":"45.1226350000000000","longitude":"-92.536700001000000","publicwifi":"U","url":null,"broadband_type_id":6}
{"id":null,"anchorname":"CARLETON A. FRIDAY MEMORIAL LIBRARY","address":"155 E FIR ST","bldgnbr":"155","predir":"E","streetname":"FIR","streettype":"ST","suffdir":null,"city":"NEW RICHMOND","state_code":"WI","zip5":"54017","latitude":"45.1226350000000000","longitude":"-92.536700001000000","publicwifi":"N","url":null,"broadband_type_id":6}
{"id":null,"anchorname":"DEER PARK PUBLIC LIBRARY","address":"112  FRONT ST W","bldgnbr":"112","predir":null,"streetname":"FRONT","streettype":"ST","suffdir":"W","city":"DEER PARK","state_code":"WI","zip5":"54007","latitude":"45.1879630000000000","longitude":"-92.385711000000000","publicwifi":"N","url":null,"broadband_type_id":6}
{"id":null,"anchorname":"DEER PARK AREA FIRE DEPT","address":"2082  215TH AVE","bldgnbr":"2082","predir":null,"streetname":"215TH","streettype":"AVE","suffdir":null,"city":"DEER PARK","state_code":"WI","zip5":"54007","latitude":"45.1747630000000000","longitude":"-92.327957000000000","publicwifi":"U","url":null,"broadband_type_id":5}
{"id":null,"anchorname":"GLENWOOD CITY PUBLIC LIBRARY","address":"127  PINE ST","bldgnbr":"127","predir":null,"streetname":"PINE","streettype":"ST","suffdir":null,"city":"GLENWOOD CITY","state_code":"WI","zip5":"54013","latitude":"45.0576840000000000","longitude":"-92.171910000000000","publicwifi":"Y","url":null,"broadband_type_id":6}
{"id":null,"anchorname":"GLENWOOD CITY HIGH SCHOOL","address":"850  MAPLE ST","bldgnbr":"850","predir":null,"streetname":"MAPLE","streettype":"ST","suffdir":null,"city":"GLENWOOD CITY","state_code":"WI","zip5":"54013","latitude":"45.0629940000000000","longitude":"-92.176607000000000","publicwifi":"N","url":null,"broadband_type_id":6}
{"id":null,"anchorname":"SPRING VALLEY PUBLIC LIBRARY","address":"121  2ND ST","bldgnbr":"121","predir":null,"streetname":"2ND","streettype":"ST","suffdir":null,"city":"SPRING VALLEY","state_code":"WI","zip5":"54767","latitude":"44.9315200000000000","longitude":"-92.162986000000000","publicwifi":"N","url":null,"broadband_type_id":6}
{"id":null,"anchorname":"WOODVILLE COMM LIBRARY","address":"124 S MAIN ST","bldgnbr":"124","predir":"S","streetname":"MAIN","streettype":"ST","suffdir":null,"city":"WOODVILLE","state_code":"WI","zip5":"54028","latitude":"44.9531240000000000","longitude":"-92.291394000000000","publicwifi":"N","url":null,"broadband_type_id":6}
{"id":null,"anchorname":"BALDWIN HIGH SCHOOL","address":"1000  13TH AVE","bldgnbr":"1000","predir":null,"streetname":"13TH","streettype":"AVE","suffdir":null,"city":"BALDWIN","state_code":"WI","zip5":"54002","latitude":"44.9672810000000000","longitude":"-92.378654000000000","publicwifi":"N","url":null,"broadband_type_id":6}
{"id":null,"anchorname":"MORGAN ELEMENTARY","address":"3860 LIBERTY RD, GOLD HILL, NC 28071","bldgnbr":"3860","predir":null,"streetname":"LIBERTY","streettype":"RD","suffdir":null,"city":"GOLD HILL","state_code":"NC","zip5":"28071","latitude":"35.5805780000000000","longitude":"-80.335653000000000","publicwifi":"U","url":"http://www.rss.k12.nc.us/schoolpgs/Mgnes/mgnes.html","broadband_type_id":6}
{"id":null,"anchorname":"GRANITE QUARRY ELEMENTARY","address":"118 SOUTH WALNUT ST, GRANITE QUARRY, NC 28072","bldgnbr":"118","predir":"SOUTH","streetname":"WALNUT","streettype":"ST","suffdir":null,"city":"GRANITE QUARRY","state_code":"NC","zip5":"28072","latitude":"35.6107800000000000","longitude":"-80.447400000000000","publicwifi":"U","url":"http://www.rss.k12.nc.us/schoolpgs/gqes/gqes.html","broadband_type_id":6}
{"id":null,"anchorname":"RIVER CREST ELEMENTARY","address":"535  COUNTY RD F","bldgnbr":"535","predir":null,"streetname":"COUNTY RD F","streettype":null,"suffdir":null,"city":"HUDSON","state_code":"WI","zip5":"54016","latitude":"44.9352510000000000","longitude":"-92.731596000000000","publicwifi":"Y","url":null,"broadband_type_id":6}
{"id":null,"anchorname":"SAINT CROIX CENTRAL MIDDLE","address":"1295  VINE ST","bldgnbr":"1295","predir":null,"streetname":"VINE","streettype":"ST","suffdir":null,"city":"HAMMOND","state_code":"WI","zip5":"54015","latitude":"44.9735620000000000","longitude":"-92.437312001000000","publicwifi":"N","url":null,"broadband_type_id":6}
{"id":null,"anchorname":"LAKE DELTON ELEMENTARY","address":"520 WEST DELAVAN ST","bldgnbr":"520","predir":"WEST","streetname":"DELAVAN","streettype":"ST","suffdir":null,"city":"LAKE DELTON","state_code":"WI","zip5":"53940","latitude":"43.5885430000000000","longitude":"-89.790604000000000","publicwifi":"N","url":null,"broadband_type_id":6}
{"id":null,"anchorname":"ROCK SPRINGS ELEMENTARY","address":"306  ELM ST","bldgnbr":"306","predir":null,"streetname":"ELM","streettype":"ST","suffdir":null,"city":"ROCK SPRINGS","state_code":"WI","zip5":"53961","latitude":"43.4801370000000000","longitude":"-89.920815000000000","publicwifi":"N","url":null,"broadband_type_id":6}
{"id":null,"anchorname":"WEST ELEMENTARY-KG CTR","address":"707  CENTER ST","bldgnbr":"707","predir":null,"streetname":"CENTER","streettype":"ST","suffdir":null,"city":"BARABOO","state_code":"WI","zip5":"53913","latitude":"43.4720550000000000","longitude":"-89.749102000000000","publicwifi":"Y","url":null,"broadband_type_id":6}
{"id":null,"anchorname":"BARABOO EARLY LEARNING COOP (BELC)","address":"707  CENTER ST","bldgnbr":"707","predir":null,"streetname":"CENTER","streettype":"ST","suffdir":null,"city":"BARABOO","state_code":"WI","zip5":"53913","latitude":"43.4720550000000000","longitude":"-89.749102000000000","publicwifi":"N","url":null,"broadband_type_id":6}
{"id":null,"anchorname":"SAUK COUNTY","address":"1300  LANGE CT","bldgnbr":"1300","predir":null,"streetname":"LANGE","streettype":"CT","suffdir":null,"city":"BARABOO","state_code":"WI","zip5":"53913","latitude":"43.4611470000000000","longitude":"-89.764511000000000","publicwifi":"U","url":null,"broadband_type_id":1}
{"id":null,"anchorname":"SOUTH ELEMENTARY","address":"400  MULBERRY ST","bldgnbr":"400","predir":null,"streetname":"MULBERRY","streettype":"ST","suffdir":null,"city":"BARABOO","state_code":"WI","zip5":"53913","latitude":"43.4589700000000000","longitude":"-89.738430000000000","publicwifi":"Y","url":null,"broadband_type_id":6}
{"id":null,"anchorname":"WILLSON ELEMENTARY","address":"146  BERKLEY BLVD","bldgnbr":"146","predir":null,"streetname":"BERKLEY","streettype":"BLVD","suffdir":null,"city":"BARABOO","state_code":"WI","zip5":"53913","latitude":"43.4761870000000000","longitude":"-89.758108000000000","publicwifi":"Y","url":null,"broadband_type_id":6}
{"id":null,"anchorname":"EAST ELEMENTARY-BARABOO SD","address":"815  6TH ST","bldgnbr":"815","predir":null,"streetname":"6TH","streettype":"ST","suffdir":null,"city":"BARABOO","state_code":"WI","zip5":"53913","latitude":"43.4726240000000000","longitude":"-89.730748000000000","publicwifi":"Y","url":null,"broadband_type_id":6}
{"id":null,"anchorname":"NORTH FREEDOM ELEMENTARY","address":"500 N MAPLE ST","bldgnbr":"500","predir":"N","streetname":"MAPLE","streettype":"ST","suffdir":null,"city":"NORTH FREEDOM","state_code":"WI","zip5":"53951","latitude":"43.4388900000000000","longitude":"-89.871719999000000","publicwifi":"Y","url":null,"broadband_type_id":6}
{"id":null,"anchorname":"SAUK PRAIRIE MIDDLE","address":"207  MAPLE ST","bldgnbr":"207","predir":null,"streetname":"MAPLE","streettype":"ST","suffdir":null,"city":"SAUK CITY","state_code":"WI","zip5":"53583","latitude":"43.2799970000000000","longitude":"-89.731312000000000","publicwifi":"N","url":null,"broadband_type_id":6}
{"id":null,"anchorname":"GRAND AVENUE ELEMENTARY","address":"225  GRAND AVE","bldgnbr":"225","predir":null,"streetname":"GRAND","streettype":"AVE","suffdir":null,"city":"PRAIRIE DU SAC","state_code":"WI","zip5":"53578","latitude":"43.2854050000000000","longitude":"-89.720929000000000","publicwifi":"N","url":null,"broadband_type_id":6}
{"id":null,"anchorname":"MERRIMAC COMMUNITY","address":"360  SCHOOL ST","bldgnbr":"360","predir":null,"streetname":"SCHOOL","streettype":"ST","suffdir":null,"city":"MERRIMAC","state_code":"WI","zip5":"53561","latitude":"43.3756350000000000","longitude":"-89.623860000000000","publicwifi":"N","url":null,"broadband_type_id":1}
{"id":null,"anchorname":"BALDWIN AREA MEDICAL CENTER","address":"730 TENTH AVE.","bldgnbr":"730","predir":null,"streetname":"TENTH","streettype":"AVE","suffdir":null,"city":"BALDWIN","state_code":"WI","zip5":"54002","latitude":"44.9707670000000000","longitude":"-92.373628000000000","publicwifi":"U","url":null,"broadband_type_id":3}
{"id":null,"anchorname":"BALDWIN PUBLIC LIBRARY","address":"400  CEDAR ST","bldgnbr":"400","predir":null,"streetname":"CEDAR","streettype":"ST","suffdir":null,"city":"BALDWIN","state_code":"WI","zip5":"54002","latitude":"44.9571450000000000","longitude":"-92.367917001000000","publicwifi":"N","url":null,"broadband_type_id":6}
