{"id":null,"anchorname":"CORYDON VOLUNTEER FIRE DEPARTMENT","address":"213 S WASHINGTON CORYDON, IA 50060","bldgnbr":"213","predir":null,"streetname":"S WASHINGTON","streettype":null,"suffdir":null,"city":"CORYDON","state_code":"IA","zip5":"50060","latitude":"40.7570150000000000","longitude":"-93.318131000000000","publicwifi":"U","url":null,"broadband_type_id":5}
{"id":null,"anchorname":"KARL MILES LECOMPTE MEMORIAL LIBRARY","address":"110 S. FRANKLIN ST. CORYDON, IA 50060","bldgnbr":"110","predir":null,"streetname":"S. FRANKLIN ST.","streettype":null,"suffdir":null,"city":"CORYDON","state_code":"IA","zip5":"50060","latitude":"40.7570300000000000","longitude":"-93.318833000000000","publicwifi":"U","url":null,"broadband_type_id":6}
{"id":null,"anchorname":"WAYNE COUNTY PUBLIC HEALTH","address":"417 SOUTH EAST STREET CORYDON, IA 50060-1860","bldgnbr":"417","predir":null,"streetname":"SOUTH EAST STREET","streettype":null,"suffdir":null,"city":"CORYDON","state_code":"IA","zip5":"50060","latitude":"40.7533110000000000","longitude":"-93.312430000000000","publicwifi":"U","url":null,"broadband_type_id":3}
{"id":null,"anchorname":"HUMESTON FIRE DEPARTMENT","address":"228 BROAD ST HUMESTON, IA 50123","bldgnbr":"228","predir":null,"streetname":"BROAD ST","streettype":null,"suffdir":null,"city":"HUMESTON","state_code":"IA","zip5":"50123","latitude":"40.8589310000000000","longitude":"-93.497614000000000","publicwifi":"U","url":null,"broadband_type_id":5}
{"id":null,"anchorname":"MORMON TRAIL ELEMENTARY SCHOOL","address":"403 SOUTH FRONT STREET HUMESTON, IA 50123","bldgnbr":"403","predir":null,"streetname":"SOUTH FRONT STREET","streettype":null,"suffdir":null,"city":"HUMESTON","state_code":"IA","zip5":"50123","latitude":"40.8557140000000000","longitude":"-93.499405000000000","publicwifi":"U","url":null,"broadband_type_id":6}
{"id":null,"anchorname":"LINEVILLE VOLUNTEER FIRE DEPARTMENT","address":"201 MAIN ST LINEVILLE, IA 50147","bldgnbr":"201","predir":null,"streetname":"MAIN ST","streettype":null,"suffdir":null,"city":"LINEVILLE","state_code":"IA","zip5":"50147","latitude":"40.5895460000000000","longitude":"-93.523807000000000","publicwifi":"U","url":null,"broadband_type_id":5}
{"id":null,"anchorname":"LINEVILLE ELEMENTARY SCHOOL","address":"200 WEST SIXTH STREET LINEVILLE, IA 50147","bldgnbr":"200","predir":null,"streetname":"WEST SIXTH STREET","streettype":null,"suffdir":null,"city":"LINEVILLE","state_code":"IA","zip5":"50147","latitude":"40.5836390000000000","longitude":"-93.524160000000000","publicwifi":"U","url":null,"broadband_type_id":6}
{"id":null,"anchorname":"LINEVILLE-CLIO JR-SR HIGH SCHOOL","address":"200 WEST SIXTH STREET LINEVILLE, IA 50147","bldgnbr":"200","predir":null,"streetname":"WEST SIXTH STREET","streettype":null,"suffdir":null,"city":"LINEVILLE","state_code":"IA","zip5":"50147","latitude":"40.5836390000000000","longitude":"-93.524160000000000","publicwifi":"U","url":null,"broadband_type_id":6}
{"id":null,"anchorname":"HUMESTON PUBLIC LIBRARY","address":"302 BROAD ST HUMESTON, IA 50123","bldgnbr":"302","predir":null,"streetname":"BROAD ST","streettype":null,"suffdir":null,"city":"HUMESTON","state_code":"IA","zip5":"50123","latitude":"40.8589190000000000","longitude":"-93.496550000000000","publicwifi":"U","url":null,"broadband_type_id":6}
{"id":null,"anchorname":"ALLERTON PUBLIC LIBRARY","address":"103 S. CENTRAL AVE. ALLERTON, IA 50008","bldgnbr":"103","predir":null,"streetname":"S. CENTRAL AVE.","streettype":null,"suffdir":null,"city":"ALLERTON","state_code":"IA","zip5":"50008","latitude":"40.7065340000000000","longitude":"-93.365128000000000","publicwifi":"U","url":null,"broadband_type_id":6}
{"id":null,"anchorname":"ALLERTON FIRE DEPARTMENT","address":"100 E PINE ST ALLERTON, IA 50008","bldgnbr":"100","predir":null,"streetname":"E PINE ST ALLERTON IA 50008","streettype":null,"suffdir":null,"city":"ALLERTON","state_code":"IA","zip5":"50008","latitude":"40.7046310000000000","longitude":"-93.365129000000000","publicwifi":"U","url":null,"broadband_type_id":5}
{"id":null,"anchorname":"SEYMOUR HIGH SCHOOL","address":"100 SOUTH PARK SEYMOUR, IA 52590","bldgnbr":"100","predir":null,"streetname":"SOUTH PARK","streettype":null,"suffdir":null,"city":"SEYMOUR","state_code":"IA","zip5":"52590","latitude":"40.6809330000000000","longitude":"-93.116139000000000","publicwifi":"U","url":null,"broadband_type_id":6}
{"id":null,"anchorname":"SEYMOUR ELEMENTARY SCHOOL","address":"100 SOUTH PARK SEYMOUR, IA 52590","bldgnbr":"100","predir":null,"streetname":"SOUTH PARK","streettype":null,"suffdir":null,"city":"SEYMOUR","state_code":"IA","zip5":"52590","latitude":"40.6809330000000000","longitude":"-93.116139000000000","publicwifi":"U","url":null,"broadband_type_id":6}
{"id":null,"anchorname":"SEYMOUR VOLUNTEER FIRE DEPARTMENT","address":"111 NORTH 5TH STREET SEYMOUR, IA 52590-9999","bldgnbr":"111","predir":null,"streetname":"NORTH 5TH STREET","streettype":null,"suffdir":null,"city":"SEYMOUR","state_code":"IA","zip5":"52590","latitude":"40.6816530000000000","longitude":"-93.121186000000000","publicwifi":"U","url":null,"broadband_type_id":5}
{"id":null,"anchorname":"SEYMOUR COMMUNITY LIBRARY","address":"123 N. 5TH ST. SEYMOUR, IA 52590","bldgnbr":"123","predir":null,"streetname":"N. 5TH ST.","streettype":null,"suffdir":null,"city":"SEYMOUR","state_code":"IA","zip5":"52590","latitude":"40.6817490000000000","longitude":"-93.121189000000000","publicwifi":"U","url":null,"broadband_type_id":6}
{"id":null,"anchorname":"COOPER ELEMENTARY SCHOOL","address":"2420 14TH AVENUE NORTH FORT DODGE, IA 50501","bldgnbr":"2420","predir":null,"streetname":"14TH AVENUE NORTH","streettype":null,"suffdir":null,"city":"FORT DODGE","state_code":"IA","zip5":"50501","latitude":"42.5192380000000000","longitude":"-94.159099000000000","publicwifi":"U","url":null,"broadband_type_id":6}
{"id":null,"anchorname":"DUNCOMBE ELEMENTARY SCHOOL","address":"615 N 16TH ST FORT DODGE, IA 50501","bldgnbr":"615","predir":null,"streetname":"N 16TH ST","streettype":null,"suffdir":null,"city":"FORT DODGE","state_code":"IA","zip5":"50501","latitude":"42.5121110000000000","longitude":"-94.176380000000000","publicwifi":"U","url":null,"broadband_type_id":6}
{"id":null,"anchorname":"FORT DODGE HIGH SCHOOL","address":"819 N 25TH ST FORT DODGE, IA 50501","bldgnbr":"819","predir":null,"streetname":"N 25TH ST","streettype":null,"suffdir":null,"city":"FORT DODGE","state_code":"IA","zip5":"50501","latitude":"42.5140940000000000","longitude":"-94.164418000000000","publicwifi":"U","url":null,"broadband_type_id":6}
{"id":null,"anchorname":"ST. EDMOND SCHOOLS","address":"2220 4TH AVE N FORT DODGE, IA 50501","bldgnbr":"2220","predir":null,"streetname":"4TH AVE N","streettype":null,"suffdir":null,"city":"FORT DODGE","state_code":"IA","zip5":"50501","latitude":"42.5102630000000000","longitude":"-94.167252000000000","publicwifi":"U","url":null,"broadband_type_id":6}
{"id":null,"anchorname":"ST EDMOND CATHOLIC MIDDLE/HIGH SCHOOL","address":"501 N 22ND ST FORT DODGE, IA 50501","bldgnbr":"501","predir":null,"streetname":"N 22ND ST","streettype":null,"suffdir":null,"city":"FORT DODGE","state_code":"IA","zip5":"50501","latitude":"42.5115900000000000","longitude":"-94.168033000000000","publicwifi":"U","url":null,"broadband_type_id":6}
{"id":null,"anchorname":"COMMUNITY CHRISTIAN SCHOOL","address":"3058 10TH AVE N FORT DODGE, IA 50501","bldgnbr":"3058","predir":null,"streetname":"10TH AVE N","streettype":null,"suffdir":null,"city":"FORT DODGE","state_code":"IA","zip5":"50501","latitude":"42.5164630000000000","longitude":"-94.152104000000000","publicwifi":"U","url":null,"broadband_type_id":6}
{"id":null,"anchorname":"FEELHAVER ELEMENTARY SCHOOL","address":"1300 14TH AVE N FORT DODGE, IA 50501","bldgnbr":"1300","predir":null,"streetname":"14TH AVE N","streettype":null,"suffdir":null,"city":"FORT DODGE","state_code":"IA","zip5":"50501","latitude":"42.5197630000000000","longitude":"-94.183667000000000","publicwifi":"U","url":null,"broadband_type_id":6}
{"id":null,"anchorname":"IOWA DEPT. HUMAN SERVICES - BLACK HAWK COUNTY","address":"1407 INDEPENDENCE AVE WATERLOO, IA 50704-7500","bldgnbr":"1407","predir":null,"streetname":"INDEPENDENCE AVE","streettype":null,"suffdir":null,"city":"WATERLOO","state_code":"IA","zip5":"50704","latitude":"42.4984020000000000","longitude":"-92.307549000000000","publicwifi":"U","url":null,"broadband_type_id":6}
{"id":null,"anchorname":"PRAIRIE LAKES AEA FORT DODGE","address":"1235 5TH AVE S FORT DODGE, IA 50501","bldgnbr":"1235","predir":null,"streetname":"5TH AVE S","streettype":null,"suffdir":null,"city":"FORT DODGE","state_code":"IA","zip5":"50501","latitude":"42.5008790000000000","longitude":"-94.182030000000000","publicwifi":"U","url":null,"broadband_type_id":6}
{"id":null,"anchorname":"FT.DODGE COMMUNITY CORRECTIONS CENTER","address":"311 1ST AVE S. FT. DODGE, IA 50501","bldgnbr":"311","predir":null,"streetname":"1ST AVE S.","streettype":null,"suffdir":null,"city":"FT. DODGE","state_code":"IA","zip5":"50501","latitude":"42.5031730000000000","longitude":"-94.193608000000000","publicwifi":"U","url":null,"broadband_type_id":1}
{"id":null,"anchorname":"PRAIRIE LAKES AEA","address":"1235 5TH AVE SOUTH FORT DODGE, IA 50501","bldgnbr":"1235","predir":null,"streetname":"5TH AVE SOUTH","streettype":null,"suffdir":null,"city":"FORT DODGE","state_code":"IA","zip5":"50501","latitude":"42.5009540000000000","longitude":"-94.182033000000000","publicwifi":"U","url":null,"broadband_type_id":6}
{"id":null,"anchorname":"AEA 8 PRAIRIE LAKES","address":"330 AVENUE M FORT DODGE, IA 50501","bldgnbr":"330","predir":null,"streetname":"AVENUE M","streettype":null,"suffdir":null,"city":"FORT DODGE","state_code":"IA","zip5":"50501","latitude":"42.5056340000000000","longitude":"-94.179335000000000","publicwifi":"U","url":null,"broadband_type_id":6}
{"id":null,"anchorname":"GREAT WESTERN DINING SERVICE","address":"ONE TRITON CIRCLE FORT DODGE, IA 50501","bldgnbr":"N/A","predir":null,"streetname":"TRITON CIRCLE","streettype":null,"suffdir":null,"city":"FORT DODGE","state_code":"IA","zip5":"50501","latitude":"42.4909700000000000","longitude":"-94.200006000000000","publicwifi":"U","url":null,"broadband_type_id":6}
{"id":null,"anchorname":"CITY OF BADGER","address":"120 1ST ST. SE  PO BOX 253 BADGER, IA 50516","bldgnbr":"120","predir":null,"streetname":"1ST ST. SE","streettype":null,"suffdir":null,"city":"BADGER","state_code":"IA","zip5":"50516","latitude":"42.6146700000000000","longitude":"-94.146675000000000","publicwifi":"U","url":null,"broadband_type_id":1}
{"id":null,"anchorname":"HAAKE","address":"22397 LIBERTY LANE FORT DODGE, IA 50501","bldgnbr":"22397","predir":null,"streetname":"LIBERTY LANE","streettype":null,"suffdir":null,"city":"FORT DODGE","state_code":"IA","zip5":"50501","latitude":"42.4656520000000000","longitude":"-94.206988000000000","publicwifi":"U","url":null,"broadband_type_id":null}
{"id":null,"anchorname":"PHILLIPS MIDDLE SCHOOL","address":"1015 5TH AVE N FORT DODGE, IA 50501","bldgnbr":"1015","predir":null,"streetname":"5TH AVE N","streettype":null,"suffdir":null,"city":"FORT DODGE","state_code":"IA","zip5":"50501","latitude":"42.5100180000000000","longitude":"-94.185246000000000","publicwifi":"U","url":null,"broadband_type_id":6}
{"id":null,"anchorname":"WEBSTER COUNTY HEALTH DEPARTMENT","address":"330 1ST AVENUE NORTH  SUITE L2 FORT DODGE, IA 50501","bldgnbr":"330","predir":null,"streetname":"1ST AVENUE NORTH, SUITE L2","streettype":null,"suffdir":null,"city":"FORT DODGE","state_code":"IA","zip5":"50501","latitude":"42.5057190000000000","longitude":"-94.192715000000000","publicwifi":"U","url":null,"broadband_type_id":3}
{"id":null,"anchorname":"LA JAMES INTERNATIONAL COLLEGE","address":"2419 5TH AVENUE SOUTH FORT DODGE, IA 50501","bldgnbr":"2419","predir":null,"streetname":"5TH AVENUE SOUTH","streettype":null,"suffdir":null,"city":"FORT DODGE","state_code":"IA","zip5":"50501","latitude":"42.4996480000000000","longitude":"-94.163693000000000","publicwifi":"U","url":null,"broadband_type_id":6}
{"id":null,"anchorname":"IOWA CENTRAL COMMUNITY COLLEGE","address":"330 AVENUE M FORT DODGE, IA 50501","bldgnbr":"330","predir":null,"streetname":"AVENUE M","streettype":null,"suffdir":null,"city":"FORT DODGE","state_code":"IA","zip5":"50501","latitude":"42.5056340000000000","longitude":"-94.179335000000000","publicwifi":"U","url":null,"broadband_type_id":6}
{"id":null,"anchorname":"FORT DODGE COMMUNITY SCHOOL DISTRICT","address":"104 SOUTH 17TH STREET FORT DODGE, IA 50501","bldgnbr":"104","predir":null,"streetname":"SOUTH 17TH STREET","streettype":null,"suffdir":null,"city":"FORT DODGE","state_code":"IA","zip5":"50501","latitude":"42.5051200000000000","longitude":"-94.174977000000000","publicwifi":"U","url":null,"broadband_type_id":6}
{"id":null,"anchorname":"FORT DODGE POLICE DEPARTMENT","address":"702 1ST AVENUE S FORT DODGE, IA 50501","bldgnbr":"702","predir":null,"streetname":"1ST AVENUE S","streettype":null,"suffdir":null,"city":"FORT DODGE","state_code":"IA","zip5":"50501","latitude":"42.5042510000000000","longitude":"-94.188138000000000","publicwifi":"U","url":null,"broadband_type_id":4}
{"id":null,"anchorname":"WEBSTER COUNTY SHERIFF","address":"702 FIRST AVENUE S. FORT DODGE, IA 50501","bldgnbr":"702","predir":null,"streetname":"FIRST AVENUE S.","streettype":null,"suffdir":null,"city":"FORT DODGE","state_code":"IA","zip5":"50501","latitude":"42.5042510000000000","longitude":"-94.188138000000000","publicwifi":"U","url":null,"broadband_type_id":4}
{"id":null,"anchorname":"FORT DODGE PUBLIC LIBRARY","address":"424 CENTRAL AVENUE FORT DODGE, IA 50501","bldgnbr":"424","predir":null,"streetname":"CENTRAL AVENUE","streettype":null,"suffdir":null,"city":"FORT DODGE","state_code":"IA","zip5":"50501","latitude":"42.5047930000000000","longitude":"-94.192587000000000","publicwifi":"U","url":null,"broadband_type_id":6}
{"id":null,"anchorname":"HARVEST BAPTIST SCHOOL","address":"614 2ND AVE S FORT DODGE, IA 50501","bldgnbr":"614","predir":null,"streetname":"2ND AVE S","streettype":null,"suffdir":null,"city":"FORT DODGE","state_code":"IA","zip5":"50501","latitude":"42.5028110000000000","longitude":"-94.189257000000000","publicwifi":"U","url":null,"broadband_type_id":6}
{"id":null,"anchorname":"FAIR OAKS MIDDLE SCHOOL","address":"416 SOUTH 10TH STREET FORT DODGE, IA 50501","bldgnbr":"416","predir":null,"streetname":"SOUTH 10TH STREET","streettype":null,"suffdir":null,"city":"FORT DODGE","state_code":"IA","zip5":"50501","latitude":"42.5019920000000000","longitude":"-94.183753000000000","publicwifi":"U","url":null,"broadband_type_id":6}
{"id":null,"anchorname":"TRINITY REGIONAL MEDICAL CENTER","address":"802 KENYON ROAD FORT DODGE, IA 50501","bldgnbr":"802","predir":null,"streetname":"KENYON ROAD","streettype":null,"suffdir":null,"city":"FORT DODGE","state_code":"IA","zip5":"50501","latitude":"42.4920030000000000","longitude":"-94.190252000000000","publicwifi":"U","url":null,"broadband_type_id":3}
{"id":null,"anchorname":"IOWA CENTRAL COMMUNITY COLLEGE","address":"ONE TRITON CIRCLE FORT DODGE, IA 50501","bldgnbr":"N/A","predir":null,"streetname":"TRITON CIRCLE","streettype":null,"suffdir":null,"city":"FORT DODGE","state_code":"IA","zip5":"50501","latitude":"42.4909700000000000","longitude":"-94.200006000000000","publicwifi":"U","url":null,"broadband_type_id":6}
{"id":null,"anchorname":"BIRKEY COMMUNITY COLLEGE","address":"ONE TRITON CIRCLE FORT DODGE, IA 50501","bldgnbr":"N/A","predir":null,"streetname":"TRITON CIRCLE","streettype":null,"suffdir":null,"city":"FORT DODGE","state_code":"IA","zip5":"50501","latitude":"42.4909700000000000","longitude":"-94.200006000000000","publicwifi":"U","url":null,"broadband_type_id":6}
{"id":null,"anchorname":"RIVERSIDE ELEMENTARY SCHOOL","address":"733 F ST FORT DODGE, IA 50501","bldgnbr":"733","predir":null,"streetname":"F ST","streettype":null,"suffdir":null,"city":"FORT DODGE","state_code":"IA","zip5":"50501","latitude":"42.4964130000000000","longitude":"-94.198560000000000","publicwifi":"U","url":null,"broadband_type_id":6}
{"id":null,"anchorname":"DUNCOMBE FIRE DEPARTMENT","address":"606 MAIN STREET DUNCOMBE, IA 50532","bldgnbr":"606","predir":null,"streetname":"MAIN STREET","streettype":null,"suffdir":null,"city":"DUNCOMBE","state_code":"IA","zip5":"50532","latitude":"42.4696130000000000","longitude":"-93.993542000000000","publicwifi":"U","url":null,"broadband_type_id":5}
{"id":null,"anchorname":"DUNCOMBE PUBLIC LIBRARY","address":"621 PRINCE STREET  P. O. BOX 178 DUNCOMBE, IA 50532-0178","bldgnbr":"621","predir":null,"streetname":"PRINCE STREET","streettype":null,"suffdir":null,"city":"DUNCOMBE","state_code":"IA","zip5":"50532","latitude":"42.4693230000000000","longitude":"-93.994098000000000","publicwifi":"U","url":null,"broadband_type_id":6}
{"id":null,"anchorname":"VINCENT FIRE DEPARTMENT","address":"102 S 1ST ST VINCENT, IA 50594-7703","bldgnbr":"102","predir":null,"streetname":"S 1ST ST","streettype":null,"suffdir":null,"city":"VINCENT","state_code":"IA","zip5":"50594","latitude":"42.5913310000000000","longitude":"-94.020482000000000","publicwifi":"U","url":null,"broadband_type_id":5}
{"id":null,"anchorname":"BADGER FIRE DEPARTMENT","address":"242 1ST ST. SW BADGER, IA 50561","bldgnbr":"242","predir":null,"streetname":"1ST ST. SW","streettype":null,"suffdir":null,"city":"BADGER","state_code":"IA","zip5":"50561","latitude":"42.6130000000000000","longitude":"-94.148648000000000","publicwifi":"U","url":null,"broadband_type_id":5}
{"id":null,"anchorname":"BADGER POLICE DEPARTMENT","address":"120 1ST AVENUE S.E. BADGER, IA 50516","bldgnbr":"120","predir":null,"streetname":"1ST AVENUE S.E.","streettype":null,"suffdir":null,"city":"BADGER","state_code":"IA","zip5":"50516","latitude":"42.6151270000000000","longitude":"-94.146261000000000","publicwifi":"U","url":null,"broadband_type_id":4}
{"id":null,"anchorname":"BADGER PUBLIC LIBRARY","address":"211 1ST AVE. SE  PO BOX 255 BADGER, IA 50516","bldgnbr":"211","predir":null,"streetname":"1ST AVE. SE","streettype":null,"suffdir":null,"city":"BADGER","state_code":"IA","zip5":"50516","latitude":"42.6148340000000000","longitude":"-94.144098000000000","publicwifi":"U","url":null,"broadband_type_id":6}
{"id":null,"anchorname":"CLARE PUBLIC LIBRARY","address":"119 E. FRONT ST. CLARE, IA 50524","bldgnbr":"119","predir":null,"streetname":"E. FRONT ST.","streettype":null,"suffdir":null,"city":"CLARE","state_code":"IA","zip5":"50524","latitude":"42.5874730000000000","longitude":"-94.343592000000000","publicwifi":"U","url":null,"broadband_type_id":6}
{"id":null,"anchorname":"CLARE FIRE DEPARTMENT","address":"123 EAST FRONT STREET CLARE, IA 50524","bldgnbr":"123","predir":null,"streetname":"EAST FRONT STREET","streettype":null,"suffdir":null,"city":"CLARE","state_code":"IA","zip5":"50524","latitude":"42.5874410000000000","longitude":"-94.344077000000000","publicwifi":"U","url":null,"broadband_type_id":5}
{"id":null,"anchorname":"JOHNSON TWP BARNUM CONN FIRE DEPARTMENT","address":"416 EAST ST BARNUM, IA 50518","bldgnbr":"416","predir":null,"streetname":"EAST ST","streettype":null,"suffdir":null,"city":"BARNUM","state_code":"IA","zip5":"50518","latitude":"42.5082140000000000","longitude":"-94.363832000000000","publicwifi":"U","url":null,"broadband_type_id":5}
{"id":null,"anchorname":"BARNUM FIRE DEPARTMENT","address":"414 EAST STREET BARNUM, IA 50518","bldgnbr":"414","predir":null,"streetname":"EAST STREET","streettype":null,"suffdir":null,"city":"BARNUM","state_code":"IA","zip5":"50518","latitude":"42.5082310000000000","longitude":"-94.363827000000000","publicwifi":"U","url":null,"broadband_type_id":5}
{"id":null,"anchorname":"MANSON NORTHWEST WEBSTER ELEMENTARY SCHOOL","address":"303 PIERCE STREET BARNUM, IA 50518","bldgnbr":"303","predir":null,"streetname":"PIERCE STREET","streettype":null,"suffdir":null,"city":"BARNUM","state_code":"IA","zip5":"50518","latitude":"42.5047770000000000","longitude":"-94.361511000000000","publicwifi":"U","url":null,"broadband_type_id":6}
{"id":null,"anchorname":"CALLENDER COMMUNITY FIRE DEPARTMENT","address":"704 GILMORE AVE CALLENDAR, IA 50523","bldgnbr":"704","predir":null,"streetname":"GILMORE AVE","streettype":null,"suffdir":null,"city":"CALLENDAR","state_code":"IA","zip5":"50523","latitude":"42.3618240000000000","longitude":"-94.291473000000000","publicwifi":"U","url":null,"broadband_type_id":5}
{"id":null,"anchorname":"FLORIDA LEGISLATURE SERGEANT OF ARMS OFFICE","address":"125 INDIAN ROCKS ROAD NORTH, BELLEAIR BLUFFS, FL, 33770","bldgnbr":"125","predir":"0","streetname":"INDIAN ROCKS","streettype":"ROAD","suffdir":"NORTH","city":"BELLEAIR BLUFFS","state_code":"FL","zip5":"33770","latitude":"27.9182500000000000","longitude":"-82.816233000000000","publicwifi":"Y","url":"0","broadband_type_id":6}
{"id":null,"anchorname":"FLORIDA DEPARTMENT OF CHILDREN AND FAMILIES NORTH PINELLAS SERVICE CENTER","address":"11351 ULMERTON RD, LARGO, FL 33778","bldgnbr":"11351","predir":null,"streetname":"ULMERTON","streettype":"RD","suffdir":null,"city":"LARGO (GRIZZLE BLDG.)*","state_code":"FL","zip5":"33778","latitude":"27.8947588400000000","longitude":"-82.796671590000000","publicwifi":"Y","url":"0","broadband_type_id":6}
{"id":null,"anchorname":"CITY OF OTHO","address":"205 N HIGHWAY STREET  PO BOX 160 OTHO, IA 50569","bldgnbr":"205","predir":null,"streetname":"N HIGHWAY STREET","streettype":null,"suffdir":null,"city":"OTHO","state_code":"IA","zip5":"50569","latitude":"42.4216350000000000","longitude":"-94.150397000000000","publicwifi":"U","url":null,"broadband_type_id":1}
{"id":null,"anchorname":"NORTH IOWA ELEMENTARY BUFFALO CENTER","address":"111 3RD AVE NW BUFFALO CENTER, IA 50424","bldgnbr":"111","predir":null,"streetname":"3RD AVE NW","streettype":null,"suffdir":null,"city":"BUFFALO CENTER","state_code":"IA","zip5":"50424","latitude":"43.3880930000000000","longitude":"-93.947789000000000","publicwifi":"U","url":null,"broadband_type_id":6}
{"id":null,"anchorname":"DAYTON CENTER","address":"104 2ND ST. NW DAYTON, IA 50530","bldgnbr":"104","predir":null,"streetname":"2ND ST. NW","streettype":null,"suffdir":null,"city":"DAYTON","state_code":"IA","zip5":"50530","latitude":"42.2631360000000000","longitude":"-94.071103000000000","publicwifi":"U","url":null,"broadband_type_id":null}
{"id":null,"anchorname":"CALLENDER HERITAGE LIBRARY","address":"505 THOMAS STREET CALLENDER, IA 50523","bldgnbr":"505","predir":null,"streetname":"THOMAS STREET","streettype":null,"suffdir":null,"city":"CALLENDER","state_code":"IA","zip5":"50523","latitude":"42.3616940000000000","longitude":"-94.292875000000000","publicwifi":"U","url":null,"broadband_type_id":6}
{"id":null,"anchorname":"MOORLAND FIRE DEPARTMENT","address":"404 THIRD ST MOORLAND, IA 50566","bldgnbr":"404","predir":null,"streetname":"THIRD ST","streettype":null,"suffdir":null,"city":"MOORLAND","state_code":"IA","zip5":"50566","latitude":"42.4397730000000000","longitude":"-94.296332000000000","publicwifi":"U","url":null,"broadband_type_id":5}
{"id":null,"anchorname":"HARCOURT PUBLIC LIBRARY","address":"106 W. 2ND ST. HARCOURT, IA 50544","bldgnbr":"106","predir":null,"streetname":"W. 2ND ST.","streettype":null,"suffdir":null,"city":"HARCOURT","state_code":"IA","zip5":"50544","latitude":"42.2627360000000000","longitude":"-94.175980000000000","publicwifi":"U","url":null,"broadband_type_id":6}
{"id":null,"anchorname":"BENEFITED FIRE DISTRICT NO 3","address":"3763 KANSAS AVE HARCOURT, IA 50544","bldgnbr":"3763","predir":null,"streetname":"KANSAS AVE","streettype":null,"suffdir":null,"city":"HARCOURT","state_code":"IA","zip5":"50544","latitude":"42.2312030000000000","longitude":"-94.203879000000000","publicwifi":"U","url":null,"broadband_type_id":5}
{"id":null,"anchorname":"GOWRIE PUBLIC LIBRARY","address":"1202 MARKET GOWRIE, IA 50543","bldgnbr":"1202","predir":null,"streetname":"MARKET","streettype":null,"suffdir":null,"city":"GOWRIE","state_code":"IA","zip5":"50543","latitude":"42.2807170000000000","longitude":"-94.291332000000000","publicwifi":"U","url":null,"broadband_type_id":6}
{"id":null,"anchorname":"GOWRIE VOLUNTEER FIRE","address":"1108 MAIN ST GOWRIE, IA 50543","bldgnbr":"1108","predir":null,"streetname":"MAIN ST","streettype":null,"suffdir":null,"city":"GOWRIE","state_code":"IA","zip5":"50543","latitude":"42.2822640000000000","longitude":"-94.289412000000000","publicwifi":"U","url":null,"broadband_type_id":5}
{"id":null,"anchorname":"GOWRIE POLICE DEPARTMENT","address":"1206 MARKET STREET GOWRIE, IA 50543","bldgnbr":"1206","predir":null,"streetname":"MARKET STREET","streettype":null,"suffdir":null,"city":"GOWRIE","state_code":"IA","zip5":"50543","latitude":"42.2806010000000000","longitude":"-94.291579000000000","publicwifi":"U","url":null,"broadband_type_id":4}
{"id":null,"anchorname":"PRAIRIE VIEW HIGH SCHOOL","address":"1005 RIDDLE STREET  BOX 49 GOWRIE, IA 50543","bldgnbr":"1005","predir":null,"streetname":"RIDDLE STREET","streettype":null,"suffdir":null,"city":"GOWRIE","state_code":"IA","zip5":"50543","latitude":"42.2790240000000000","longitude":"-94.294689000000000","publicwifi":"U","url":null,"broadband_type_id":6}
{"id":null,"anchorname":"PRAIRIE VALLEY HIGH SCHOOL","address":"1005 RIDDLE STREET GOWRIE, IA 50543","bldgnbr":"1005","predir":null,"streetname":"RIDDLE STREET","streettype":null,"suffdir":null,"city":"GOWRIE","state_code":"IA","zip5":"50543","latitude":"42.2794090000000000","longitude":"-94.294993000000000","publicwifi":"U","url":null,"broadband_type_id":6}
{"id":null,"anchorname":"SOUTHEAST WEBSTER HIGH SCHOOL","address":"30850 PARAGON AVENUE BURNSIDE, IA 50521","bldgnbr":"30850","predir":null,"streetname":"PARAGON AVENUE","streettype":null,"suffdir":null,"city":"BURNSIDE","state_code":"IA","zip5":"50521","latitude":"42.3435150000000000","longitude":"-94.105757000000000","publicwifi":"U","url":null,"broadband_type_id":6}
{"id":null,"anchorname":"IOWA CENTRAL CHARTER HIGH SCHOOL","address":"30850 PARAGON AVENUE BURNSIDE, IA 50521","bldgnbr":"30850","predir":null,"streetname":"PARAGON AVENUE","streettype":null,"suffdir":null,"city":"BURNSIDE","state_code":"IA","zip5":"50521","latitude":"42.3435150000000000","longitude":"-94.105757000000000","publicwifi":"U","url":null,"broadband_type_id":6}
{"id":null,"anchorname":"DAYTON PUBLIC LIBRARY","address":"36 WEST SKILLET ST. DAYTON, IA 50530","bldgnbr":"36","predir":null,"streetname":"WEST SKILLET ST.","streettype":null,"suffdir":null,"city":"DAYTON","state_code":"IA","zip5":"50530","latitude":"42.2615370000000000","longitude":"-94.068885000000000","publicwifi":"U","url":null,"broadband_type_id":6}
{"id":null,"anchorname":"DAYTON PUBLIC LIBRARY","address":"22 FIRST STREET NW DAYTON, IA 50530","bldgnbr":"22","predir":null,"streetname":"FIRST STREET NW","streettype":null,"suffdir":null,"city":"DAYTON","state_code":"IA","zip5":"50530","latitude":"42.2616950000000000","longitude":"-94.069734000000000","publicwifi":"U","url":null,"broadband_type_id":6}
{"id":null,"anchorname":"OTHO FIRE - RESCUE","address":"324 RAILROAD ST OTHO, IA 50569","bldgnbr":"324","predir":null,"streetname":"RAILROAD ST","streettype":null,"suffdir":null,"city":"OTHO","state_code":"IA","zip5":"50569","latitude":"42.4230280000000000","longitude":"-94.152781000000000","publicwifi":"U","url":null,"broadband_type_id":5}
{"id":null,"anchorname":"LEHIGH PUBLIC LIBRARY","address":"241 ELM STREET LEHIGH, IA 50557","bldgnbr":"241","predir":null,"streetname":"ELM STREET","streettype":null,"suffdir":null,"city":"LEHIGH","state_code":"IA","zip5":"50557","latitude":"42.3589970000000000","longitude":"-94.051288000000000","publicwifi":"U","url":null,"broadband_type_id":6}
{"id":null,"anchorname":"LEHIGH VOLUNTEER FIRE DEPARTMENT","address":"241 ELM ST LEHIGH, IA 50557","bldgnbr":"241","predir":null,"streetname":"ELM ST","streettype":null,"suffdir":null,"city":"LEHIGH","state_code":"IA","zip5":"50557","latitude":"42.3589970000000000","longitude":"-94.051288000000000","publicwifi":"U","url":null,"broadband_type_id":5}
{"id":null,"anchorname":"SCARVILLE LUTHERAN SCHOOL","address":"411 LOGAN ST SCARVILLE, IA 50473","bldgnbr":"411","predir":null,"streetname":"LOGAN ST","streettype":null,"suffdir":null,"city":"SCARVILLE","state_code":"IA","zip5":"50473","latitude":"43.4730180000000000","longitude":"-93.618346000000000","publicwifi":"U","url":null,"broadband_type_id":6}
{"id":null,"anchorname":"SCARVILLE FIRE DEPARTMENT","address":"102 E 2ND ST SCARVILLE, IA 50473","bldgnbr":"102","predir":null,"streetname":"E 2ND ST","streettype":null,"suffdir":null,"city":"SCARVILLE","state_code":"IA","zip5":"50473","latitude":"43.4703950000000000","longitude":"-93.617050000000000","publicwifi":"U","url":null,"broadband_type_id":5}
{"id":null,"anchorname":"LAKE MILLS FIRE DEPT.","address":"101 WEST MAIN ST. LAKE MILLS, IA 50450","bldgnbr":"101","predir":null,"streetname":"WEST MAIN ST.","streettype":null,"suffdir":null,"city":"LAKE MILLS","state_code":"IA","zip5":"50450","latitude":"43.4193120000000000","longitude":"-93.532518000000000","publicwifi":"U","url":null,"broadband_type_id":5}
{"id":null,"anchorname":"LAKE MILLS COMMUNITY SCHOOL","address":"102 S 4TH AV E LAKE MILLS, IA 50450","bldgnbr":"102","predir":null,"streetname":"S 4TH AV E","streettype":null,"suffdir":null,"city":"LAKE MILLS","state_code":"IA","zip5":"50450","latitude":"43.4156820000000000","longitude":"-93.532642000000000","publicwifi":"U","url":null,"broadband_type_id":6}
{"id":null,"anchorname":"LAKE MILLS POLICE DEPARTMENT","address":"304 S. MILL LAKE MILLS, IA 50450","bldgnbr":"304","predir":null,"streetname":"S. MILL","streettype":null,"suffdir":null,"city":"LAKE MILLS","state_code":"IA","zip5":"50450","latitude":"43.4164320000000000","longitude":"-93.535127000000000","publicwifi":"U","url":null,"broadband_type_id":4}
{"id":null,"anchorname":"LAKE MILLS PUBLIC LIBRARY","address":"102 S. LAKE ST. LAKE MILLS, IA 50450","bldgnbr":"102","predir":null,"streetname":"S. LAKE ST.","streettype":null,"suffdir":null,"city":"LAKE MILLS","state_code":"IA","zip5":"50450","latitude":"43.4156510000000000","longitude":"-93.532675000000000","publicwifi":"U","url":null,"broadband_type_id":6}
{"id":null,"anchorname":"LAKE MILLS ELEMENTARY SCHOOL","address":"102 S 4TH AVE E LAKE MILLS, IA 50450","bldgnbr":"102","predir":null,"streetname":"S 4TH AVE E","streettype":null,"suffdir":null,"city":"LAKE MILLS","state_code":"IA","zip5":"50450","latitude":"43.4156510000000000","longitude":"-93.532675000000000","publicwifi":"U","url":null,"broadband_type_id":6}
{"id":null,"anchorname":"LAKE MILLS MIDDLE SCHOOL","address":"102 S 4TH AVE E LAKE MILLS, IA 50450","bldgnbr":"102","predir":null,"streetname":"S 4TH AVE E","streettype":null,"suffdir":null,"city":"LAKE MILLS","state_code":"IA","zip5":"50450","latitude":"43.4156510000000000","longitude":"-93.532675000000000","publicwifi":"U","url":null,"broadband_type_id":6}
{"id":null,"anchorname":"LAKE MILLS SENIOR HIGH SCHOOL","address":"102 S 4TH AVE E LAKE MILLS, IA 50450","bldgnbr":"102","predir":null,"streetname":"S 4TH AVE E","streettype":null,"suffdir":null,"city":"LAKE MILLS","state_code":"IA","zip5":"50450","latitude":"43.4156510000000000","longitude":"-93.532675000000000","publicwifi":"U","url":null,"broadband_type_id":6}
{"id":null,"anchorname":"RAKE PUBLIC LIBRARY","address":"123 NORTH MAIN STREET RAKE, IA 50465","bldgnbr":"123","predir":null,"streetname":"NORTH MAIN STREET","streettype":null,"suffdir":null,"city":"RAKE","state_code":"IA","zip5":"50465","latitude":"43.4834300000000000","longitude":"-93.918717000000000","publicwifi":"U","url":null,"broadband_type_id":6}
{"id":null,"anchorname":"RAKE FIRE DEPT.","address":"210 EAST GRACE STREET RAKE, IA 50465","bldgnbr":"210","predir":null,"streetname":"EAST GRACE STREET","streettype":null,"suffdir":null,"city":"RAKE","state_code":"IA","zip5":"50465","latitude":"43.4838730000000000","longitude":"-93.916374000000000","publicwifi":"U","url":null,"broadband_type_id":5}
{"id":null,"anchorname":"NORTH IOWA HIGH SCHOOL","address":"111 3RD AVE NW BUFFALO CENTER, IA 50424","bldgnbr":"111","predir":null,"streetname":"3RD AVE NW","streettype":null,"suffdir":null,"city":"BUFFALO CENTER","state_code":"IA","zip5":"50424","latitude":"43.3880930000000000","longitude":"-93.947789000000000","publicwifi":"U","url":null,"broadband_type_id":6}
{"id":null,"anchorname":"BUFFALO CENTER PUBLIC LIBRARY","address":"221 NORTH MAIN STREET BUFFALO CENTER, IA 50424","bldgnbr":"221","predir":null,"streetname":"NORTH MAIN STREET","streettype":null,"suffdir":null,"city":"BUFFALO CENTER","state_code":"IA","zip5":"50424","latitude":"43.3871230000000000","longitude":"-93.946455000000000","publicwifi":"U","url":null,"broadband_type_id":6}
{"id":null,"anchorname":"BUFFALO CENTER POLICE DEPARTMENT","address":"314 1ST AVENUE N.W. BUFFALO CENTER, IA 50424","bldgnbr":"314","predir":null,"streetname":"1ST AVENUE N.W.","streettype":null,"suffdir":null,"city":"BUFFALO CENTER","state_code":"IA","zip5":"50424","latitude":"43.3881910000000000","longitude":"-93.947543000000000","publicwifi":"U","url":null,"broadband_type_id":4}
{"id":null,"anchorname":"NORTH IOWA COMMUNITY SCHOOL DISTRICT","address":"111 3RD AVE NW BUFFALO CENTER, IA 50424","bldgnbr":"111","predir":null,"streetname":"3RD AVE NW","streettype":null,"suffdir":null,"city":"BUFFALO CENTER","state_code":"IA","zip5":"50424","latitude":"43.3880300000000000","longitude":"-93.947695000000000","publicwifi":"U","url":null,"broadband_type_id":6}
{"id":null,"anchorname":"SPORTS AND ORTHOPEDIC REHABILITATION SERVICES","address":"13819 WALSINGHAM RD, LARGO, FL, 33774","bldgnbr":"13819","predir":"0","streetname":"WALSINGHAM","streettype":"RD","suffdir":"0","city":"LARGO","state_code":"FL","zip5":"33774","latitude":"27.8805350000000000","longitude":"-82.829876000000000","publicwifi":"U","url":"0","broadband_type_id":6}
{"id":null,"anchorname":"ABUNDANT LIFE CHRISTIAN ACADEMY","address":"1855 S HIGHLAND AVE, CLEARWATER, FL 33756","bldgnbr":"1855","predir":null,"streetname":"HIGHLAND","streettype":"AVE","suffdir":null,"city":"CLEARWATER","state_code":"FL","zip5":"33756","latitude":"27.9287919700000000","longitude":"-82.773990840000000","publicwifi":"U","url":"0","broadband_type_id":6}
{"id":null,"anchorname":"LIFEWORKS WELLNESS CENTER INC","address":"301 TURNER ST, CLEARWATER, FL, 33756","bldgnbr":"301","predir":"0","streetname":"TURNER","streettype":"ST","suffdir":"0","city":"CLEARWATER","state_code":"FL","zip5":"33756","latitude":"27.9595250000000000","longitude":"-82.801618000000000","publicwifi":"U","url":"0","broadband_type_id":6}
{"id":null,"anchorname":"IOWA DEPT. HUMAN SERVICES - WINNEBAGO COUNTY","address":"126 SOUTH CLARK FOREST CITY, IA 50436","bldgnbr":"126","predir":null,"streetname":"SOUTH CLARK","streettype":null,"suffdir":null,"city":"FOREST CITY","state_code":"IA","zip5":"50436","latitude":"43.2632470000000000","longitude":"-93.638405000000000","publicwifi":"U","url":null,"broadband_type_id":6}
{"id":null,"anchorname":"WINNEBAGO COUNTY","address":"126 S CLARK FOREST CITY, IA 50436","bldgnbr":"126","predir":null,"streetname":"S CLARK","streettype":null,"suffdir":null,"city":"FOREST CITY","state_code":"IA","zip5":"50436","latitude":"43.2632470000000000","longitude":"-93.638405000000000","publicwifi":"U","url":null,"broadband_type_id":1}
{"id":null,"anchorname":"CITY OF DECORAH","address":"400 CLAIBORNE DR.  PO BOX 138 DECORAH, IA 52101","bldgnbr":"400","predir":null,"streetname":"CLAIBORNE DR.","streettype":null,"suffdir":null,"city":"DECORAH","state_code":"IA","zip5":"52101","latitude":"43.3060190000000000","longitude":"-91.787818000000000","publicwifi":"U","url":null,"broadband_type_id":1}
{"id":null,"anchorname":"IOWA DEPT. HUMAN SERVICES - ALLAMAKEE COUNTY","address":"2307 US HIGHWAY 52 S DECORAH, IA 52101","bldgnbr":"2307","predir":null,"streetname":"US HIGHWAY 52 S","streettype":null,"suffdir":null,"city":"DECORAH","state_code":"IA","zip5":"52101","latitude":"43.2704160000000000","longitude":"-91.831149000000000","publicwifi":"U","url":null,"broadband_type_id":6}
{"id":null,"anchorname":"IOWA DEPT. HUMAN SERVICES - WINNESHIEK COUNTY","address":"2307 US 52 S. DECORAH, IA 52101","bldgnbr":"2307","predir":null,"streetname":"US 52 S.","streettype":null,"suffdir":null,"city":"DECORAH","state_code":"IA","zip5":"52101","latitude":"43.2672530000000000","longitude":"-91.833293000000000","publicwifi":"U","url":null,"broadband_type_id":6}
{"id":null,"anchorname":"CARRIE LEE ELEMENTARY","address":"210 VERNON STREET DECORAH, IA 52101","bldgnbr":"210","predir":null,"streetname":"VERNON STREET","streettype":null,"suffdir":null,"city":"DECORAH","state_code":"IA","zip5":"52101","latitude":"43.2996430000000000","longitude":"-91.787335000000000","publicwifi":"U","url":null,"broadband_type_id":6}
{"id":null,"anchorname":"WINNESHIEK CO. FAMILY SERVICES -- NORTHEAST IOWA COMMUNITY ACTION CORPORATION","address":"305 MONTGOMERY ST.  PO BOX 487 DECORAH, IA 52101","bldgnbr":"305","predir":null,"streetname":"MONTGOMERY ST.","streettype":null,"suffdir":null,"city":"DECORAH","state_code":"IA","zip5":"52101","latitude":"43.3017400000000000","longitude":"-91.776231000000000","publicwifi":"U","url":null,"broadband_type_id":6}
{"id":null,"anchorname":"NORTHLAND AGENCY ON AGING","address":"808 RIVER STREET DECORAH, IA 52101","bldgnbr":"808","predir":null,"streetname":"RIVER STREET","streettype":null,"suffdir":null,"city":"DECORAH","state_code":"IA","zip5":"52101","latitude":"43.2965210000000000","longitude":"-91.789779000000000","publicwifi":"U","url":null,"broadband_type_id":null}
{"id":null,"anchorname":"THOMPSON VOLUNTEER FIRE DEPARTMENT","address":"142 N JACKSON ST THOMPSON, IA 50478-0155","bldgnbr":"142","predir":null,"streetname":"N JACKSON ST","streettype":null,"suffdir":null,"city":"THOMPSON","state_code":"IA","zip5":"50478","latitude":"43.3713220000000000","longitude":"-93.771027000000000","publicwifi":"U","url":null,"broadband_type_id":5}
{"id":null,"anchorname":"NORTH IOWA MIDDLE SCHOOL","address":"108 4TH AVENUE THOMPSON, IA 50478","bldgnbr":"108","predir":null,"streetname":"4TH AVENUE","streettype":null,"suffdir":null,"city":"THOMPSON","state_code":"IA","zip5":"50478","latitude":"43.3679320000000000","longitude":"-93.773603000000000","publicwifi":"U","url":null,"broadband_type_id":6}
{"id":null,"anchorname":"NORTH IOWA ALTERNATIVE HIGH SCHOOL","address":"116 JACKSON ST S THOMPSON, IA 50478","bldgnbr":"116","predir":null,"streetname":"JACKSON ST S","streettype":null,"suffdir":null,"city":"THOMPSON","state_code":"IA","zip5":"50478","latitude":"43.3680280000000000","longitude":"-93.771043000000000","publicwifi":"U","url":null,"broadband_type_id":6}
{"id":null,"anchorname":"FOREST CITY CHRISTIAN SCHOOL","address":"305 WALNUT ST FOREST CITY, IA 50436","bldgnbr":"305","predir":null,"streetname":"WALNUT ST","streettype":null,"suffdir":null,"city":"FOREST CITY","state_code":"IA","zip5":"50436","latitude":"43.2758440000000000","longitude":"-93.638385000000000","publicwifi":"U","url":null,"broadband_type_id":6}
{"id":null,"anchorname":"FOREST CITY ELEMENTARY SCHOOL","address":"1405 W I ST FOREST CITY, IA 50436","bldgnbr":"1405","predir":null,"streetname":"W I ST","streettype":null,"suffdir":null,"city":"FOREST CITY","state_code":"IA","zip5":"50436","latitude":"43.2629300000000000","longitude":"-93.652657000000000","publicwifi":"U","url":null,"broadband_type_id":6}
{"id":null,"anchorname":"FOREST CITY ALTERNATIVE SCHOOL","address":"810 W K ST FOREST CITY, IA 50436","bldgnbr":"810","predir":null,"streetname":"W K ST","streettype":null,"suffdir":null,"city":"FOREST CITY","state_code":"IA","zip5":"50436","latitude":"43.2647970000000000","longitude":"-93.646689000000000","publicwifi":"U","url":null,"broadband_type_id":6}
{"id":null,"anchorname":"FOREST CITY COMMUNITY SCHOOLS","address":"810 WEST K ST FOREST CITY, IA 50436","bldgnbr":"810","predir":null,"streetname":"WEST K ST","streettype":null,"suffdir":null,"city":"FOREST CITY","state_code":"IA","zip5":"50436","latitude":"43.2649310000000000","longitude":"-93.647624000000000","publicwifi":"U","url":null,"broadband_type_id":6}
{"id":null,"anchorname":"FOREST CITY PUBLIC LIBRARY","address":"115 EAST L. STREET FOREST CITY, IA 50436","bldgnbr":"115","predir":null,"streetname":"EAST L. STREET","streettype":null,"suffdir":null,"city":"FOREST CITY","state_code":"IA","zip5":"50436","latitude":"43.2655390000000000","longitude":"-93.637982000000000","publicwifi":"U","url":null,"broadband_type_id":6}
{"id":null,"anchorname":"FOREST CITY MIDDLE SCHOOL","address":"216 W SCHOOL ST FOREST CITY, IA 50436","bldgnbr":"216","predir":null,"streetname":"W SCHOOL ST","streettype":null,"suffdir":null,"city":"FOREST CITY","state_code":"IA","zip5":"50436","latitude":"43.2640120000000000","longitude":"-93.640150000000000","publicwifi":"U","url":null,"broadband_type_id":6}
{"id":null,"anchorname":"FOREST CITY HIGH SCHOOL","address":"206 W SCHOOL ST FOREST CITY, IA 50436","bldgnbr":"206","predir":null,"streetname":"W SCHOOL ST","streettype":null,"suffdir":null,"city":"FOREST CITY","state_code":"IA","zip5":"50436","latitude":"43.2640200000000000","longitude":"-93.640129000000000","publicwifi":"U","url":null,"broadband_type_id":6}
{"id":null,"anchorname":"WALDORF COLLEGE","address":"106 S SIXTH ST FOREST CITY, IA 50436-1713","bldgnbr":"106","predir":null,"streetname":"S SIXTH ST","streettype":null,"suffdir":null,"city":"FOREST CITY","state_code":"IA","zip5":"50436","latitude":"43.2634960000000000","longitude":"-93.639636000000000","publicwifi":"U","url":null,"broadband_type_id":6}
{"id":null,"anchorname":"NORTH WINNESHIEK MIDDLE SCHOOL","address":"3495 NORTH WINN ROAD DECORAH, IA 52101","bldgnbr":"3495","predir":null,"streetname":"NORTH WINN ROAD","streettype":null,"suffdir":null,"city":"DECORAH","state_code":"IA","zip5":"52101","latitude":"43.4420700000000000","longitude":"-91.809507000000000","publicwifi":"U","url":null,"broadband_type_id":6}
{"id":null,"anchorname":"RIDGEWAY ELEMENTARY SCHOOL","address":"435 COUNTY ST. RIDGEWAY, IA 52165","bldgnbr":"435","predir":null,"streetname":"COUNTY ST.","streettype":null,"suffdir":null,"city":"RIDGEWAY","state_code":"IA","zip5":"52165","latitude":"43.2965790000000000","longitude":"-91.990850000000000","publicwifi":"U","url":null,"broadband_type_id":6}
{"id":null,"anchorname":"RIDGEWAY FIRE DEPARTMENT","address":"1620 MAIN ST RIDGEWAY, IA 52165-9791","bldgnbr":"1620","predir":null,"streetname":"MAIN ST","streettype":null,"suffdir":null,"city":"RIDGEWAY","state_code":"IA","zip5":"52165","latitude":"43.2972830000000000","longitude":"-91.987869000000000","publicwifi":"U","url":null,"broadband_type_id":5}
{"id":null,"anchorname":"DECORAH FIRE DEPARTMENT","address":"400 CLAIBORNE DR DECORAH, IA 52101","bldgnbr":"400","predir":null,"streetname":"CLAIBORNE DR","streettype":null,"suffdir":null,"city":"DECORAH","state_code":"IA","zip5":"52101","latitude":"43.3060190000000000","longitude":"-91.787818000000000","publicwifi":"U","url":null,"broadband_type_id":5}
{"id":null,"anchorname":"DECORAH POLICE DEPARTMENT","address":"400 CLAIBORNE DRIVE DECORAH, IA 52101","bldgnbr":"400","predir":null,"streetname":"CLAIBORNE DRIVE","streettype":null,"suffdir":null,"city":"DECORAH","state_code":"IA","zip5":"52101","latitude":"43.3060710000000000","longitude":"-91.784114000000000","publicwifi":"U","url":null,"broadband_type_id":4}
{"id":null,"anchorname":"WINNESHIEK COUNTY SHERIFF","address":"400 CLAIBORNE DRIVE DECORAH, IA 52101","bldgnbr":"400","predir":null,"streetname":"CLAIBORNE DRIVE","streettype":null,"suffdir":null,"city":"DECORAH","state_code":"IA","zip5":"52101","latitude":"43.3060710000000000","longitude":"-91.784114000000000","publicwifi":"U","url":null,"broadband_type_id":4}
{"id":null,"anchorname":"JOHN CLINE ELEMENTARY SCHOOL","address":"101 CLAIBORNE DRIVE DECORAH, IA 52101","bldgnbr":"101","predir":null,"streetname":"CLAIBORNE DRIVE","streettype":null,"suffdir":null,"city":"DECORAH","state_code":"IA","zip5":"52101","latitude":"43.3058630000000000","longitude":"-91.785145000000000","publicwifi":"U","url":null,"broadband_type_id":6}
{"id":null,"anchorname":"DECORAH HIGH SCHOOL","address":"100 CLAIBORNE DRIVE DECORAH, IA 52101","bldgnbr":"100","predir":null,"streetname":"CLAIBORNE DRIVE DECORAH IA 52101","streettype":null,"suffdir":null,"city":"DECORAH","state_code":"IA","zip5":"52101","latitude":"43.3059100000000000","longitude":"-91.785106000000000","publicwifi":"U","url":null,"broadband_type_id":6}
{"id":null,"anchorname":"DECORAH PUBLIC LIBRARY","address":"202 WINNEBAGO ST. DECORAH, IA 52101","bldgnbr":"202","predir":null,"streetname":"WINNEBAGO ST.","streettype":null,"suffdir":null,"city":"DECORAH","state_code":"IA","zip5":"52101","latitude":"43.3032650000000000","longitude":"-91.787061000000000","publicwifi":"U","url":null,"broadband_type_id":6}
{"id":null,"anchorname":"WEST SIDE ELEMENTARY SCHOOL","address":"307 CENTER STREET DECORAH, IA 52101","bldgnbr":"307","predir":null,"streetname":"CENTER STREET","streettype":null,"suffdir":null,"city":"DECORAH","state_code":"IA","zip5":"52101","latitude":"43.3068220000000000","longitude":"-91.800002000000000","publicwifi":"U","url":null,"broadband_type_id":6}
{"id":null,"anchorname":"LUTHER COLLEGE","address":"700 COLLEGE DRIVE DECORAH, IA 52101-1045","bldgnbr":"700","predir":null,"streetname":"COLLEGE DRIVE","streettype":null,"suffdir":null,"city":"DECORAH","state_code":"IA","zip5":"52101","latitude":"43.3132360000000000","longitude":"-91.799323000000000","publicwifi":"U","url":null,"broadband_type_id":6}
{"id":null,"anchorname":"DECORAH COMMUNITY SCHOOL DISTRICT","address":"510 WINNEBAGO STREET DECORAH, IA 52101","bldgnbr":"510","predir":null,"streetname":"WINNEBAGO STREET","streettype":null,"suffdir":null,"city":"DECORAH","state_code":"IA","zip5":"52101","latitude":"43.3001050000000000","longitude":"-91.787129000000000","publicwifi":"U","url":null,"broadband_type_id":6}
{"id":null,"anchorname":"DECORAH MIDDLE SCHOOL","address":"405 WINNEBAGO ST. DECORAH, IA 52101","bldgnbr":"405","predir":null,"streetname":"WINNEBAGO ST.","streettype":null,"suffdir":null,"city":"DECORAH","state_code":"IA","zip5":"52101","latitude":"43.3014300000000000","longitude":"-91.787211000000000","publicwifi":"U","url":null,"broadband_type_id":6}
{"id":null,"anchorname":"LAKESIDE OF LAKELAND INC","address":"7527 ULMERTON RD, LARGO, FL, 33771","bldgnbr":"7527","predir":"0","streetname":"ULMERTON","streettype":"RD","suffdir":"0","city":"LARGO","state_code":"FL","zip5":"33771","latitude":"27.8942990000000000","longitude":"-82.742106000000000","publicwifi":"U","url":"0","broadband_type_id":6}
{"id":null,"anchorname":"PINELLAS COUNTY STUDENT SERVICES/ MIGRANT/ VIRTUAL PROGRAM/ MCKAY SCHOLARSHIP/ HOMEBOUND PROGRAM","address":"301 4TH ST SW, LARGO, FL 33770","bldgnbr":"301","predir":null,"streetname":"4TH","streettype":"ST","suffdir":null,"city":"LARGO","state_code":"FL","zip5":"33770","latitude":"27.9141878700000000","longitude":"-82.793450860000000","publicwifi":"U","url":"0","broadband_type_id":6}
{"id":null,"anchorname":"ORTHOPAEDIC ASSOCIATES OF WEST FLORIDA","address":"430 MORTON PLANT ST, CLEARWATER, FL, 33756","bldgnbr":"430","predir":"0","streetname":"MORTON PLANT","streettype":"ST","suffdir":"0","city":"CLEARWATER","state_code":"FL","zip5":"33756","latitude":"27.9529440000000000","longitude":"-82.801082000000000","publicwifi":"U","url":"0","broadband_type_id":6}
{"id":null,"anchorname":"OSSIAN AMBULANCE SERVICE","address":"104 N LYDIA ST OSSIAN, IA 52161","bldgnbr":"104","predir":null,"streetname":"N LYDIA STREET","streettype":null,"suffdir":null,"city":"OSSIAN","state_code":"IA","zip5":"52161","latitude":"43.1459150000000000","longitude":"-91.764374000000000","publicwifi":"U","url":null,"broadband_type_id":null}
{"id":null,"anchorname":"SIOUXLAND PARAMEDICS","address":"1901 7TH STREET SIOUX CITY, IA 51102","bldgnbr":"1901","predir":null,"streetname":"7TH STREET","streettype":null,"suffdir":null,"city":"SIOUX CITY","state_code":"IA","zip5":"51102","latitude":"42.4975410000000000","longitude":"-96.385509000000000","publicwifi":"U","url":null,"broadband_type_id":null}
{"id":null,"anchorname":"ST BENEDICT SCHOOL","address":"402 RURAL AVE DECORAH, IA 52101","bldgnbr":"402","predir":null,"streetname":"RURAL AVE","streettype":null,"suffdir":null,"city":"DECORAH","state_code":"IA","zip5":"52101","latitude":"43.2963970000000000","longitude":"-91.781325000000000","publicwifi":"U","url":null,"broadband_type_id":6}
{"id":null,"anchorname":"WINNESHIEK MEDICAL CENTER","address":"901 MONTGOMERY STREET DECORAH, IA 52101-2325","bldgnbr":"901","predir":null,"streetname":"MONTGOMERY STREET","streettype":null,"suffdir":null,"city":"DECORAH","state_code":"IA","zip5":"52101","latitude":"43.2948250000000000","longitude":"-91.771368000000000","publicwifi":"U","url":null,"broadband_type_id":3}
{"id":null,"anchorname":"OSSIAN PUBLIC LIBRARY","address":"123 W MAIN  PO BOX 120 OSSIAN, IA 52161","bldgnbr":"123","predir":null,"streetname":"W MAIN","streettype":null,"suffdir":null,"city":"OSSIAN","state_code":"IA","zip5":"52161","latitude":"43.1458300000000000","longitude":"-91.765262000000000","publicwifi":"U","url":null,"broadband_type_id":6}
{"id":null,"anchorname":"SOUTH WINNESHIEK ELEMENTARY SCHOOL","address":"208 EAST BROOKS STREET OSSIAN, IA 52161","bldgnbr":"208","predir":null,"streetname":"EAST BROOKS STREET","streettype":null,"suffdir":null,"city":"OSSIAN","state_code":"IA","zip5":"52161","latitude":"43.1436020000000000","longitude":"-91.762355000000000","publicwifi":"U","url":null,"broadband_type_id":6}
{"id":null,"anchorname":"SOUTH WINNESHIEK MIDDLE SCHOOL","address":"208 EAST BROOKS STREET OSSIAN, IA 52161","bldgnbr":"208","predir":null,"streetname":"EAST BROOKS STREET","streettype":null,"suffdir":null,"city":"OSSIAN","state_code":"IA","zip5":"52161","latitude":"43.1436020000000000","longitude":"-91.762355000000000","publicwifi":"U","url":null,"broadband_type_id":6}
{"id":null,"anchorname":"DE SALES SCHOOL","address":"414 E MAIN ST OSSIAN, IA 52161","bldgnbr":"414","predir":null,"streetname":"E MAIN ST","streettype":null,"suffdir":null,"city":"OSSIAN","state_code":"IA","zip5":"52161","latitude":"43.1436530000000000","longitude":"-91.759067000000000","publicwifi":"U","url":null,"broadband_type_id":6}
{"id":null,"anchorname":"FRANKVILLE FIRE DEPARTMENT","address":"1140 FRANKVILLE RD POSTVILLE, IA 52162","bldgnbr":"1140","predir":null,"streetname":"FRANKVILLE RD","streettype":null,"suffdir":null,"city":"POSTVILLE","state_code":"IA","zip5":"52162","latitude":"43.1908760000000000","longitude":"-91.619281000000000","publicwifi":"U","url":null,"broadband_type_id":5}
{"id":null,"anchorname":"CASTALIA VOLUNTEER FIREMEN INC.","address":"108 W GREENE ST CASTALIA, IA 52133","bldgnbr":"108","predir":null,"streetname":"W GREENE ST","streettype":null,"suffdir":null,"city":"CASTALIA","state_code":"IA","zip5":"52133","latitude":"43.1119680000000000","longitude":"-91.676454000000000","publicwifi":"U","url":null,"broadband_type_id":5}
{"id":null,"anchorname":"OSSIAN FIRE DEPARTMENT","address":"104 N LYDIA OSSIAN, IA 52161","bldgnbr":"104","predir":null,"streetname":"N LYDIA","streettype":null,"suffdir":null,"city":"OSSIAN","state_code":"IA","zip5":"52161","latitude":"43.1460820000000000","longitude":"-91.764580000000000","publicwifi":"U","url":null,"broadband_type_id":5}
{"id":null,"anchorname":"CALMAR PUBLIC LIBRARY","address":"101 SOUTH WASHINGTON STREET CALMAR, IA 52132","bldgnbr":"101","predir":null,"streetname":"SOUTH WASHINGTON STREET","streettype":null,"suffdir":null,"city":"CALMAR","state_code":"IA","zip5":"52132","latitude":"43.1828310000000000","longitude":"-91.865832000000000","publicwifi":"U","url":null,"broadband_type_id":6}
{"id":null,"anchorname":"CALMAR FIRE DEPT.","address":"101 S. CHARLES CALMAR, IA 52132-0377","bldgnbr":"101","predir":null,"streetname":"S. CHARLES","streettype":null,"suffdir":null,"city":"CALMAR","state_code":"IA","zip5":"52132","latitude":"43.1828450000000000","longitude":"-91.868669000000000","publicwifi":"U","url":null,"broadband_type_id":5}
{"id":null,"anchorname":"SPILLVILLE PUBLIC LIBRARY","address":"201 OAK SPILLVILLE, IA 52168","bldgnbr":"201","predir":null,"streetname":"OAK","streettype":null,"suffdir":null,"city":"SPILLVILLE","state_code":"IA","zip5":"52168","latitude":"43.2035030000000000","longitude":"-91.953311000000000","publicwifi":"U","url":null,"broadband_type_id":6}
{"id":null,"anchorname":"NORTHEAST IOWA COMMUNITY COLLEGE","address":"1625 HIGHWAY 150 CALMAR, IA 52132","bldgnbr":"1625","predir":null,"streetname":"HIGHWAY 150","streettype":null,"suffdir":null,"city":"CALMAR","state_code":"IA","zip5":"52132","latitude":"43.1735200000000000","longitude":"-91.864235000000000","publicwifi":"U","url":null,"broadband_type_id":6}
{"id":null,"anchorname":"CALMAR POLICE DEPARTMENT","address":"101 S. WASHINGTON  P.O. BOX 598 CALMAR, IA 52132","bldgnbr":"101","predir":null,"streetname":"S. WASHINGTON","streettype":null,"suffdir":null,"city":"CALMAR","state_code":"IA","zip5":"52132","latitude":"43.1828130000000000","longitude":"-91.865837000000000","publicwifi":"U","url":null,"broadband_type_id":4}
{"id":null,"anchorname":"CFS CATHOLIC SCHOOL","address":"302 S MARYVILLE ST CALMAR, IA 52132","bldgnbr":"302","predir":null,"streetname":"S MARYVILLE ST","streettype":null,"suffdir":null,"city":"CALMAR","state_code":"IA","zip5":"52132","latitude":"43.1808000000000000","longitude":"-91.864978000000000","publicwifi":"U","url":null,"broadband_type_id":6}
{"id":null,"anchorname":"SOUTH WINNESHIEK HIGH SCHOOL","address":"303 WEBSTER ST CALMAR, IA 52132","bldgnbr":"303","predir":null,"streetname":"WEBSTER ST","streettype":null,"suffdir":null,"city":"CALMAR","state_code":"IA","zip5":"52132","latitude":"43.1805930000000000","longitude":"-91.866868000000000","publicwifi":"U","url":null,"broadband_type_id":6}
{"id":null,"anchorname":"FORT ATKINSON PUBLIC LIBRARY","address":"302 3RD NW FORT ATKINSON, IA 52144","bldgnbr":"302","predir":null,"streetname":"3RD NW","streettype":null,"suffdir":null,"city":"FORT ATKINSON","state_code":"IA","zip5":"52144","latitude":"43.1439380000000000","longitude":"-91.934250000000000","publicwifi":"U","url":null,"broadband_type_id":6}
{"id":null,"anchorname":"TURKEY VALLEY ELEMENTARY SCHOOL","address":"3219 ST HWY 24 JACKSON JUNCTION, IA 52171","bldgnbr":"3219","predir":null,"streetname":"ST HWY 24","streettype":null,"suffdir":null,"city":"JACKSON JUNCTION","state_code":"IA","zip5":"52171","latitude":"43.0973010000000000","longitude":"-92.063666000000000","publicwifi":"U","url":null,"broadband_type_id":6}
{"id":null,"anchorname":"TURKEY VALLEY JR-SR HIGH SCHOOL","address":"3219 ST HWY 24 JACKSON JUNCTION, IA 52171","bldgnbr":"3219","predir":null,"streetname":"ST HWY 24","streettype":null,"suffdir":null,"city":"JACKSON JUNCTION","state_code":"IA","zip5":"52171","latitude":"43.0973010000000000","longitude":"-92.063666000000000","publicwifi":"U","url":null,"broadband_type_id":6}
{"id":null,"anchorname":"MCKINLEY ELEMENTARY SCHOOL","address":"200 PAXTON ST SIOUX CITY, IA 51105","bldgnbr":"200","predir":null,"streetname":"PAXTON ST","streettype":null,"suffdir":null,"city":"SIOUX CITY","state_code":"IA","zip5":"51105","latitude":"42.4921970000000000","longitude":"-96.365175000000000","publicwifi":"U","url":null,"broadband_type_id":6}
{"id":null,"anchorname":"NORTH MIDDLE SCHOOL","address":"2101 OUTER DR N SIOUX CITY, IA 51108","bldgnbr":"2101","predir":null,"streetname":"OUTER DR N","streettype":null,"suffdir":null,"city":"SIOUX CITY","state_code":"IA","zip5":"51108","latitude":"42.5410260000000000","longitude":"-96.382524000000000","publicwifi":"U","url":null,"broadband_type_id":6}
{"id":null,"anchorname":"HAWTHORNE ELEMENTARY SCHOOL","address":"4405 CENTRAL ST SIOUX CITY, IA 51108","bldgnbr":"4405","predir":null,"streetname":"CENTRAL ST","streettype":null,"suffdir":null,"city":"SIOUX CITY","state_code":"IA","zip5":"51108","latitude":"42.5451780000000000","longitude":"-96.361490000000000","publicwifi":"U","url":null,"broadband_type_id":6}
{"id":null,"anchorname":"HOLY CROSS SCHOOL-ST MICHAEL CENTER","address":"4105 HARRISON ST SIOUX CITY, IA 51108","bldgnbr":"4105","predir":null,"streetname":"HARRISON ST","streettype":null,"suffdir":null,"city":"SIOUX CITY","state_code":"IA","zip5":"51108","latitude":"42.5408840000000000","longitude":"-96.362821000000000","publicwifi":"U","url":null,"broadband_type_id":6}
{"id":null,"anchorname":"LEEDS ELEMENTARY SCHOOL","address":"3919 JEFFERSON ST SIOUX CITY, IA 51108","bldgnbr":"3919","predir":null,"streetname":"JEFFERSON ST","streettype":null,"suffdir":null,"city":"SIOUX CITY","state_code":"IA","zip5":"51108","latitude":"42.5376470000000000","longitude":"-96.367719000000000","publicwifi":"U","url":null,"broadband_type_id":6}
{"id":null,"anchorname":"BRYANT ELEMENTARY SCHOOL","address":"821 30TH ST SIOUX CITY, IA 51104","bldgnbr":"821","predir":null,"streetname":"30TH ST","streettype":null,"suffdir":null,"city":"SIOUX CITY","state_code":"IA","zip5":"51104","latitude":"42.5221110000000000","longitude":"-96.400471000000000","publicwifi":"U","url":null,"broadband_type_id":6}
{"id":null,"anchorname":"HOLY CROSS SCHOOL/BLESSED SACRAMENT SCHOOL","address":"3030 JACKSON ST SIOUX CITY, IA 51104","bldgnbr":"3030","predir":null,"streetname":"JACKSON ST","streettype":null,"suffdir":null,"city":"SIOUX CITY","state_code":"IA","zip5":"51104","latitude":"42.5225280000000000","longitude":"-96.402215000000000","publicwifi":"U","url":null,"broadband_type_id":6}
{"id":null,"anchorname":"CLARK ELEMENTARY SCHOOL","address":"4315 HAMILTON BLVD. SIOUX CITY, IA 51104","bldgnbr":"4315","predir":null,"streetname":"HAMILTON BLVD.","streettype":null,"suffdir":null,"city":"SIOUX CITY","state_code":"IA","zip5":"51104","latitude":"42.5448750000000000","longitude":"-96.407397000000000","publicwifi":"U","url":null,"broadband_type_id":6}
{"id":null,"anchorname":"NORTH HIGH SCHOOL","address":"4200 CHEYENNE SIOUX CITY, IA 51104","bldgnbr":"4200","predir":null,"streetname":"CHEYENNE","streettype":null,"suffdir":null,"city":"SIOUX CITY","state_code":"IA","zip5":"51104","latitude":"42.5422120000000000","longitude":"-96.393381000000000","publicwifi":"U","url":null,"broadband_type_id":6}
{"id":null,"anchorname":"SACRED HEART SCHOOL","address":"5010 MILITARY RD SIOUX CITY, IA 51103","bldgnbr":"5010","predir":null,"streetname":"MILITARY RD","streettype":null,"suffdir":null,"city":"SIOUX CITY","state_code":"IA","zip5":"51103","latitude":"42.5199710000000000","longitude":"-96.474213000000000","publicwifi":"U","url":null,"broadband_type_id":6}
{"id":null,"anchorname":"WEST MIDDLE SCHOOL","address":"3301 W 19TH ST SIOUX CITY, IA 51103","bldgnbr":"3301","predir":null,"streetname":"W 19TH ST","streettype":null,"suffdir":null,"city":"SIOUX CITY","state_code":"IA","zip5":"51103","latitude":"42.5085130000000000","longitude":"-96.451446000000000","publicwifi":"U","url":null,"broadband_type_id":6}
{"id":null,"anchorname":"WEST HIGH SCHOOL","address":"2001 CASSELMAN SIOUX CITY, IA 51103","bldgnbr":"2001","predir":null,"streetname":"CASSELMAN","streettype":null,"suffdir":null,"city":"SIOUX CITY","state_code":"IA","zip5":"51103","latitude":"42.5106720000000000","longitude":"-96.443802000000000","publicwifi":"U","url":null,"broadband_type_id":6}
{"id":null,"anchorname":"EMERSON ELEMENTARY SCHOOL","address":"2410 W 1ST ST SIOUX CITY, IA 51103","bldgnbr":"2410","predir":null,"streetname":"W 1ST ST","streettype":null,"suffdir":null,"city":"SIOUX CITY","state_code":"IA","zip5":"51103","latitude":"42.4972650000000000","longitude":"-96.440438000000000","publicwifi":"U","url":null,"broadband_type_id":6}
{"id":null,"anchorname":"WARREN PSYCHIATRIC SERVICES PA","address":"516 LAKEVIEW ROAD, CLEARWATER, FL, 33756","bldgnbr":"516","predir":"0","streetname":"LAKEVIEW","streettype":"ROAD","suffdir":"0","city":"CLEARWATER","state_code":"FL","zip5":"33756","latitude":"27.9482330000000000","longitude":"-82.799659000000000","publicwifi":"U","url":"0","broadband_type_id":6}
{"id":null,"anchorname":"BOYS \u0026 GIRLS HOME \u0026 FAMILY SERVICES","address":"2101 COURT ST SIOUX CITY, IA 51104","bldgnbr":"2101","predir":null,"streetname":"COURT ST","streettype":null,"suffdir":null,"city":"SIOUX CITY","state_code":"IA","zip5":"51104","latitude":"42.5120240000000000","longitude":"-96.396042000000000","publicwifi":"U","url":null,"broadband_type_id":6}
{"id":null,"anchorname":"WOODBURY COUNTY -- COMMUNITY ACTION AGENCY OF SIOUXLAND","address":"2700 LEECH AVE. SIOUX CITY, IA 51106","bldgnbr":"2700","predir":null,"streetname":"LEECH AVE.","streettype":null,"suffdir":null,"city":"SIOUX CITY","state_code":"IA","zip5":"51106","latitude":"42.4877060000000000","longitude":"-96.374379000000000","publicwifi":"U","url":null,"broadband_type_id":1}
{"id":null,"anchorname":"NORTHWEST AEA","address":"1520 MORNINGSIDE AVE. SIOUX CITY, IA 51106-1780","bldgnbr":"1520","predir":null,"streetname":"MORNINGSIDE AVE.","streettype":null,"suffdir":null,"city":"SIOUX CITY","state_code":"IA","zip5":"51106","latitude":"42.4753760000000000","longitude":"-96.358627000000000","publicwifi":"U","url":null,"broadband_type_id":6}
{"id":null,"anchorname":"MORNINGSIDE BRANCH","address":"4005 MORNINGSIDE AVE. SIOUX CITY, IA 51106-2448","bldgnbr":"4005","predir":null,"streetname":"MORNINGSIDE AVE.","streettype":null,"suffdir":null,"city":"SIOUX CITY","state_code":"IA","zip5":"51106","latitude":"42.4707120000000000","longitude":"-96.355268000000000","publicwifi":"U","url":null,"broadband_type_id":null}
{"id":null,"anchorname":"GORDON MEMORIAL HOSPITAL","address":"1816 WEST STREET SIOUX CITY, IA 51103","bldgnbr":"1816","predir":null,"streetname":"WEST STREET","streettype":null,"suffdir":null,"city":"SIOUX CITY","state_code":"IA","zip5":"51103","latitude":"42.5096400000000000","longitude":"-96.430340000000000","publicwifi":"U","url":null,"broadband_type_id":3}
{"id":null,"anchorname":"CRESCENT PARK ELEMENTARY SCHOOL","address":"1114 W 27TH ST SIOUX CENTER, IA 51103","bldgnbr":"1114","predir":null,"streetname":"W 27TH ST","streettype":null,"suffdir":null,"city":"SIOUX CENTER","state_code":"IA","zip5":"51103","latitude":"42.5177660000000000","longitude":"-96.421448000000000","publicwifi":"U","url":null,"broadband_type_id":6}
{"id":null,"anchorname":"ST. LUKE'S REGIONAL MEDICAL CENTER","address":"2720 STONE PARK BOULEVARD SIOUX CITY, IA 51104-2000","bldgnbr":"2720","predir":null,"streetname":"STONE PARK BOULEVARD","streettype":null,"suffdir":null,"city":"SIOUX CITY","state_code":"IA","zip5":"51104","latitude":"42.5186200000000000","longitude":"-96.406001000000000","publicwifi":"U","url":null,"broadband_type_id":3}
{"id":null,"anchorname":"ST LUKE'S COLLEGE","address":"2720 STONE PARK BLVD SIOUX CITY, IA 51104-0263","bldgnbr":"2720","predir":null,"streetname":"STONE PARK BLVD","streettype":null,"suffdir":null,"city":"SIOUX CITY","state_code":"IA","zip5":"51104","latitude":"42.5186200000000000","longitude":"-96.406001000000000","publicwifi":"U","url":null,"broadband_type_id":6}
{"id":null,"anchorname":"HUNT ELEMENTARY SCHOOL","address":"615 20TH ST SIOUX CITY, IA 51104","bldgnbr":"615","predir":null,"streetname":"20TH ST","streettype":null,"suffdir":null,"city":"SIOUX CITY","state_code":"IA","zip5":"51104","latitude":"42.5112060000000000","longitude":"-96.403422000000000","publicwifi":"U","url":null,"broadband_type_id":6}
{"id":null,"anchorname":"LOWELL ELEMENTARY SCHOOL","address":"1807 27TH ST SIOUX CITY, IA 51104","bldgnbr":"1807","predir":null,"streetname":"27TH ST","streettype":null,"suffdir":null,"city":"SIOUX CITY","state_code":"IA","zip5":"51104","latitude":"42.5175300000000000","longitude":"-96.387330000000000","publicwifi":"U","url":null,"broadband_type_id":6}
{"id":null,"anchorname":"IRVING ELEMENTARY SCHOOL","address":"901 FLOYD BLVD SIOUX CITY, IA 51105","bldgnbr":"901","predir":null,"streetname":"FLOYD BLVD","streettype":null,"suffdir":null,"city":"SIOUX CITY","state_code":"IA","zip5":"51105","latitude":"42.4996650000000000","longitude":"-96.393507000000000","publicwifi":"U","url":null,"broadband_type_id":6}
{"id":null,"anchorname":"IRVING PRESCHOOL","address":"710 IOWA ST SIOUX CITY, IA 51105","bldgnbr":"710","predir":null,"streetname":"IOWA ST","streettype":null,"suffdir":null,"city":"SIOUX CITY","state_code":"IA","zip5":"51105","latitude":"42.4977180000000000","longitude":"-96.394916000000000","publicwifi":"U","url":null,"broadband_type_id":6}
{"id":null,"anchorname":"EVERETT ELEMENTARY SCHOOL","address":"1314 W 3RD ST SIOUX CITY, IA 51103","bldgnbr":"1314","predir":null,"streetname":"W 3RD ST","streettype":null,"suffdir":null,"city":"SIOUX CITY","state_code":"IA","zip5":"51103","latitude":"42.4992900000000000","longitude":"-96.424152000000000","publicwifi":"U","url":null,"broadband_type_id":6}
{"id":null,"anchorname":"ROOSEVELT ELEMENTARY SCHOOL","address":"2015 W 6TH ST SIOUX CITY, IA 51103","bldgnbr":"2015","predir":null,"streetname":"W 6TH ST","streettype":null,"suffdir":null,"city":"SIOUX CITY","state_code":"IA","zip5":"51103","latitude":"42.5029490000000000","longitude":"-96.434407000000000","publicwifi":"U","url":null,"broadband_type_id":6}
{"id":null,"anchorname":"WESTERN IOWA TECH COMMUNITY COLLEGE","address":"4647 STONE AVENUE SIOUX CITY, IA 51106","bldgnbr":"4647","predir":null,"streetname":"STONE AVENUE","streettype":null,"suffdir":null,"city":"SIOUX CITY","state_code":"IA","zip5":"51106","latitude":"42.4793000000000000","longitude":"-96.345830000000000","publicwifi":"U","url":null,"broadband_type_id":6}
{"id":null,"anchorname":"JOY ELEMENTARY SCHOOL","address":"3409 INDIANA AVE SIOUX CITY, IA 51106","bldgnbr":"3409","predir":null,"streetname":"INDIANA AVE","streettype":null,"suffdir":null,"city":"SIOUX CITY","state_code":"IA","zip5":"51106","latitude":"42.4817960000000000","longitude":"-96.364045000000000","publicwifi":"U","url":null,"broadband_type_id":6}
{"id":null,"anchorname":"MATER DEI SCHOOL","address":"3719 RIDGE AVE SIOUX CITY, IA 51106","bldgnbr":"3719","predir":null,"streetname":"RIDGE AVE","streettype":null,"suffdir":null,"city":"SIOUX CITY","state_code":"IA","zip5":"51106","latitude":"42.4779290000000000","longitude":"-96.359671000000000","publicwifi":"U","url":null,"broadband_type_id":6}
{"id":null,"anchorname":"WHITTIER ELEMENTARY SCHOOL","address":"4820 4TH AVE SIOUX CITY, IA 51106","bldgnbr":"4820","predir":null,"streetname":"4TH AVE","streettype":null,"suffdir":null,"city":"SIOUX CITY","state_code":"IA","zip5":"51106","latitude":"42.4687850000000000","longitude":"-96.344730000000000","publicwifi":"U","url":null,"broadband_type_id":6}
{"id":null,"anchorname":"MORNINGSIDE COLLEGE","address":"1501 MORNINGSIDE AVE SIOUX CITY, IA 51106-1751","bldgnbr":"1501","predir":null,"streetname":"MORNINGSIDE AVE","streettype":null,"suffdir":null,"city":"SIOUX CITY","state_code":"IA","zip5":"51106","latitude":"42.4755320000000000","longitude":"-96.358820000000000","publicwifi":"U","url":null,"broadband_type_id":6}
{"id":null,"anchorname":"LONGFELLOW ELEMENTARY SCHOOL","address":"1800 SIOUX TRAIL SIOUX CITY, IA 51106","bldgnbr":"1800","predir":null,"streetname":"SIOUX TRAIL","streettype":null,"suffdir":null,"city":"SIOUX CITY","state_code":"IA","zip5":"51106","latitude":"42.4723530000000000","longitude":"-96.361234000000000","publicwifi":"U","url":null,"broadband_type_id":6}
{"id":null,"anchorname":"SUNNYSIDE ELEMENTARY SCHOOL","address":"2700 S MAPLE ST SIOUX CITY, IA 51106","bldgnbr":"2700","predir":null,"streetname":"S MAPLE ST","streettype":null,"suffdir":null,"city":"SIOUX CITY","state_code":"IA","zip5":"51106","latitude":"42.4621210000000000","longitude":"-96.339905000000000","publicwifi":"U","url":null,"broadband_type_id":6}
{"id":null,"anchorname":"EAST MIDDLE SCHOOL","address":"5401 LORRAINE AVE SIOUX CITY, IA 51106","bldgnbr":"5401","predir":null,"streetname":"LORRAINE AVE","streettype":null,"suffdir":null,"city":"SIOUX CITY","state_code":"IA","zip5":"51106","latitude":"42.4588190000000000","longitude":"-96.337207000000000","publicwifi":"U","url":null,"broadband_type_id":6}
{"id":null,"anchorname":"EAST HIGH SCHOOL","address":"5011 MAYHEW AVE SIOUX CITY, IA 51106","bldgnbr":"5011","predir":null,"streetname":"MAYHEW AVE","streettype":null,"suffdir":null,"city":"SIOUX CITY","state_code":"IA","zip5":"51106","latitude":"42.4539370000000000","longitude":"-96.339815000000000","publicwifi":"U","url":null,"broadband_type_id":6}
{"id":null,"anchorname":"NODLAND ELEMENTARY SCHOOL","address":"5000 MAYHEW AVE SIOUX CITY, IA 51106","bldgnbr":"5000","predir":null,"streetname":"MAYHEW AVE","streettype":null,"suffdir":null,"city":"SIOUX CITY","state_code":"IA","zip5":"51106","latitude":"42.4538880000000000","longitude":"-96.340088000000000","publicwifi":"U","url":null,"broadband_type_id":6}
{"id":null,"anchorname":"MATER DEI SCHOOL NATIVITY CENTER","address":"4243 NATALIA WAY SIOUX CITY, IA 51106","bldgnbr":"4243","predir":null,"streetname":"NATALIA WAY","streettype":null,"suffdir":null,"city":"SIOUX CITY","state_code":"IA","zip5":"51106","latitude":"42.4514660000000000","longitude":"-96.353777000000000","publicwifi":"U","url":null,"broadband_type_id":6}
{"id":null,"anchorname":"WASHINGTON ELEMENTARY SCHOOL","address":"2550 S MARTHA ST SIOUX CITY, IA 51106","bldgnbr":"2550","predir":null,"streetname":"S MARTHA ST","streettype":null,"suffdir":null,"city":"SIOUX CITY","state_code":"IA","zip5":"51106","latitude":"42.4643930000000000","longitude":"-96.360868000000000","publicwifi":"U","url":null,"broadband_type_id":6}
{"id":null,"anchorname":"IOWA SCHOOL OF BEAUTY","address":"3320 LINE DRIVE SIOUX CITY, IA 51106","bldgnbr":"3320","predir":null,"streetname":"LINE DRIVE","streettype":null,"suffdir":null,"city":"SIOUX CITY","state_code":"IA","zip5":"51106","latitude":"42.4435720000000000","longitude":"-96.370983000000000","publicwifi":"U","url":null,"broadband_type_id":6}
{"id":null,"anchorname":"PIERSON ELEMENTARY SCHOOL","address":"321 4TH STREET PIERSON, IA 51048","bldgnbr":"321","predir":null,"streetname":"4TH STREET","streettype":null,"suffdir":null,"city":"PIERSON","state_code":"IA","zip5":"51048","latitude":"42.5473160000000000","longitude":"-95.870601000000000","publicwifi":"U","url":null,"broadband_type_id":6}
{"id":null,"anchorname":"PIERSON BRANCH LIBRARY","address":"321 4TH STREET PIERSON, IA 51026-0001","bldgnbr":"32","predir":null,"streetname":"4TH STREET","streettype":null,"suffdir":null,"city":"PIERSON","state_code":"IA","zip5":"51026","latitude":"42.5477930000000000","longitude":"-95.869269000000000","publicwifi":"U","url":null,"broadband_type_id":6}
{"id":null,"anchorname":"CITY HALL","address":"514 2ND STREET PIERSON, IA 51048","bldgnbr":"514","predir":null,"streetname":"2ND STREET","streettype":null,"suffdir":null,"city":"PIERSON","state_code":"IA","zip5":"51048","latitude":"42.5439490000000000","longitude":"-95.866380000000000","publicwifi":"U","url":null,"broadband_type_id":1}
{"id":null,"anchorname":"PIERSON POLICE DEPARTMENT","address":"514 2ND STREET PIERSON, IA 51048","bldgnbr":"514","predir":null,"streetname":"2ND STREET","streettype":null,"suffdir":null,"city":"PIERSON","state_code":"IA","zip5":"51048","latitude":"42.5440030000000000","longitude":"-95.867461000000000","publicwifi":"U","url":null,"broadband_type_id":4}
{"id":null,"anchorname":"PIERSON MIDDLE SCHOOL","address":"321 4TH ST PIERSON, IA 51048","bldgnbr":"321","predir":null,"streetname":"4TH ST","streettype":null,"suffdir":null,"city":"PIERSON","state_code":"IA","zip5":"51048","latitude":"42.5472470000000000","longitude":"-95.870569000000000","publicwifi":"U","url":null,"broadband_type_id":6}
{"id":null,"anchorname":"RIVER VALLEY ALTERNATIVE HIGH SCHOOL","address":"916 HACKBERRY STREET CORRECTIONVILLE, IA 51016","bldgnbr":"916","predir":null,"streetname":"HACKBERRY STREET","streettype":null,"suffdir":null,"city":"CORRECTIONVILLE","state_code":"IA","zip5":"51016","latitude":"42.4797980000000000","longitude":"-95.780833000000000","publicwifi":"U","url":null,"broadband_type_id":6}
{"id":null,"anchorname":"RIVER VALLEY JUNIOR-SENIOR HIGH SCHOOL","address":"916 HACKBERRY STREET CORRECTIONVILLE, IA 51016","bldgnbr":"916","predir":null,"streetname":"HACKBERRY STREET","streettype":null,"suffdir":null,"city":"CORRECTIONVILLE","state_code":"IA","zip5":"51016","latitude":"42.4799520000000000","longitude":"-95.780829000000000","publicwifi":"U","url":null,"broadband_type_id":6}
{"id":null,"anchorname":"CORRECTIONVILLE FIRE AND RESCUE","address":"4TH \u0026 CEDAR CORRECTIONVILLE, IA 51016","bldgnbr":"N/A","predir":null,"streetname":"4TH \u0026 CEDAR","streettype":null,"suffdir":null,"city":"CORRECTIONVILLE","state_code":"IA","zip5":"51016","latitude":"42.4742860000000000","longitude":"-95.787387000000000","publicwifi":"U","url":null,"broadband_type_id":5}
{"id":null,"anchorname":"PINELLAS COUNTY EMERGENCY COMMAND CENTER","address":"400 S FORT HARRISON AVE, CLEARWATER, FL 33756","bldgnbr":"400","predir":null,"streetname":"FORT HARRISON","streettype":"AVE","suffdir":null,"city":"CLEARWATER","state_code":"FL","zip5":"33756","latitude":"27.9616274400000000","longitude":"-82.800009990000000","publicwifi":"Y","url":"0","broadband_type_id":1}
{"id":null,"anchorname":"WOODBURY CO. ENGINEER'S OFFICE","address":"759 E. FRONTAGE ROAD MOVILLE, IA 51039","bldgnbr":"759","predir":null,"streetname":"E. FRONTAGE ROAD","streettype":null,"suffdir":null,"city":"MOVILLE","state_code":"IA","zip5":"51039","latitude":"42.4823460000000000","longitude":"-96.070439000000000","publicwifi":"U","url":null,"broadband_type_id":null}
{"id":null,"anchorname":"CORRECTIONVILLE POLICE DEPARTMENT","address":"312 DRIFTWOOD CORRECTIONVILLE, IA 51016","bldgnbr":"312","predir":null,"streetname":"DRIFTWOOD","streettype":null,"suffdir":null,"city":"CORRECTIONVILLE","state_code":"IA","zip5":"51016","latitude":"42.4736430000000000","longitude":"-95.786225000000000","publicwifi":"U","url":null,"broadband_type_id":4}
{"id":null,"anchorname":"ANTHON-OTO ELEMENTARY SCHOOL","address":"110 WEST DIVISION STREET ANTHON, IA 51004","bldgnbr":"110","predir":null,"streetname":"WEST DIVISION STREET","streettype":null,"suffdir":null,"city":"ANTHON","state_code":"IA","zip5":"51004","latitude":"42.3855430000000000","longitude":"-95.869084000000000","publicwifi":"U","url":null,"broadband_type_id":6}
{"id":null,"anchorname":"ANTHON-OTO-MAPLE VALLEY MIDDLE SCHOOL","address":"110 WEST DIVISION STREET ANTHON, IA 51004","bldgnbr":"110","predir":null,"streetname":"WEST DIVISION STREET","streettype":null,"suffdir":null,"city":"ANTHON","state_code":"IA","zip5":"51004","latitude":"42.3855430000000000","longitude":"-95.869084000000000","publicwifi":"U","url":null,"broadband_type_id":6}
{"id":null,"anchorname":"ANTHON POLICE DEPARTMENT","address":"301 E. MAIN STREET ANTHON, IA 51004","bldgnbr":"301","predir":null,"streetname":"E. MAIN STREET","streettype":null,"suffdir":null,"city":"ANTHON","state_code":"IA","zip5":"51004","latitude":"42.3883290000000000","longitude":"-95.865228000000000","publicwifi":"U","url":null,"broadband_type_id":4}
{"id":null,"anchorname":"ANTHON COMMUNITY FIRE DEPARTMENT","address":"107 E BRIDGE ST ANTHON, IA 51004-0703","bldgnbr":"107","predir":null,"streetname":"E BRIDGE ST","streettype":null,"suffdir":null,"city":"ANTHON","state_code":"IA","zip5":"51004","latitude":"42.3892720000000000","longitude":"-95.867365000000000","publicwifi":"U","url":null,"broadband_type_id":5}
{"id":null,"anchorname":"ANTHON-OTO COMM SCHOOL DISTRICT","address":"110 WEST DIVISION ANTHON, IA 51004","bldgnbr":"110","predir":null,"streetname":"WEST DIVISION","streettype":null,"suffdir":null,"city":"ANTHON","state_code":"IA","zip5":"51004","latitude":"42.3855170000000000","longitude":"-95.869055000000000","publicwifi":"U","url":null,"broadband_type_id":6}
{"id":null,"anchorname":"ANTHON PUBLIC LIBRARY","address":"311 E MAIN ST ANTHON, IA 51004","bldgnbr":"311","predir":null,"streetname":"E MAIN ST","streettype":null,"suffdir":null,"city":"ANTHON","state_code":"IA","zip5":"51004","latitude":"42.3883300000000000","longitude":"-95.865014000000000","publicwifi":"U","url":null,"broadband_type_id":6}
{"id":null,"anchorname":"CITY HALL","address":"301 E MAIN ST  PO BOX 160 ANTHON, IA 51004","bldgnbr":"301","predir":null,"streetname":"E MAIN ST","streettype":null,"suffdir":null,"city":"ANTHON","state_code":"IA","zip5":"51004","latitude":"42.3883320000000000","longitude":"-95.865147000000000","publicwifi":"U","url":null,"broadband_type_id":1}
{"id":null,"anchorname":"CUSHING COMMUNITY LIBRARY","address":"202 MAIN ST. CUSHING, IA 51018","bldgnbr":"202","predir":null,"streetname":"MAIN ST.","streettype":null,"suffdir":null,"city":"CUSHING","state_code":"IA","zip5":"51018","latitude":"42.4656420000000000","longitude":"-95.675204000000000","publicwifi":"U","url":null,"broadband_type_id":6}
{"id":null,"anchorname":"CUSHING FIRE DEPARTMENT","address":"201 MAIN ST CUSHING, IA 51018-0095","bldgnbr":"201","predir":null,"streetname":"MAIN ST","streettype":null,"suffdir":null,"city":"CUSHING","state_code":"IA","zip5":"51018","latitude":"42.4656590000000000","longitude":"-95.675128000000000","publicwifi":"U","url":null,"broadband_type_id":5}
{"id":null,"anchorname":"DANBURY CATHOLIC SCHOOL","address":"602 PEACH ST DANBURY, IA 51019","bldgnbr":"602","predir":null,"streetname":"PEACH ST","streettype":null,"suffdir":null,"city":"DANBURY","state_code":"IA","zip5":"51019","latitude":"42.2368140000000000","longitude":"-95.718722000000000","publicwifi":"U","url":null,"broadband_type_id":6}
{"id":null,"anchorname":"DANBURY FIRE DEPARTMENT","address":"201 MAIN ST DANBURY, IA 51019","bldgnbr":"201","predir":null,"streetname":"MAIN ST","streettype":null,"suffdir":null,"city":"DANBURY","state_code":"IA","zip5":"51019","latitude":"42.2344360000000000","longitude":"-95.721821000000000","publicwifi":"U","url":null,"broadband_type_id":5}
{"id":null,"anchorname":"CORD MEMORIAL LIBRARY - DANBURY BRANCH","address":"215 MAIN ST DANBURY, IA 51019","bldgnbr":"215","predir":null,"streetname":"MAIN ST","streettype":null,"suffdir":null,"city":"DANBURY","state_code":"IA","zip5":"51019","latitude":"42.2345570000000000","longitude":"-95.721830000000000","publicwifi":"U","url":null,"broadband_type_id":6}
{"id":null,"anchorname":"LAWTON FIRE DEPARTMENT","address":"104 W MAPLE ST LAWTON, IA 51030","bldgnbr":"104","predir":null,"streetname":"W MAPLE ST","streettype":null,"suffdir":null,"city":"LAWTON","state_code":"IA","zip5":"51030","latitude":"42.4787310000000000","longitude":"-96.185630000000000","publicwifi":"U","url":null,"broadband_type_id":5}
{"id":null,"anchorname":"LAWTON JUNIOR-SENIOR HIGH SCHOOL","address":"100 TARA WAY LAWTON, IA 51030","bldgnbr":"100","predir":null,"streetname":"TARA WAY","streettype":null,"suffdir":null,"city":"LAWTON","state_code":"IA","zip5":"51030","latitude":"42.4769960000000000","longitude":"-96.175294000000000","publicwifi":"U","url":null,"broadband_type_id":6}
{"id":null,"anchorname":"CITY OF LAWTON, CITY HALL","address":"101 E MAPLE ST LAWTON, IA 51030","bldgnbr":"101","predir":null,"streetname":"E MAPLE ST","streettype":null,"suffdir":null,"city":"LAWTON","state_code":"IA","zip5":"51030","latitude":"42.4787590000000000","longitude":"-96.183794000000000","publicwifi":"U","url":null,"broadband_type_id":1}
{"id":null,"anchorname":"BRONSON FIRE DEPT.","address":"14 W. 1ST ST. BRONSON, IA 51007","bldgnbr":"14","predir":null,"streetname":"W. 1ST ST.","streettype":null,"suffdir":null,"city":"BRONSON","state_code":"IA","zip5":"51007","latitude":"42.4092520000000000","longitude":"-96.214035000000000","publicwifi":"U","url":null,"broadband_type_id":5}
{"id":null,"anchorname":"BRONSON ELEMENTARY SCHOOL","address":"113 WEST 1ST STREET BRONSON, IA 51007","bldgnbr":"113","predir":null,"streetname":"WEST 1ST STREET","streettype":null,"suffdir":null,"city":"BRONSON","state_code":"IA","zip5":"51007","latitude":"42.4092650000000000","longitude":"-96.215725000000000","publicwifi":"U","url":null,"broadband_type_id":6}
{"id":null,"anchorname":"WOODBURY COUNTY LIBRARY","address":"825 MAIN ST. MOVILLE, IA 51039","bldgnbr":"825","predir":null,"streetname":"MAIN ST.","streettype":null,"suffdir":null,"city":"MOVILLE","state_code":"IA","zip5":"51039","latitude":"42.4887600000000000","longitude":"-96.066129000000000","publicwifi":"U","url":null,"broadband_type_id":6}
{"id":null,"anchorname":"WOODBURY COUNTY LIBRARY BOOKMOBILE","address":"825 MAIN ST. MOVILLE, IA 51039-9999","bldgnbr":"825","predir":null,"streetname":"MAIN ST.","streettype":null,"suffdir":null,"city":"MOVILLE","state_code":"IA","zip5":"51039","latitude":"42.4893220000000000","longitude":"-96.058544000000000","publicwifi":"U","url":null,"broadband_type_id":6}
{"id":null,"anchorname":"MOVILLE POLICE DEPARTMENT","address":"21 W MAIN STREET MOVILLE, IA 51039","bldgnbr":"21","predir":null,"streetname":"W MAIN STREET","streettype":null,"suffdir":null,"city":"MOVILLE","state_code":"IA","zip5":"51039","latitude":"42.4887940000000000","longitude":"-96.075117000000000","publicwifi":"U","url":null,"broadband_type_id":4}
{"id":null,"anchorname":"MOVILLE VOLUNTEER FIRE DEPARTMENT","address":"24 MAIN STREET MOVILLE, IA 51039","bldgnbr":"24","predir":null,"streetname":"MAIN STREET","streettype":null,"suffdir":null,"city":"MOVILLE","state_code":"IA","zip5":"51039","latitude":"42.4886370000000000","longitude":"-96.075302000000000","publicwifi":"U","url":null,"broadband_type_id":5}
{"id":null,"anchorname":"MOVILLE ELEMENTARY SCHOOL","address":"408 SOUTH 4TH STREET MOVILLE, IA 51039","bldgnbr":"408","predir":null,"streetname":"SOUTH 4TH STREET","streettype":null,"suffdir":null,"city":"MOVILLE","state_code":"IA","zip5":"51039","latitude":"42.4843240000000000","longitude":"-96.069267000000000","publicwifi":"U","url":null,"broadband_type_id":6}
{"id":null,"anchorname":"WOODBURY CENTRAL HIGH SCHOOL","address":"408 SOUTH 4TH STREET MOVILLE, IA 51039","bldgnbr":"408","predir":null,"streetname":"SOUTH 4TH STREET","streettype":null,"suffdir":null,"city":"MOVILLE","state_code":"IA","zip5":"51039","latitude":"42.4843240000000000","longitude":"-96.069267000000000","publicwifi":"U","url":null,"broadband_type_id":6}
{"id":null,"anchorname":"SERGEANT BLUFF POLICE DEPARTMENT","address":"309 5TH STREET SERGEANT BLUFF, IA 51054","bldgnbr":"309","predir":null,"streetname":"5TH STREET","streettype":null,"suffdir":null,"city":"SERGEANT BLUFF","state_code":"IA","zip5":"51054","latitude":"42.4045020000000000","longitude":"-96.362347000000000","publicwifi":"U","url":null,"broadband_type_id":4}
{"id":null,"anchorname":"SERGEANT BLUFF FIRE DEPARTMENT","address":"203 PORT NEAL ROAD SERGEANT BLUFF, IA 51054","bldgnbr":"203","predir":null,"streetname":"PORT NEAL ROAD","streettype":null,"suffdir":null,"city":"SERGEANT BLUFF","state_code":"IA","zip5":"51054","latitude":"42.3995710000000000","longitude":"-96.354994000000000","publicwifi":"U","url":null,"broadband_type_id":5}
{"id":null,"anchorname":"SERGEANT BLUFF-LUTON MIDDLE SCHOOL","address":"208 PORT NEAL ROAD SERGEANT BLUFF, IA 51054","bldgnbr":"208","predir":null,"streetname":"PORT NEAL ROAD","streettype":null,"suffdir":null,"city":"SERGEANT BLUFF","state_code":"IA","zip5":"51054","latitude":"42.3998140000000000","longitude":"-96.355496000000000","publicwifi":"U","url":null,"broadband_type_id":6}
{"id":null,"anchorname":"SERGEANT BLUFF-LUTON ELEMENTARY SCHOOL","address":"206 SOUTH D STREET SERGEANT BLUFF, IA 51054","bldgnbr":"206","predir":null,"streetname":"SOUTH D STREET","streettype":null,"suffdir":null,"city":"SERGEANT BLUFF","state_code":"IA","zip5":"51054","latitude":"42.3958000000000000","longitude":"-96.360328000000000","publicwifi":"U","url":null,"broadband_type_id":6}
{"id":null,"anchorname":"SERGEANT BLUFF-LUTON PRIMARY SCHOOL","address":"206 SOUTH D STREET SERGEANT BLUFF, IA 51054","bldgnbr":"206","predir":null,"streetname":"SOUTH D STREET","streettype":null,"suffdir":null,"city":"SERGEANT BLUFF","state_code":"IA","zip5":"51054","latitude":"42.3958000000000000","longitude":"-96.360328000000000","publicwifi":"U","url":null,"broadband_type_id":6}
{"id":null,"anchorname":"SERGEANT BLUFF PUBLIC SCHOOL/LIBRARY","address":"708 WARRIOR RD SERGEANT BLUFF, IA 51054","bldgnbr":"708","predir":null,"streetname":"WARRIOR RD","streettype":null,"suffdir":null,"city":"SERGEANT BLUFF","state_code":"IA","zip5":"51054","latitude":"42.3932240000000000","longitude":"-96.354498000000000","publicwifi":"U","url":null,"broadband_type_id":6}
{"id":null,"anchorname":"SERGEANT BLUFF-LUTON SENIOR HIGH SCHOOL","address":"708 WARRIOR ROAD SERGEANT BLUFF, IA 51054","bldgnbr":"708","predir":null,"streetname":"WARRIOR ROAD","streettype":null,"suffdir":null,"city":"SERGEANT BLUFF","state_code":"IA","zip5":"51054","latitude":"42.3932360000000000","longitude":"-96.354492000000000","publicwifi":"U","url":null,"broadband_type_id":6}
{"id":null,"anchorname":"WESTWOOD ELEMENTARY SCHOOL","address":"1000 REBEL WAY SLOAN, IA 51055","bldgnbr":"1000","predir":null,"streetname":"REBEL WAY","streettype":null,"suffdir":null,"city":"SLOAN","state_code":"IA","zip5":"51055","latitude":"42.2398210000000000","longitude":"-96.234788000000000","publicwifi":"U","url":null,"broadband_type_id":6}
{"id":null,"anchorname":"WESTWOOD HIGH SCHOOL","address":"1000 REBEL WAY SLOAN, IA 51055","bldgnbr":"1000","predir":null,"streetname":"REBEL WAY","streettype":null,"suffdir":null,"city":"SLOAN","state_code":"IA","zip5":"51055","latitude":"42.2398210000000000","longitude":"-96.234788000000000","publicwifi":"U","url":null,"broadband_type_id":6}
{"id":null,"anchorname":"SLOAN FIRE \u0026 RESCUE DEPARTMENT","address":"421 EVANS SLOAN, IA 51055","bldgnbr":"421","predir":null,"streetname":"EVANS","streettype":null,"suffdir":null,"city":"SLOAN","state_code":"IA","zip5":"51055","latitude":"42.2327850000000000","longitude":"-96.228069000000000","publicwifi":"U","url":null,"broadband_type_id":5}
{"id":null,"anchorname":"SLOAN POLICE DEPARTMENT","address":"428 EVANS STREET SLOAN, IA 51055","bldgnbr":"428","predir":null,"streetname":"EVANS STREET","streettype":null,"suffdir":null,"city":"SLOAN","state_code":"IA","zip5":"51055","latitude":"42.2328600000000000","longitude":"-96.228030000000000","publicwifi":"U","url":null,"broadband_type_id":4}
{"id":null,"anchorname":"DAVIS  LISA","address":"1114 ENGMAN ST, CLEARWATER, FL, 33755","bldgnbr":"1114","predir":"0","streetname":"ENGMAN","streettype":"ST","suffdir":"0","city":"CLEARWATER","state_code":"FL","zip5":"33755","latitude":"27.9785680000000000","longitude":"-82.791164000000000","publicwifi":"U","url":"0","broadband_type_id":6}
{"id":null,"anchorname":"IOWA DEPT. HUMAN SERVICES - WOODBURY COUNTY","address":"822 DOUGLAS ST. SIOUX CITY, IA 51101-1024","bldgnbr":"822","predir":null,"streetname":"DOUGLAS ST.","streettype":null,"suffdir":null,"city":"SIOUX CITY","state_code":"IA","zip5":"51101","latitude":"42.4987880000000000","longitude":"-96.406428000000000","publicwifi":"U","url":null,"broadband_type_id":6}
{"id":null,"anchorname":"DEPT OF CORRECTIONAL SERVICES, 3RD DISTRICT","address":"515 WATER STREET SIOUX CITY, IA 51103","bldgnbr":"515","predir":null,"streetname":"WATER STREET","streettype":null,"suffdir":null,"city":"SIOUX CITY","state_code":"IA","zip5":"51103","latitude":"42.4954200000000000","longitude":"-96.409413000000000","publicwifi":"U","url":null,"broadband_type_id":6}
{"id":null,"anchorname":"CITY OF NORTHWOOD","address":"1611 CENTRAL AVENUE NORTHWOOD, IA 50459","bldgnbr":"1611","predir":null,"streetname":"CENTRAL AVENUE","streettype":null,"suffdir":null,"city":"NORTHWOOD","state_code":"IA","zip5":"50459","latitude":"43.4439760000000000","longitude":"-93.210949000000000","publicwifi":"U","url":null,"broadband_type_id":1}
{"id":null,"anchorname":"NORTHWOOD-KENSETT ELEMENTARY","address":"103 11TH STREET SOUTH NORTHWOOD, IA 50459","bldgnbr":"103","predir":null,"streetname":"11TH STREET SOUTH","streettype":null,"suffdir":null,"city":"NORTHWOOD","state_code":"IA","zip5":"50459","latitude":"43.4430600000000000","longitude":"-93.217075000000000","publicwifi":"U","url":null,"broadband_type_id":6}
{"id":null,"anchorname":"CITY OF NORTHWOOD","address":"627 CENTRAL AVE. NORTHWOOD, IA 50459","bldgnbr":"627","predir":null,"streetname":"CENTRAL AVE.","streettype":null,"suffdir":null,"city":"NORTHWOOD","state_code":"IA","zip5":"50459","latitude":"43.4440860000000000","longitude":"-93.223114000000000","publicwifi":"U","url":null,"broadband_type_id":1}
{"id":null,"anchorname":"CITY OF FERTILE","address":"105 WEST MAIN STREET FERTILE, IA 50434","bldgnbr":"105","predir":null,"streetname":"WEST MAIN STREET","streettype":null,"suffdir":null,"city":"FERTILE","state_code":"IA","zip5":"50434","latitude":"43.2640280000000000","longitude":"-93.418360000000000","publicwifi":"U","url":null,"broadband_type_id":1}
{"id":null,"anchorname":"CITY OF KENSETT","address":"207 5TH STREET  PO BOX 95 KENSETT, IA 50448-0095","bldgnbr":"207","predir":null,"streetname":"5TH STREET","streettype":null,"suffdir":null,"city":"KENSETT","state_code":"IA","zip5":"50448","latitude":"43.3542970000000000","longitude":"-93.208051000000000","publicwifi":"U","url":null,"broadband_type_id":1}
{"id":null,"anchorname":"CITY OF GRAFTON","address":"109 3RD AVENUE  PO BOX 550 GRAFTON, IA 50440","bldgnbr":"109","predir":null,"streetname":"3RD AVENUE","streettype":null,"suffdir":null,"city":"GRAFTON","state_code":"IA","zip5":"50440","latitude":"43.3281360000000000","longitude":"-93.070858000000000","publicwifi":"U","url":null,"broadband_type_id":1}
{"id":null,"anchorname":"WCICC-IT","address":"620 DOUGLAS SIOUX CITY, IA 51101","bldgnbr":"620","predir":null,"streetname":"DOUGLAS","streettype":null,"suffdir":null,"city":"SIOUX CITY","state_code":"IA","zip5":"51101","latitude":"42.4965710000000000","longitude":"-96.406412000000000","publicwifi":"U","url":null,"broadband_type_id":null}
{"id":null,"anchorname":"WESTWOOD COMM SCHOOL DISTRICT","address":"1000 REBEL WAY SLOAN, IA 51055","bldgnbr":"1000","predir":null,"streetname":"REBEL WAY","streettype":null,"suffdir":null,"city":"SLOAN","state_code":"IA","zip5":"51055","latitude":"42.2288910000000000","longitude":"-96.220520000000000","publicwifi":"U","url":null,"broadband_type_id":6}
{"id":null,"anchorname":"SERGEANT BLUFF-LUTON COMM SCHOOLS","address":"201 PORT NEAL ROAD SERGEANT BLUFF, IA 51031","bldgnbr":"201","predir":null,"streetname":"PORT NEAL ROAD","streettype":null,"suffdir":null,"city":"SERGEANT BLUFF","state_code":"IA","zip5":"51031","latitude":"42.3821370000000000","longitude":"-96.356824000000000","publicwifi":"U","url":null,"broadband_type_id":6}
{"id":null,"anchorname":"HORNICK BRANCH LIBRARY","address":"510 MAIN HORNICK, IA 51026-0001","bldgnbr":"510","predir":null,"streetname":"MAIN","streettype":null,"suffdir":null,"city":"HORNICK","state_code":"IA","zip5":"51026","latitude":"42.2319580000000000","longitude":"-96.097259000000000","publicwifi":"U","url":null,"broadband_type_id":6}
{"id":null,"anchorname":"SIOUXLAND DISTRICT HEALTH","address":"1014 NEBRASKA STREET SIOUX CITY, IA 51105","bldgnbr":"1014","predir":null,"streetname":"NEBRASKA STREET","streettype":null,"suffdir":null,"city":"SIOUX CITY","state_code":"IA","zip5":"51105","latitude":"42.5014230000000000","longitude":"-96.403354000000000","publicwifi":"U","url":null,"broadband_type_id":3}
{"id":null,"anchorname":"BISHOP HEELAN CATHOLIC HIGH SCHOOL","address":"1021 DOUGLAS ST SIOUX CITY, IA 51105","bldgnbr":"1021","predir":null,"streetname":"DOUGLAS ST","streettype":null,"suffdir":null,"city":"SIOUX CITY","state_code":"IA","zip5":"51105","latitude":"42.5009610000000000","longitude":"-96.406491000000000","publicwifi":"U","url":null,"broadband_type_id":6}
{"id":null,"anchorname":"WOODBURY COUNTY SHERIFF","address":"407 7TH STREET SIOUX CITY, IA 51101","bldgnbr":"407","predir":null,"streetname":"7TH STREET","streettype":null,"suffdir":null,"city":"SIOUX CITY","state_code":"IA","zip5":"51101","latitude":"42.4974490000000000","longitude":"-96.406405000000000","publicwifi":"U","url":null,"broadband_type_id":4}
{"id":null,"anchorname":"WOODBURY CO. SHERIFF'S OFFICE","address":"407 7TH STREET SIOUX CITY, IA 51102","bldgnbr":"407","predir":null,"streetname":"7TH STREET","streettype":null,"suffdir":null,"city":"SIOUX CITY","state_code":"IA","zip5":"51102","latitude":"42.4974510000000000","longitude":"-96.406353000000000","publicwifi":"U","url":null,"broadband_type_id":4}
{"id":null,"anchorname":"SIOUX CITY POLICE DEPARTMENT","address":"601 DOUGLAS SIOUX CITY, IA 51101","bldgnbr":"601","predir":null,"streetname":"DOUGLAS","streettype":null,"suffdir":null,"city":"SIOUX CITY","state_code":"IA","zip5":"51101","latitude":"42.4963520000000000","longitude":"-96.406475000000000","publicwifi":"U","url":null,"broadband_type_id":4}
{"id":null,"anchorname":"ST PAULS LUTHERAN SCHOOL","address":"614 JENNINGS ST SIOUX CITY, IA 51101","bldgnbr":"614","predir":null,"streetname":"JENNINGS ST","streettype":null,"suffdir":null,"city":"SIOUX CITY","state_code":"IA","zip5":"51101","latitude":"42.4966120000000000","longitude":"-96.399288000000000","publicwifi":"U","url":null,"broadband_type_id":6}
{"id":null,"anchorname":"MERCY MEDICAL CENTER-SIOUX CITY","address":"801 FIFTH STREET SIOUX CITY, IA 51101-1326","bldgnbr":"801","predir":null,"streetname":"FIFTH STREET","streettype":null,"suffdir":null,"city":"SIOUX CITY","state_code":"IA","zip5":"51101","latitude":"42.4952980000000000","longitude":"-96.400774000000000","publicwifi":"U","url":null,"broadband_type_id":3}
{"id":null,"anchorname":"THE WILBUR AALFS (MAIN) LIBRARY","address":"529 PIERCE STREET SIOUX CITY, IA 51101-1203","bldgnbr":"529","predir":null,"streetname":"PIERCE STREET","streettype":null,"suffdir":null,"city":"SIOUX CITY","state_code":"IA","zip5":"51101","latitude":"42.4961000000000000","longitude":"-96.405098000000000","publicwifi":"U","url":null,"broadband_type_id":6}
{"id":null,"anchorname":"SIOUX CITY COMMUNITY SCHOOLS","address":"627 4TH ST SIOUX CITY, IA 51101","bldgnbr":"627","predir":null,"streetname":"4TH ST","streettype":null,"suffdir":null,"city":"SIOUX CITY","state_code":"IA","zip5":"51101","latitude":"42.4942250000000000","longitude":"-96.404012000000000","publicwifi":"U","url":null,"broadband_type_id":6}
{"id":null,"anchorname":"NORTHWOOD POLICE DEPARTMENT","address":"200 10TH ST. SOUTH NORTHWOOD, IA 50459","bldgnbr":"200","predir":null,"streetname":"10TH ST. SOUTH","streettype":null,"suffdir":null,"city":"NORTHWOOD","state_code":"IA","zip5":"50459","latitude":"43.4421210000000000","longitude":"-93.218330000000000","publicwifi":"U","url":null,"broadband_type_id":4}
{"id":null,"anchorname":"NORTHWOOD - KENSETT SCHOOLS","address":"1200 1ST AVENUE NORTH NORTHWOOD, IA 50459","bldgnbr":"1200","predir":null,"streetname":"1ST AVENUE NORTH","streettype":null,"suffdir":null,"city":"NORTHWOOD","state_code":"IA","zip5":"50459","latitude":"43.4451740000000000","longitude":"-93.215862000000000","publicwifi":"U","url":null,"broadband_type_id":6}
{"id":null,"anchorname":"WORTH COUNTY COURTHOUSE","address":"1000 CENTRAL AVE NORTHWOOD, IA 50459","bldgnbr":"1000","predir":null,"streetname":"CENTRAL AVE","streettype":null,"suffdir":null,"city":"NORTHWOOD","state_code":"IA","zip5":"50459","latitude":"43.4440910000000000","longitude":"-93.218302000000000","publicwifi":"U","url":null,"broadband_type_id":1}
{"id":null,"anchorname":"WORTH COUNTY SHERIFF'S OFFICE","address":"1000 CENTRAL AVENUE NORTHWOOD, IA 50459","bldgnbr":"1000","predir":null,"streetname":"CENTRAL AVENUE","streettype":null,"suffdir":null,"city":"NORTHWOOD","state_code":"IA","zip5":"50459","latitude":"43.4440910000000000","longitude":"-93.218302000000000","publicwifi":"U","url":null,"broadband_type_id":4}
{"id":null,"anchorname":"NORTHWOOD FIRE DEPT.","address":"96 8TH ST. NORTH NORTHWOOD, IA 50459","bldgnbr":"96","predir":null,"streetname":"8TH ST. NORTH","streettype":null,"suffdir":null,"city":"NORTHWOOD","state_code":"IA","zip5":"50459","latitude":"43.4446690000000000","longitude":"-93.220938000000000","publicwifi":"U","url":null,"broadband_type_id":5}
{"id":null,"anchorname":"NORTHWOOD POLICE DEPARTMENT","address":"852 CENTRAL AVENUE NORTHWOOD, IA 50459","bldgnbr":"852","predir":null,"streetname":"CENTRAL AVENUE","streettype":null,"suffdir":null,"city":"NORTHWOOD","state_code":"IA","zip5":"50459","latitude":"43.4440130000000000","longitude":"-93.220164000000000","publicwifi":"U","url":null,"broadband_type_id":4}
{"id":null,"anchorname":"NORTHWOOD PUBLIC LIBRARY","address":"906 1ST AVE. S. NORTHWOOD, IA 50459","bldgnbr":"906","predir":null,"streetname":"1ST AVE. S.","streettype":null,"suffdir":null,"city":"NORTHWOOD","state_code":"IA","zip5":"50459","latitude":"43.4431750000000000","longitude":"-93.219481000000000","publicwifi":"U","url":null,"broadband_type_id":6}
{"id":null,"anchorname":"KINNEY MEMORIAL LIBRARY","address":"214 MAIN STREET HANLONTOWN, IA 50444","bldgnbr":"214","predir":null,"streetname":"MAIN STREET","streettype":null,"suffdir":null,"city":"HANLONTOWN","state_code":"IA","zip5":"50444","latitude":"43.2811640000000000","longitude":"-93.378714000000000","publicwifi":"U","url":null,"broadband_type_id":6}
{"id":null,"anchorname":"HANLONTOWN FIRE DEPARTMENT","address":"214 MAIN ST HANLONTOWN, IA 50444-0113","bldgnbr":"214","predir":null,"streetname":"MAIN ST","streettype":null,"suffdir":null,"city":"HANLONTOWN","state_code":"IA","zip5":"50444","latitude":"43.2811640000000000","longitude":"-93.378714000000000","publicwifi":"U","url":null,"broadband_type_id":5}
{"id":null,"anchorname":"FERTILE PUBLIC LIBRARY","address":"204 WEST MAIN STREET FERTILE, IA 50434-0198","bldgnbr":"204","predir":null,"streetname":"WEST MAIN STREET","streettype":null,"suffdir":null,"city":"FERTILE","state_code":"IA","zip5":"50434","latitude":"43.2640750000000000","longitude":"-93.420354000000000","publicwifi":"U","url":null,"broadband_type_id":6}
{"id":null,"anchorname":"FERTILE FIRE DEPARTMENT","address":"205 EAST MAIN STREET FERTILE, IA 50434","bldgnbr":"205","predir":null,"streetname":"EAST MAIN STREET","streettype":null,"suffdir":null,"city":"FERTILE","state_code":"IA","zip5":"50434","latitude":"43.2641020000000000","longitude":"-93.415939000000000","publicwifi":"U","url":null,"broadband_type_id":5}
{"id":null,"anchorname":"JOICE PUBLIC LIBRARY","address":"201 MAIN STREET JOICE, IA 50446","bldgnbr":"201","predir":null,"streetname":"MAIN STREET","streettype":null,"suffdir":null,"city":"JOICE","state_code":"IA","zip5":"50446","latitude":"43.3627590000000000","longitude":"-93.453895000000000","publicwifi":"U","url":null,"broadband_type_id":6}
{"id":null,"anchorname":"JOICE FIRE DEPARTMENT","address":"205 MAIN ST JOICE, IA 50446","bldgnbr":"205","predir":null,"streetname":"MAIN ST","streettype":null,"suffdir":null,"city":"JOICE","state_code":"IA","zip5":"50446","latitude":"43.3627610000000000","longitude":"-93.453948000000000","publicwifi":"U","url":null,"broadband_type_id":5}
{"id":null,"anchorname":"KENSETT PUBLIC LIBRARY","address":"214 5TH ST. KENSETT, IA 50448","bldgnbr":"214","predir":null,"streetname":"5TH ST.","streettype":null,"suffdir":null,"city":"KENSETT","state_code":"IA","zip5":"50448","latitude":"43.3544430000000000","longitude":"-93.208106000000000","publicwifi":"U","url":null,"broadband_type_id":6}
{"id":null,"anchorname":"CURTIS FUNDAMENTAL ELEMENTARY","address":"531 BELTREES ST, DUNEDIN, FL, 34698","bldgnbr":"531","predir":"0","streetname":"BELTREES","streettype":"ST","suffdir":"0","city":"DUNEDIN","state_code":"FL","zip5":"34698","latitude":"28.0047690000000000","longitude":"-82.786403000000000","publicwifi":"Y","url":"0","broadband_type_id":6}
