{"id":null,"anchorname":"MARSHFIELD POLICE DEPT","address":"1639 Ocean Street, MARSHFIELD, MA 02050","bldgnbr":"1639","predir":null,"streetname":"Ocean","streettype":"Street","suffdir":null,"city":"MARSHFIELD","state_code":"MA","zip5":"02050","latitude":"42.0928302770000000","longitude":"-70.693766617000000","publicwifi":"U","url":null,"broadband_type_id":4}
{"id":null,"anchorname":"Ventress Memorial Library","address":"15 Library Plaza, Marshfield, MA 02050-4998","bldgnbr":"15","predir":null,"streetname":"Library","streettype":"Plaza","suffdir":null,"city":"Marshfield","state_code":"MA","zip5":"02050","latitude":"42.0925686330000000","longitude":"-70.698120455000000","publicwifi":"U","url":"http://www.ventresslibrary.org/","broadband_type_id":6}
{"id":null,"anchorname":"MARSHFIELD FIRE DEPARTMENT","address":"21 Massasoit Avenue, MARSHFIELD, MA 02050","bldgnbr":"21","predir":null,"streetname":"Massasoit","streettype":"Avenue","suffdir":null,"city":"MARSHFIELD","state_code":"MA","zip5":"02050","latitude":"42.0961521900000000","longitude":"-70.651071608000000","publicwifi":"U","url":null,"broadband_type_id":5}
{"id":null,"anchorname":"DUXBURY FIRE DEPARTMENT","address":"794 Franklin Street, DUXBURY, MA 02331","bldgnbr":"794","predir":null,"streetname":"Franklin","streettype":"Street","suffdir":null,"city":"DUXBURY","state_code":"MA","zip5":"02331","latitude":"42.0584538990000000","longitude":"-70.744741181000000","publicwifi":"U","url":null,"broadband_type_id":5}
{"id":null,"anchorname":"DUXBURY FIRE DEPARTMENT","address":"668 Tremont Street, DUXBURY, MA 02332","bldgnbr":"668","predir":null,"streetname":"Tremont","streettype":"Street","suffdir":null,"city":"DUXBURY","state_code":"MA","zip5":"02332","latitude":"42.0284319580000000","longitude":"-70.695857344000000","publicwifi":"U","url":null,"broadband_type_id":5}
{"id":null,"anchorname":"DUXBURY POLICE DEPT","address":"443 West Street, DUXBURY, MA 02332","bldgnbr":"443","predir":null,"streetname":"West","streettype":"Street","suffdir":null,"city":"DUXBURY","state_code":"MA","zip5":"02332","latitude":"42.0564070640000000","longitude":"-70.712251281000000","publicwifi":"U","url":null,"broadband_type_id":4}
{"id":null,"anchorname":"Duxbury Town Hall","address":"878 Tremont Street, Duxbury, MA 02332","bldgnbr":"878","predir":null,"streetname":"Tremont","streettype":"Street","suffdir":null,"city":"Duxbury","state_code":"MA","zip5":"02332","latitude":"42.0352469390000000","longitude":"-70.692187890000000","publicwifi":"U","url":null,"broadband_type_id":1}
{"id":null,"anchorname":"Duxbury Public Schools","address":"130 St. George Street, Duxbury, MA 02332","bldgnbr":"130","predir":null,"streetname":"St. George","streettype":"Street","suffdir":null,"city":"Duxbury","state_code":"MA","zip5":"02332","latitude":"42.0501986730000000","longitude":"-70.678519382000000","publicwifi":"U","url":null,"broadband_type_id":6}
{"id":null,"anchorname":"Duxbury Free Library","address":"77 Alden Street, Duxbury, MA 02332-3835","bldgnbr":"77","predir":null,"streetname":"Alden","streettype":"Street","suffdir":null,"city":"Duxbury","state_code":"MA","zip5":"02332","latitude":"42.0467086280000000","longitude":"-70.684610449000000","publicwifi":"Y","url":"http://www.duxburyfreelibrary.org/","broadband_type_id":6}
{"id":null,"anchorname":"Alden School","address":"75 Alden Street, Duxbury, MA 02332","bldgnbr":"75","predir":null,"streetname":"Alden","streettype":"Street","suffdir":null,"city":"Duxbury","state_code":"MA","zip5":"02332","latitude":"42.0466118080000000","longitude":"-70.680871858000000","publicwifi":"U","url":null,"broadband_type_id":6}
{"id":null,"anchorname":"Pembroke Hospital","address":"199 Oak Street, Pembroke, MA 02359","bldgnbr":"199","predir":null,"streetname":"Oak","streettype":"Street","suffdir":null,"city":"Pembroke","state_code":"MA","zip5":"02359","latitude":"42.0976352510000000","longitude":"-70.764442127000000","publicwifi":"U","url":null,"broadband_type_id":3}
{"id":null,"anchorname":"PEMBROKE FIRE DEPARTMENT","address":"42 School Street, PEMBROKE, MA 02359","bldgnbr":"42","predir":null,"streetname":"School","streettype":"Street","suffdir":null,"city":"PEMBROKE","state_code":"MA","zip5":"02359","latitude":"42.0420567100000000","longitude":"-70.837950892000000","publicwifi":"U","url":null,"broadband_type_id":5}
{"id":null,"anchorname":"Pembroke Community Middle School","address":"559 School Street, pembroke, MA 02359","bldgnbr":"559","predir":null,"streetname":"School","streettype":"Street","suffdir":null,"city":"pembroke","state_code":"MA","zip5":"02359","latitude":"42.0317478230000000","longitude":"-70.802627349000000","publicwifi":"U","url":null,"broadband_type_id":6}
{"id":null,"anchorname":"Hobomock Elementary School","address":"81 Learning Lane, Pembroke, MA 02359","bldgnbr":"81","predir":null,"streetname":"Learning","streettype":"Lane","suffdir":null,"city":"Pembroke","state_code":"MA","zip5":"02359","latitude":"42.0530828120000000","longitude":"-70.795717358000000","publicwifi":"U","url":null,"broadband_type_id":6}
{"id":null,"anchorname":"Pembroke High School","address":"80 Learning Lane, Pembroke, MA 02359","bldgnbr":"80","predir":null,"streetname":"Learning","streettype":"Lane","suffdir":null,"city":"Pembroke","state_code":"MA","zip5":"02359","latitude":"42.0535593930000000","longitude":"-70.797992214000000","publicwifi":"U","url":null,"broadband_type_id":6}
{"id":null,"anchorname":"Pembroke Town Hall","address":"100 Center Street, pembroke, MA 02359","bldgnbr":"100","predir":null,"streetname":"Center","streettype":"Street","suffdir":null,"city":"pembroke","state_code":"MA","zip5":"02359","latitude":"42.0720854330000000","longitude":"-70.808724502000000","publicwifi":"U","url":null,"broadband_type_id":1}
{"id":null,"anchorname":"Pembroke Public Library","address":"142 Center Street, Pembroke, MA 02359","bldgnbr":"142","predir":null,"streetname":"Center","streettype":"Street","suffdir":null,"city":"Pembroke","state_code":"MA","zip5":"02359","latitude":"42.0688386260000000","longitude":"-70.810030491000000","publicwifi":"U","url":"http://www.pembrokepubliclibrary.org","broadband_type_id":6}
{"id":null,"anchorname":"PEMBROKE FIRE DEPARTMENT","address":"172 Center Street, PEMBROKE, MA 02359","bldgnbr":"172","predir":null,"streetname":"Center","streettype":"Street","suffdir":null,"city":"PEMBROKE","state_code":"MA","zip5":"02359","latitude":"42.0675707610000000","longitude":"-70.809630931000000","publicwifi":"U","url":null,"broadband_type_id":5}
{"id":null,"anchorname":"Pembroke MA Police Department","address":"100 Center Street, Pembroke, MA 02359","bldgnbr":"100","predir":null,"streetname":"Center","streettype":"Street","suffdir":null,"city":"Pembroke","state_code":"MA","zip5":"02359","latitude":"42.0720395280000000","longitude":"-70.808607421000000","publicwifi":"U","url":null,"broadband_type_id":4}
{"id":null,"anchorname":"PEMBROKE FIRE DEPARTMENT","address":"399 High Street, PEMBROKE, MA 02359","bldgnbr":"399","predir":null,"streetname":"High","streettype":"Street","suffdir":null,"city":"PEMBROKE","state_code":"MA","zip5":"02359","latitude":"42.0567697270000000","longitude":"-70.777751377000000","publicwifi":"U","url":null,"broadband_type_id":5}
{"id":null,"anchorname":"KINGSTON POLICE DEPT","address":"244 Main Street, KINGSTON, MA 02346","bldgnbr":"244","predir":null,"streetname":"Main","streettype":"Street","suffdir":null,"city":"KINGSTON","state_code":"MA","zip5":"02346","latitude":"41.9936840590000000","longitude":"-70.736314338000000","publicwifi":"U","url":null,"broadband_type_id":4}
{"id":null,"anchorname":"KINGSTON FIRE DEPARTMENT","address":"105 Pembroke Street, KINGSTON, MA 02364","bldgnbr":"105","predir":null,"streetname":"Pembroke","streettype":"Street","suffdir":null,"city":"KINGSTON","state_code":"MA","zip5":"02364","latitude":"42.0033101610000000","longitude":"-70.753809923000000","publicwifi":"U","url":null,"broadband_type_id":5}
{"id":null,"anchorname":"FIRST PRESBYTERIAN CHURCH-MISHAWAKA","address":"401 LINCOLN WAY E","bldgnbr":"BLDGNUMBER","predir":null,"streetname":"STREETNAME","streettype":null,"suffdir":null,"city":"MISHAWAKA","state_code":"IN","zip5":"46544","latitude":"41.6610688810000000","longitude":"-86.176825389000000","publicwifi":"N","url":null,"broadband_type_id":6}
{"id":null,"anchorname":"PRAIRIE VISTA","address":"15400 BRICK RD","bldgnbr":"BLDGNUMBER","predir":null,"streetname":"STREETNAME","streettype":null,"suffdir":null,"city":"GRANGER","state_code":"IN","zip5":"46530","latitude":"41.7386236710000000","longitude":"-86.167310304000000","publicwifi":"N","url":null,"broadband_type_id":6}
{"id":null,"anchorname":"MEADOW'S EDGE ELEMENTARY SCH","address":"16333 KERN RD","bldgnbr":"BLDGNUMBER","predir":null,"streetname":"STREETNAME","streettype":null,"suffdir":null,"city":"MISHAWAKA","state_code":"IN","zip5":"46544","latitude":"41.6078579420000000","longitude":"-86.183290044000000","publicwifi":"N","url":null,"broadband_type_id":6}
{"id":null,"anchorname":"South Shore Christian","address":"899 North Main, Brockton, MA 02401","bldgnbr":"899","predir":"North","streetname":"Main","streettype":null,"suffdir":null,"city":"Brockton","state_code":"MA","zip5":"02401","latitude":"42.1066945270000000","longitude":"-71.028088055000000","publicwifi":"U","url":null,"broadband_type_id":6}
{"id":null,"anchorname":"Cvs Pharmacy #1006","address":"316 N Pearl St, Brockton, MA 02301","bldgnbr":"316","predir":"N","streetname":"Pearl","streettype":"St","suffdir":null,"city":"Brockton","state_code":"MA","zip5":"02301","latitude":"42.0999658120000000","longitude":"-71.066701970000000","publicwifi":"U","url":null,"broadband_type_id":3}
{"id":null,"anchorname":"Computer-ed Institute-Brockton","address":"375 Westgate Drive, Brockton, MA 02301","bldgnbr":"375","predir":null,"streetname":"Westgate","streettype":"Drive","suffdir":null,"city":"Brockton","state_code":"MA","zip5":"02301","latitude":"42.0971655250000000","longitude":"-71.055604004000000","publicwifi":"U","url":null,"broadband_type_id":null}
{"id":null,"anchorname":"Pleasant Street Family Practice","address":"795 Pleasant Street, Brockton, MA 02301","bldgnbr":"795","predir":null,"streetname":"Pleasant","streettype":"Street","suffdir":null,"city":"Brockton","state_code":"MA","zip5":"02301","latitude":"42.0879048030000000","longitude":"-71.053288283000000","publicwifi":"U","url":null,"broadband_type_id":null}
{"id":null,"anchorname":"Endoscopy Center Of Southeast Massachusetts","address":"1 Pearl St, Brockton, MA 02301","bldgnbr":"1","predir":null,"streetname":"Pearl","streettype":"St","suffdir":null,"city":"Brockton","state_code":"MA","zip5":"02301","latitude":"42.0891574270000000","longitude":"-71.064456847000000","publicwifi":"U","url":null,"broadband_type_id":null}
{"id":null,"anchorname":"Brockton Neighborhood HC","address":"63 Main Street, Brockton, MA 02301","bldgnbr":"63","predir":null,"streetname":"Main","streettype":"Street","suffdir":null,"city":"Brockton","state_code":"MA","zip5":"02301","latitude":"42.0840832040000000","longitude":"-71.019944129000000","publicwifi":"U","url":null,"broadband_type_id":null}
{"id":null,"anchorname":"Brockton Neighborhood HC","address":"63 Main Street, Brockton, MA 02301","bldgnbr":"63","predir":null,"streetname":"Main","streettype":"Street","suffdir":null,"city":"Brockton","state_code":"MA","zip5":"02301","latitude":"42.0840832040000000","longitude":"-71.019944129000000","publicwifi":"U","url":null,"broadband_type_id":null}
{"id":null,"anchorname":"Kingston Town Hall","address":"26 Evergreen Street, KINGSTON, MA 02364","bldgnbr":"26","predir":null,"streetname":"Evergreen","streettype":"Street","suffdir":null,"city":"KINGSTON","state_code":"MA","zip5":"02364","latitude":"41.9969358800000000","longitude":"-70.736550386000000","publicwifi":"U","url":null,"broadband_type_id":1}
{"id":null,"anchorname":"Kingston Public Library","address":"6 Green Street, Kingston, MA 02364-1441","bldgnbr":"6","predir":null,"streetname":"Green","streettype":"Street","suffdir":null,"city":"Kingston","state_code":"MA","zip5":"02364","latitude":"41.9963586150000000","longitude":"-70.729780465000000","publicwifi":"U","url":null,"broadband_type_id":6}
{"id":null,"anchorname":"Brookfield School","address":"135 Jon Drive, Brockton, MA 02302","bldgnbr":"135","predir":null,"streetname":"Jon","streettype":"Drive","suffdir":null,"city":"Brockton","state_code":"MA","zip5":"02302","latitude":"42.1179964690000000","longitude":"-71.009852669000000","publicwifi":"U","url":null,"broadband_type_id":6}
{"id":null,"anchorname":"Ashfield School","address":"225 Coe Road, Brockton, MA 02302","bldgnbr":"225","predir":null,"streetname":"Coe","streettype":"Road","suffdir":null,"city":"Brockton","state_code":"MA","zip5":"02302","latitude":"42.1033584720000000","longitude":"-70.996385946000000","publicwifi":"U","url":null,"broadband_type_id":6}
{"id":null,"anchorname":"BROCKTON FIRE DEPARTMENT","address":"605 North Kerry Street, BROCKTON, MA 02301","bldgnbr":"605","predir":"North","streetname":"Kerry","streettype":"Street","suffdir":null,"city":"BROCKTON","state_code":"MA","zip5":"02301","latitude":"42.1063746970000000","longitude":"-71.004146571000000","publicwifi":"U","url":null,"broadband_type_id":5}
{"id":null,"anchorname":"North Middle School","address":"108 Oak Street, Brockton, MA 02301","bldgnbr":"108","predir":null,"streetname":"Oak","streettype":"Street","suffdir":null,"city":"Brockton","state_code":"MA","zip5":"02301","latitude":"42.1024666000000000","longitude":"-71.028575041000000","publicwifi":"U","url":null,"broadband_type_id":6}
{"id":null,"anchorname":"Lura A. White School","address":"472 North Main Street, Shirley, MA 01464","bldgnbr":"472","predir":"North","streetname":"Main","streettype":"Street","suffdir":null,"city":"Shirley","state_code":"MA","zip5":"01464","latitude":"42.0957598180000000","longitude":"-71.019673272000000","publicwifi":"U","url":null,"broadband_type_id":6}
{"id":null,"anchorname":"Lura A. White School","address":"472 North Main Street, Shirley, MA 01464","bldgnbr":"472","predir":"North","streetname":"Main","streettype":"Street","suffdir":null,"city":"Shirley","state_code":"MA","zip5":"01464","latitude":"42.0957598180000000","longitude":"-71.019673272000000","publicwifi":"U","url":null,"broadband_type_id":6}
{"id":null,"anchorname":"Howard School","address":"837 North Main Street, Brockton, MA 02301","bldgnbr":"837","predir":"North","streetname":"Main","streettype":"Street","suffdir":null,"city":"Brockton","state_code":"MA","zip5":"02301","latitude":"42.1057118780000000","longitude":"-71.025597453000000","publicwifi":"U","url":null,"broadband_type_id":6}
{"id":null,"anchorname":"Caritas Good Samaritan Medical Center - Brockton Campus","address":"235 North Pearl Street, Brockton, MA 02301","bldgnbr":"235","predir":"North","streetname":"Pearl","streettype":"Street","suffdir":null,"city":"Brockton","state_code":"MA","zip5":"02301","latitude":"42.0979019750000000","longitude":"-71.061893565000000","publicwifi":"U","url":null,"broadband_type_id":3}
{"id":null,"anchorname":"Good Samaritan Medical Center","address":"235 N Pearl St, Brockton, MA 02301","bldgnbr":"235","predir":"N","streetname":"Pearl","streettype":"St","suffdir":null,"city":"Brockton","state_code":"MA","zip5":"02301","latitude":"42.0978010030000000","longitude":"-71.065786246000000","publicwifi":"U","url":null,"broadband_type_id":3}
{"id":null,"anchorname":"West Middle School","address":"271 West Street, Brockton, MA 02301","bldgnbr":"271","predir":null,"streetname":"West","streettype":"Street","suffdir":null,"city":"Brockton","state_code":"MA","zip5":"02301","latitude":"42.0794898370000000","longitude":"-71.045366587000000","publicwifi":"U","url":null,"broadband_type_id":6}
{"id":null,"anchorname":"Hancock School","address":"125 Pearl Street, Brockton, MA 02301","bldgnbr":"125","predir":null,"streetname":"Pearl","streettype":"Street","suffdir":null,"city":"Brockton","state_code":"MA","zip5":"02301","latitude":"42.0853036070000000","longitude":"-71.066117488000000","publicwifi":"U","url":null,"broadband_type_id":6}
{"id":null,"anchorname":"Kennedy School","address":"900 Ash Street, Brockton, MA 02301","bldgnbr":"900","predir":null,"streetname":"Ash","streettype":"Street","suffdir":null,"city":"Brockton","state_code":"MA","zip5":"02301","latitude":"42.0854494940000000","longitude":"-71.035954725000000","publicwifi":"U","url":null,"broadband_type_id":6}
{"id":null,"anchorname":"B B Russell Alternative School","address":"45 Oakdale Street, Brockton, MA 02301","bldgnbr":"45","predir":null,"streetname":"Oakdale","streettype":"Street","suffdir":null,"city":"Brockton","state_code":"MA","zip5":"02301","latitude":"42.0896204510000000","longitude":"-71.027187083000000","publicwifi":"U","url":null,"broadband_type_id":6}
{"id":null,"anchorname":"Lincoln School","address":"70 Highland Street, Brockton, MA 02301","bldgnbr":"70","predir":null,"streetname":"Highland","streettype":"Street","suffdir":null,"city":"Brockton","state_code":"MA","zip5":"02301","latitude":"42.0836675130000000","longitude":"-71.026228939000000","publicwifi":"U","url":null,"broadband_type_id":6}
{"id":null,"anchorname":"Arnone School","address":"135 Belmont Street, Brockton, MA 02301","bldgnbr":"135","predir":null,"streetname":"Belmont","streettype":"Street","suffdir":null,"city":"Brockton","state_code":"MA","zip5":"02301","latitude":"42.0825512290000000","longitude":"-71.023419142000000","publicwifi":"U","url":null,"broadband_type_id":6}
{"id":null,"anchorname":"Russell Alternative School","address":"175 Warren Avenue, Brockton, MA 02301","bldgnbr":"175","predir":null,"streetname":"Warren","streettype":"Avenue","suffdir":null,"city":"Brockton","state_code":"MA","zip5":"02301","latitude":"42.0824821410000000","longitude":"-71.023007925000000","publicwifi":"U","url":null,"broadband_type_id":6}
{"id":null,"anchorname":"Brockton Champion High School","address":"175 Warrent Avenue, Brockton, MA 02301","bldgnbr":"175","predir":null,"streetname":"Warrent","streettype":"Avenue","suffdir":null,"city":"Brockton","state_code":"MA","zip5":"02301","latitude":"42.0824821410000000","longitude":"-71.023007925000000","publicwifi":"U","url":null,"broadband_type_id":6}
{"id":null,"anchorname":"Brockton Public Library System","address":"155 West Elm Street, Brockton, MA 02301-5323","bldgnbr":"155","predir":"West","streetname":"Elm","streettype":"Street","suffdir":null,"city":"Brockton","state_code":"MA","zip5":"02301","latitude":"42.0817686240000000","longitude":"-71.025920565000000","publicwifi":"U","url":"http://www.brocktonpubliclibrary.org/","broadband_type_id":6}
{"id":null,"anchorname":"BROCKTON FIRE DEPARTMENT","address":"52 Pleasant Street, BROCKTON, MA 02301","bldgnbr":"52","predir":null,"streetname":"Pleasant","streettype":"Street","suffdir":null,"city":"BROCKTON","state_code":"MA","zip5":"02301","latitude":"42.0853985870000000","longitude":"-71.021076904000000","publicwifi":"U","url":null,"broadband_type_id":5}
{"id":null,"anchorname":"BROCKTON FIRE DEPARTMENT","address":"42 Pleasant Street, BROCKTON, MA 02301","bldgnbr":"42","predir":null,"streetname":"Pleasant","streettype":"Street","suffdir":null,"city":"BROCKTON","state_code":"MA","zip5":"02301","latitude":"42.0854484850000000","longitude":"-71.021383167000000","publicwifi":"U","url":null,"broadband_type_id":5}
{"id":null,"anchorname":"Brockton Neighborhood Health Center","address":"63 Main St, Brockton, MA 02301","bldgnbr":"63","predir":null,"streetname":"Main","streettype":"St","suffdir":null,"city":"Brockton","state_code":"MA","zip5":"02301","latitude":"42.0840831670000000","longitude":"-71.019944167000000","publicwifi":"U","url":null,"broadband_type_id":3}
{"id":null,"anchorname":"Career Works","address":"34 School Street, Brockton, MA 02301","bldgnbr":"34","predir":null,"streetname":"School","streettype":"Street","suffdir":null,"city":"Brockton","state_code":"MA","zip5":"02301","latitude":"42.0830582130000000","longitude":"-71.018737560000000","publicwifi":"U","url":null,"broadband_type_id":3}
{"id":null,"anchorname":"Brockton City Hall","address":"45 School Street, BROCKTON, MA 02301","bldgnbr":"45","predir":null,"streetname":"School","streettype":"Street","suffdir":null,"city":"BROCKTON","state_code":"MA","zip5":"02301","latitude":"42.0826613760000000","longitude":"-71.018563917000000","publicwifi":"U","url":null,"broadband_type_id":1}
{"id":null,"anchorname":"Brockton Neighborhood Health Center","address":"157 Main Street, Brockton, MA 02301","bldgnbr":"157","predir":null,"streetname":"Main","streettype":"Street","suffdir":null,"city":"Brockton","state_code":"MA","zip5":"02301","latitude":"42.0824067040000000","longitude":"-71.020351087000000","publicwifi":"U","url":null,"broadband_type_id":3}
{"id":null,"anchorname":"Brockton Neighborhood Health Center - Dental Office","address":"231 Main Street, Brockton, MA 02301","bldgnbr":"231","predir":null,"streetname":"Main","streettype":"Street","suffdir":null,"city":"Brockton","state_code":"MA","zip5":"02301","latitude":"42.0807060840000000","longitude":"-71.020347162000000","publicwifi":"U","url":null,"broadband_type_id":3}
{"id":null,"anchorname":"Trinity Catholic Academy","address":"37 Erie Avenue, Brockton, MA 02302","bldgnbr":"37","predir":null,"streetname":"Erie","streettype":"Avenue","suffdir":null,"city":"Brockton","state_code":"MA","zip5":"02302","latitude":"42.0807989170000000","longitude":"-71.005911304000000","publicwifi":"U","url":null,"broadband_type_id":6}
{"id":null,"anchorname":"MISHAWAKA REHAB","address":"60101 BODNAR BLVD # 200A","bldgnbr":"BLDGNUMBER","predir":null,"streetname":"STREETNAME","streettype":null,"suffdir":null,"city":"MISHAWAKA","state_code":"IN","zip5":"46544","latitude":"41.6218597410000000","longitude":"-86.140703754000000","publicwifi":"I","url":null,"broadband_type_id":6}
{"id":null,"anchorname":"Cardinal Spellman High","address":"738 Court, Brockton, MA 02402","bldgnbr":"738","predir":null,"streetname":"Court","streettype":"Ct","suffdir":null,"city":"Brockton","state_code":"MA","zip5":"02402","latitude":"42.0928495000000000","longitude":"-70.993413461000000","publicwifi":"U","url":null,"broadband_type_id":6}
{"id":null,"anchorname":"Gilmore Academy","address":"150 Clinton Street, Brockton, MA 02302","bldgnbr":"150","predir":null,"streetname":"Clinton","streettype":"Street","suffdir":null,"city":"Brockton","state_code":"MA","zip5":"02302","latitude":"42.0666297310000000","longitude":"-71.012600065000000","publicwifi":"U","url":null,"broadband_type_id":6}
{"id":null,"anchorname":"Brockton Christian","address":"1367 Main Street, Brockton, MA 02301","bldgnbr":"1367","predir":null,"streetname":"Main","streettype":"Street","suffdir":null,"city":"Brockton","state_code":"MA","zip5":"02301","latitude":"42.0582912000000000","longitude":"-71.014225178000000","publicwifi":"U","url":null,"broadband_type_id":6}
{"id":null,"anchorname":"La Baron Hairdressing Academy-Brockton","address":"240 Liberty Street, Brockton, MA 02401","bldgnbr":"240","predir":null,"streetname":"Liberty","streettype":"Street","suffdir":null,"city":"Brockton","state_code":"MA","zip5":"02401","latitude":"42.0534196410000000","longitude":"-71.059831171000000","publicwifi":"U","url":null,"broadband_type_id":6}
{"id":null,"anchorname":"Abington High","address":"201 Gliniewicz Way, Abington, MA 02351","bldgnbr":"201","predir":null,"streetname":"Gliniewicz","streettype":"Way","suffdir":null,"city":"Abington","state_code":"MA","zip5":"02351","latitude":"42.1183433670000000","longitude":"-70.953571007000000","publicwifi":"U","url":null,"broadband_type_id":6}
{"id":null,"anchorname":"East Branch","address":"54 KINGMAN Street, Brockton, MA 02302","bldgnbr":"54","predir":null,"streetname":"KINGMAN","streettype":"Street","suffdir":null,"city":"Brockton","state_code":"MA","zip5":"02302","latitude":"42.0826062370000000","longitude":"-71.001713034000000","publicwifi":"U","url":null,"broadband_type_id":null}
{"id":null,"anchorname":"St Bridget","address":"455 Plymouth, Abington, MA 02351","bldgnbr":"455","predir":null,"streetname":"Plymouth","streettype":null,"suffdir":null,"city":"Abington","state_code":"MA","zip5":"02351","latitude":"42.1171351050000000","longitude":"-70.937496327000000","publicwifi":"U","url":null,"broadband_type_id":null}
{"id":null,"anchorname":"Abington ECC","address":"1 Ralph Hamlin Lane, Abington, MA 02351","bldgnbr":"1","predir":null,"streetname":"Ralph Hamlin","streettype":"Lane","suffdir":null,"city":"Abington","state_code":"MA","zip5":"02351","latitude":"42.1187081820000000","longitude":"-70.943897043000000","publicwifi":"U","url":null,"broadband_type_id":null}
{"id":null,"anchorname":"Woodsdale","address":"128 Chestnut Street, Abington, MA 02351","bldgnbr":"128","predir":null,"streetname":"Chestnut","streettype":"Street","suffdir":null,"city":"Abington","state_code":"MA","zip5":"02351","latitude":"42.1303871000000000","longitude":"-70.972304421000000","publicwifi":"U","url":null,"broadband_type_id":null}
{"id":null,"anchorname":"Mary E Baker School","address":"45 Quincy Street, Brockton, MA 02302","bldgnbr":"45","predir":null,"streetname":"Quincy","streettype":"Street","suffdir":null,"city":"Brockton","state_code":"MA","zip5":"02302","latitude":"42.0933309640000000","longitude":"-70.990235175000000","publicwifi":"U","url":null,"broadband_type_id":6}
{"id":null,"anchorname":"Signature Healthcare","address":"680 Centre Street, Brockton, MA 02302","bldgnbr":"680","predir":null,"streetname":"Centre","streettype":"Street","suffdir":null,"city":"Brockton","state_code":"MA","zip5":"02302","latitude":"42.0879379150000000","longitude":"-70.991458566000000","publicwifi":"U","url":null,"broadband_type_id":3}
{"id":null,"anchorname":"Brockton Hospital School Of Nursing","address":"680 Centre Street, Brockton, MA 02302","bldgnbr":"680","predir":null,"streetname":"Centre","streettype":"Street","suffdir":null,"city":"Brockton","state_code":"MA","zip5":"02302","latitude":"42.0875414970000000","longitude":"-70.991369429000000","publicwifi":"U","url":null,"broadband_type_id":3}
{"id":null,"anchorname":"Signature Healthcare Brockton Hospital","address":"680 Centre St, Brockton, MA 02302","bldgnbr":"680","predir":null,"streetname":"Centre","streettype":"St","suffdir":null,"city":"Brockton","state_code":"MA","zip5":"02302","latitude":"42.0863322730000000","longitude":"-70.990596713000000","publicwifi":"U","url":null,"broadband_type_id":3}
{"id":null,"anchorname":"Signature Healthcare","address":"680 Centre Street, Brockton, MA 02302","bldgnbr":"680","predir":null,"streetname":"Centre","streettype":"Street","suffdir":null,"city":"Brockton","state_code":"MA","zip5":"02302","latitude":"42.0879379150000000","longitude":"-70.991458566000000","publicwifi":"U","url":null,"broadband_type_id":3}
{"id":null,"anchorname":"East Middle School","address":"464 Centre Street, Brockton, MA 02302","bldgnbr":"464","predir":null,"streetname":"Centre","streettype":"Street","suffdir":null,"city":"Brockton","state_code":"MA","zip5":"02302","latitude":"42.0859040740000000","longitude":"-71.000889034000000","publicwifi":"U","url":null,"broadband_type_id":6}
{"id":null,"anchorname":"Downey School","address":"55 Electric Avenue, Brockton, MA 02302","bldgnbr":"55","predir":null,"streetname":"Electric","streettype":"Avenue","suffdir":null,"city":"Brockton","state_code":"MA","zip5":"02302","latitude":"42.0782201880000000","longitude":"-70.994458726000000","publicwifi":"U","url":null,"broadband_type_id":6}
{"id":null,"anchorname":"Massasoit Community College","address":"1 Massasoit Boulevard, Brockton, MA 02302-3996","bldgnbr":"1","predir":null,"streetname":"Massasoit","streettype":"Boulevard","suffdir":null,"city":"Brockton","state_code":"MA","zip5":"02302","latitude":"42.0761494910000000","longitude":"-70.989446175000000","publicwifi":"U","url":null,"broadband_type_id":6}
{"id":null,"anchorname":"Massasoit Community College","address":"1 Massasoit Boulevard, Brockton, MA 02302-3996","bldgnbr":"1","predir":null,"streetname":"Massasoit","streettype":"Boulevard","suffdir":null,"city":"Brockton","state_code":"MA","zip5":"02302","latitude":"42.0761494910000000","longitude":"-70.989446175000000","publicwifi":"U","url":null,"broadband_type_id":6}
{"id":null,"anchorname":"BROCKTON FIRE DEPARTMENT","address":"305 Crescent Street, BROCKTON, MA 02301","bldgnbr":"305","predir":null,"streetname":"Crescent","streettype":"Street","suffdir":null,"city":"BROCKTON","state_code":"MA","zip5":"02301","latitude":"42.0797519100000000","longitude":"-71.009017793000000","publicwifi":"U","url":null,"broadband_type_id":5}
{"id":null,"anchorname":"Davis School","address":"380 Plain Street, Brockton, MA 02302","bldgnbr":"380","predir":null,"streetname":"Plain","streettype":"Street","suffdir":null,"city":"Brockton","state_code":"MA","zip5":"02302","latitude":"42.0554406510000000","longitude":"-70.999375152000000","publicwifi":"U","url":null,"broadband_type_id":6}
{"id":null,"anchorname":"Brockton Champion High School","address":"20 Union Street, Brockton, MA 02301","bldgnbr":"20","predir":null,"streetname":"Union","streettype":"Street","suffdir":null,"city":"Brockton","state_code":"MA","zip5":"02301","latitude":"42.0742183050000000","longitude":"-71.018031591000000","publicwifi":"U","url":null,"broadband_type_id":6}
{"id":null,"anchorname":"BROCKTON FIRE DEPARTMENT","address":"945 Main Street, BROCKTON, MA 02301","bldgnbr":"945","predir":null,"streetname":"Main","streettype":"Street","suffdir":null,"city":"BROCKTON","state_code":"MA","zip5":"02301","latitude":"42.0669473890000000","longitude":"-71.016958684000000","publicwifi":"U","url":null,"broadband_type_id":5}
{"id":null,"anchorname":"Huntington School","address":"1121 Warren Avenue, Brockton, MA 02301","bldgnbr":"1121","predir":null,"streetname":"Warren","streettype":"Avenue","suffdir":null,"city":"Brockton","state_code":"MA","zip5":"02301","latitude":"42.0626794130000000","longitude":"-71.019460752000000","publicwifi":"U","url":null,"broadband_type_id":6}
{"id":null,"anchorname":"BROCKTON FIRE DEPARTMENT","address":"560 West Street, BROCKTON, MA 02301","bldgnbr":"560","predir":null,"streetname":"West","streettype":"Street","suffdir":null,"city":"BROCKTON","state_code":"MA","zip5":"02301","latitude":"42.0711730900000000","longitude":"-71.044083678000000","publicwifi":"U","url":null,"broadband_type_id":5}
{"id":null,"anchorname":"Ailano School Of Cosmetology","address":"541 West Street, Brockton, MA 02301","bldgnbr":"541","predir":null,"streetname":"West","streettype":"Street","suffdir":null,"city":"Brockton","state_code":"MA","zip5":"02301","latitude":"42.0711194610000000","longitude":"-71.044113909000000","publicwifi":"U","url":null,"broadband_type_id":6}
{"id":null,"anchorname":"West Branch Library","address":"540 FOREST Avenue, Brockton, MA 02301","bldgnbr":"540","predir":null,"streetname":"FOREST","streettype":"Avenue","suffdir":null,"city":"Brockton","state_code":"MA","zip5":"02301","latitude":"42.0712945110000000","longitude":"-71.042856174000000","publicwifi":"U","url":null,"broadband_type_id":6}
{"id":null,"anchorname":"Va Boston Healthcare Brockton","address":"940 Belmont St, Brockton, MA 02301","bldgnbr":"940","predir":null,"streetname":"Belmont","streettype":"St","suffdir":null,"city":"Brockton","state_code":"MA","zip5":"02301","latitude":"42.0649319970000000","longitude":"-71.055304399000000","publicwifi":"U","url":null,"broadband_type_id":3}
{"id":null,"anchorname":"Us Laboratories","address":"2 Jonathan Dr, Brockton, MA 02301","bldgnbr":"2","predir":null,"streetname":"Jonathan","streettype":"Dr","suffdir":null,"city":"Brockton","state_code":"MA","zip5":"02301","latitude":"42.0581790970000000","longitude":"-71.059074909000000","publicwifi":"U","url":null,"broadband_type_id":3}
{"id":null,"anchorname":"Signature Healthcare","address":"110 Liberty Street, Brockton, MA 02301","bldgnbr":"110","predir":null,"streetname":"Liberty","streettype":"Street","suffdir":null,"city":"Brockton","state_code":"MA","zip5":"02301","latitude":"42.0554431350000000","longitude":"-71.061669871000000","publicwifi":"U","url":null,"broadband_type_id":3}
{"id":null,"anchorname":"Abington Police Department","address":"215 Central Street, Abington, MA 02351","bldgnbr":"215","predir":null,"streetname":"Central","streettype":"Street","suffdir":null,"city":"Abington","state_code":"MA","zip5":"02351","latitude":"42.1152300110000000","longitude":"-70.939705798000000","publicwifi":"U","url":null,"broadband_type_id":4}
{"id":null,"anchorname":"Frolio Middle School","address":"1071 Washington Street, Abington, MA 02351","bldgnbr":"1071","predir":null,"streetname":"Washington","streettype":"Street","suffdir":null,"city":"Abington","state_code":"MA","zip5":"02351","latitude":"42.1200427520000000","longitude":"-70.946071344000000","publicwifi":"U","url":null,"broadband_type_id":6}
{"id":null,"anchorname":"Center Elementary School","address":"65 Thaxter Avenue, Abington, MA 02351","bldgnbr":"65","predir":null,"streetname":"Thaxter","streettype":"Avenue","suffdir":null,"city":"Abington","state_code":"MA","zip5":"02351","latitude":"42.1039559210000000","longitude":"-70.944318542000000","publicwifi":"U","url":null,"broadband_type_id":6}
{"id":null,"anchorname":"ABINGTON FIRE DEPARTMENT","address":"1040 Bedford Street, ABINGTON, MA 02351","bldgnbr":"1040","predir":null,"streetname":"Bedford","streettype":"Street","suffdir":null,"city":"ABINGTON","state_code":"MA","zip5":"02351","latitude":"42.1323082930000000","longitude":"-70.950499115000000","publicwifi":"U","url":null,"broadband_type_id":5}
{"id":null,"anchorname":"Abington Public Library","address":"600 Gliniewicz Way, Abington, MA 02351-1641","bldgnbr":"600","predir":null,"streetname":"Gliniewicz","streettype":"Way","suffdir":null,"city":"Abington","state_code":"MA","zip5":"02351","latitude":"42.1175686290000000","longitude":"-70.954160541000000","publicwifi":"N","url":"http://www.abingtonpl.org/","broadband_type_id":6}
{"id":null,"anchorname":"Abington Town Hall","address":"500 Gliniewicz Way, ABINGTON, MA 02351","bldgnbr":"500","predir":null,"streetname":"Gliniewicz","streettype":"Way","suffdir":null,"city":"ABINGTON","state_code":"MA","zip5":"02351","latitude":"42.1177868960000000","longitude":"-70.957555322000000","publicwifi":"U","url":null,"broadband_type_id":1}
{"id":null,"anchorname":"FUTURES UNLIMITED","address":"2277 W FRONTAGE RD","bldgnbr":"BLDGNUMBER","predir":null,"streetname":"STREETNAME","streettype":null,"suffdir":null,"city":"AUSTIN","state_code":"IN","zip5":"47102","latitude":"38.7429279100000000","longitude":"-85.819353769000000","publicwifi":"I","url":null,"broadband_type_id":6}
{"id":null,"anchorname":"LINCOLN TRAIL ELEMENTARY SCH","address":"13726 NORTH SR 245","bldgnbr":"BLDGNUMBER","predir":null,"streetname":"STREETNAME","streettype":null,"suffdir":null,"city":"LAMAR","state_code":"IN","zip5":"47550","latitude":"38.0665589560000000","longitude":"-86.904858621000000","publicwifi":"N","url":null,"broadband_type_id":6}
{"id":null,"anchorname":"Whitman Middle","address":"101 Corthell Avenue, Whitman, MA 02382","bldgnbr":"101","predir":null,"streetname":"Corthell","streettype":"Avenue","suffdir":null,"city":"Whitman","state_code":"MA","zip5":"02382","latitude":"42.0786275560000000","longitude":"-70.957564394000000","publicwifi":"U","url":null,"broadband_type_id":6}
{"id":null,"anchorname":"Maquan Elementary","address":"38 School Street, Hanson, MA 02341","bldgnbr":"38","predir":null,"streetname":"School","streettype":"Street","suffdir":null,"city":"Hanson","state_code":"MA","zip5":"02341","latitude":"42.0613075800000000","longitude":"-70.856201659000000","publicwifi":"U","url":null,"broadband_type_id":6}
{"id":null,"anchorname":"John H Duval","address":"60 Regal Street, Whitman, MA 02382","bldgnbr":"60","predir":null,"streetname":"Regal","streettype":"Street","suffdir":null,"city":"Whitman","state_code":"MA","zip5":"02382","latitude":"42.0868828180000000","longitude":"-70.917289703000000","publicwifi":"U","url":null,"broadband_type_id":null}
{"id":null,"anchorname":"Indian Head","address":"720 Indian Head Street, Hanson, MA 02341","bldgnbr":"720","predir":null,"streetname":"Indian Head","streettype":"Street","suffdir":null,"city":"Hanson","state_code":"MA","zip5":"02341","latitude":"42.0614745420000000","longitude":"-70.858678160000000","publicwifi":"U","url":null,"broadband_type_id":null}
{"id":null,"anchorname":"Central","address":"107 Central Street, East Bridgewater, MA 02333","bldgnbr":"107","predir":null,"streetname":"Central","streettype":"Street","suffdir":null,"city":"East Bridgewater","state_code":"MA","zip5":"02333","latitude":"42.0299386510000000","longitude":"-70.956874732000000","publicwifi":"U","url":null,"broadband_type_id":null}
{"id":null,"anchorname":"Gordon W Mitchell","address":"435 Central Street, East Bridgewater, MA 02333","bldgnbr":"435","predir":null,"streetname":"Central","streettype":"Street","suffdir":null,"city":"East Bridgewater","state_code":"MA","zip5":"02333","latitude":"42.0286745170000000","longitude":"-70.944730728000000","publicwifi":"U","url":null,"broadband_type_id":null}
{"id":null,"anchorname":"Rose L Macdonald","address":"1 Stepping Stone Drive, West Bridgewater, MA 02379","bldgnbr":"1","predir":null,"streetname":"Stepping Stone","streettype":"Drive","suffdir":null,"city":"West Bridgewater","state_code":"MA","zip5":"02379","latitude":"42.0233759550000000","longitude":"-71.028223897000000","publicwifi":"U","url":null,"broadband_type_id":null}
{"id":null,"anchorname":"ABINGTON FIRE DEPARTMENT","address":"5 Rockland Street, ABINGTON, MA 02351","bldgnbr":"5","predir":null,"streetname":"Rockland","streettype":"Street","suffdir":null,"city":"ABINGTON","state_code":"MA","zip5":"02351","latitude":"42.1064778320000000","longitude":"-70.950208126000000","publicwifi":"U","url":null,"broadband_type_id":5}
{"id":null,"anchorname":"WHITMAN FIRE-RESCUE","address":"56 Temple Street, WHITMAN, MA 02382","bldgnbr":"56","predir":null,"streetname":"Temple","streettype":"Street","suffdir":null,"city":"WHITMAN","state_code":"MA","zip5":"02382","latitude":"42.0802325960000000","longitude":"-70.938661759000000","publicwifi":"U","url":null,"broadband_type_id":5}
{"id":null,"anchorname":"Whitman Public Library","address":"100 Webster Street, Whitman, MA 02382-1914","bldgnbr":"100","predir":null,"streetname":"Webster","streettype":"Street","suffdir":null,"city":"Whitman","state_code":"MA","zip5":"02382","latitude":"42.0766186250000000","longitude":"-70.937080534000000","publicwifi":"Y","url":"http://www.whitmanpubliclibrary.org/","broadband_type_id":6}
{"id":null,"anchorname":"Whitman Town Hall","address":"54 South Avenue, Whitman, MA 02382","bldgnbr":"54","predir":null,"streetname":"South","streettype":"Avenue","suffdir":null,"city":"Whitman","state_code":"MA","zip5":"02382","latitude":"42.0812903490000000","longitude":"-70.935791668000000","publicwifi":"U","url":null,"broadband_type_id":1}
{"id":null,"anchorname":"Whitman Town Hall","address":"54 South Avenue, Whitman, MA 02382","bldgnbr":"54","predir":null,"streetname":"South","streettype":"Avenue","suffdir":null,"city":"Whitman","state_code":"MA","zip5":"02382","latitude":"42.0812903490000000","longitude":"-70.935791668000000","publicwifi":"U","url":null,"broadband_type_id":1}
{"id":null,"anchorname":"WHITMAN POLICE DEPT","address":"39 Whitman Avenue, WHITMAN, MA 02382","bldgnbr":"39","predir":null,"streetname":"Whitman","streettype":"Avenue","suffdir":null,"city":"WHITMAN","state_code":"MA","zip5":"02382","latitude":"42.0813477760000000","longitude":"-70.935825240000000","publicwifi":"U","url":null,"broadband_type_id":4}
{"id":null,"anchorname":"Hope Christian School","address":"503 South Avenue, Whitman, MA 02382","bldgnbr":"503","predir":null,"streetname":"South","streettype":"Avenue","suffdir":null,"city":"Whitman","state_code":"MA","zip5":"02382","latitude":"42.0840013150000000","longitude":"-70.919994980000000","publicwifi":"U","url":null,"broadband_type_id":6}
{"id":null,"anchorname":"Hanson Public Library","address":"132 Maquan Street, Hanson, MA 02341-1711","bldgnbr":"132","predir":null,"streetname":"Maquan","streettype":"Street","suffdir":null,"city":"Hanson","state_code":"MA","zip5":"02341","latitude":"42.0633086250000000","longitude":"-70.856300509000000","publicwifi":"U","url":"http://hansonlibrary.org","broadband_type_id":6}
{"id":null,"anchorname":"Whitman-Hanson Regional Schools","address":"600 Franklin Street, Whitman, MA 02382","bldgnbr":"600","predir":null,"streetname":"Franklin","streettype":"Street","suffdir":null,"city":"Whitman","state_code":"MA","zip5":"02382","latitude":"42.0699010650000000","longitude":"-70.908271500000000","publicwifi":"U","url":null,"broadband_type_id":6}
{"id":null,"anchorname":"Whitman-Hanson Regional Schools","address":"600 Franklin Street, Whitman, MA 02382","bldgnbr":"600","predir":null,"streetname":"Franklin","streettype":"Street","suffdir":null,"city":"Whitman","state_code":"MA","zip5":"02382","latitude":"42.0699010650000000","longitude":"-70.908271500000000","publicwifi":"U","url":null,"broadband_type_id":6}
{"id":null,"anchorname":"HANSON FIRE DEPARTMENT","address":"505 Liberty Street, HANSON, MA 02341","bldgnbr":"505","predir":null,"streetname":"Liberty","streettype":"Street","suffdir":null,"city":"HANSON","state_code":"MA","zip5":"02341","latitude":"42.0662516420000000","longitude":"-70.867972785000000","publicwifi":"U","url":null,"broadband_type_id":5}
{"id":null,"anchorname":"Hanson Middle School","address":"111 Liberty Street, Hanson, MA 02341","bldgnbr":"111","predir":null,"streetname":"Liberty","streettype":"Street","suffdir":null,"city":"Hanson","state_code":"MA","zip5":"02341","latitude":"42.0738476600000000","longitude":"-70.878686855000000","publicwifi":"U","url":null,"broadband_type_id":6}
{"id":null,"anchorname":"HANSON POLICE DEPT","address":"795 Indian Head, HANSON, MA 02341","bldgnbr":"795","predir":null,"streetname":"Indian Head","streettype":"St","suffdir":null,"city":"HANSON","state_code":"MA","zip5":"02341","latitude":"42.0631444920000000","longitude":"-70.861476674000000","publicwifi":"U","url":null,"broadband_type_id":4}
{"id":null,"anchorname":"Hanson Town Hall","address":"542 Liberty Street, HANSON, MA 02341","bldgnbr":"542","predir":null,"streetname":"Liberty","streettype":"Street","suffdir":null,"city":"HANSON","state_code":"MA","zip5":"02341","latitude":"42.0651645250000000","longitude":"-70.866663412000000","publicwifi":"U","url":null,"broadband_type_id":1}
{"id":null,"anchorname":"EAST BRIDGEWATER POLICE DEPT","address":"153 Central Street, EAST BRIDGEWATER, MA 02333","bldgnbr":"153","predir":null,"streetname":"Central","streettype":"Street","suffdir":null,"city":"EAST BRIDGEWATER","state_code":"MA","zip5":"02333","latitude":"42.0299828900000000","longitude":"-70.956862641000000","publicwifi":"U","url":null,"broadband_type_id":4}
{"id":null,"anchorname":"EAST BRIDGEWATER FIRE DEPARTMENT","address":"268 Bedford Street, EAST BRIDGEWATER, MA 02333","bldgnbr":"268","predir":null,"streetname":"Bedford","streettype":"Street","suffdir":null,"city":"EAST BRIDGEWATER","state_code":"MA","zip5":"02333","latitude":"42.0266527040000000","longitude":"-70.957816312000000","publicwifi":"U","url":null,"broadband_type_id":5}
{"id":null,"anchorname":"East Bridgewater Town Hall","address":"175 Central Street, EAST BRIDGEWATER, MA 02333","bldgnbr":"175","predir":null,"streetname":"Central","streettype":"Street","suffdir":null,"city":"EAST BRIDGEWATER","state_code":"MA","zip5":"02333","latitude":"42.0290586750000000","longitude":"-70.955743239000000","publicwifi":"U","url":null,"broadband_type_id":1}
{"id":null,"anchorname":"East Bridgewater Public Library","address":"32 Union Street, East Bridgewater, MA 02333-1598","bldgnbr":"32","predir":null,"streetname":"Union","streettype":"Street","suffdir":null,"city":"East Bridgewater","state_code":"MA","zip5":"02333","latitude":"42.0336428270000000","longitude":"-70.958576851000000","publicwifi":"Y","url":"http://www.sailsinc.org/ebpl","broadband_type_id":6}
{"id":null,"anchorname":"West Bridgewater Town Hall","address":"65 North Main Street, West Bridgewater, MA 02379","bldgnbr":"65","predir":"North","streetname":"Main","streettype":"Street","suffdir":null,"city":"West Bridgewater","state_code":"MA","zip5":"02379","latitude":"42.0212144120000000","longitude":"-71.008634976000000","publicwifi":"U","url":null,"broadband_type_id":1}
{"id":null,"anchorname":"West Bridgewater Public Library","address":"80 Howard Street, West Bridgewater, MA 02379-1710","bldgnbr":"80","predir":null,"streetname":"Howard","streettype":"Street","suffdir":null,"city":"West Bridgewater","state_code":"MA","zip5":"02379","latitude":"42.0210674870000000","longitude":"-71.011707729000000","publicwifi":"N","url":"http://www.sailsinc.org/westbridgewater/","broadband_type_id":6}
{"id":null,"anchorname":"West Bridgewater Public Library","address":"80 Howard Street, West Bridgewater, MA 02379-1710","bldgnbr":"80","predir":null,"streetname":"Howard","streettype":"Street","suffdir":null,"city":"West Bridgewater","state_code":"MA","zip5":"02379","latitude":"42.0210674870000000","longitude":"-71.011707729000000","publicwifi":"N","url":"http://www.sailsinc.org/westbridgewater/","broadband_type_id":6}
{"id":null,"anchorname":"Spring Street School","address":"2 Spring Street, West Bridgewater, MA 02379","bldgnbr":"2","predir":null,"streetname":"Spring","streettype":"Street","suffdir":null,"city":"West Bridgewater","state_code":"MA","zip5":"02379","latitude":"42.0206900140000000","longitude":"-71.014763875000000","publicwifi":"U","url":null,"broadband_type_id":6}
{"id":null,"anchorname":"WEST BRIDGEWATER POLICE DEPT","address":"99 West Center Street, WEST BRIDGEWATER, MA 02379","bldgnbr":"99","predir":"West","streetname":"Center","streettype":"Street","suffdir":null,"city":"WEST BRIDGEWATER","state_code":"MA","zip5":"02379","latitude":"42.0185843970000000","longitude":"-71.013708977000000","publicwifi":"U","url":null,"broadband_type_id":4}
{"id":null,"anchorname":"WEST BRIDGEWATER FIRE DEPARTMENT","address":"99 West Center Street, WEST BRIDGEWATER, MA 02379","bldgnbr":"99","predir":"West","streetname":"Center","streettype":"Street","suffdir":null,"city":"WEST BRIDGEWATER","state_code":"MA","zip5":"02379","latitude":"42.0186730360000000","longitude":"-71.013507992000000","publicwifi":"U","url":null,"broadband_type_id":5}
{"id":null,"anchorname":"Commonwealth Endoscopy Center","address":"120 W Center St, W Bridgewater, MA 02379","bldgnbr":"120","predir":"W","streetname":"Center","streettype":"St","suffdir":null,"city":"W Bridgewater","state_code":"MA","zip5":"02379","latitude":"42.0180836450000000","longitude":"-71.014962810000000","publicwifi":"U","url":null,"broadband_type_id":null}
{"id":null,"anchorname":"GENEALOGY AND HISTORY HOUSE","address":"58 WEST HENDRICKS STREET","bldgnbr":"BLDGNUMBER","predir":null,"streetname":"STREETNAME","streettype":null,"suffdir":null,"city":"SHELBYVILLE","state_code":"IN","zip5":"99999","latitude":"39.5220771550000000","longitude":"-85.778272761000000","publicwifi":"N","url":null,"broadband_type_id":6}
{"id":null,"anchorname":"Bridgewater-Raynham Reg","address":"415 Center Street, Bridgewater, MA 02324","bldgnbr":"415","predir":null,"streetname":"Center","streettype":"Street","suffdir":null,"city":"Bridgewater","state_code":"MA","zip5":"02324","latitude":"41.9892826000000000","longitude":"-70.985046883000000","publicwifi":"U","url":null,"broadband_type_id":null}
{"id":null,"anchorname":"SOUTHWESTERN ELEMENTARY SCH","address":"3406 WEST 600 SOUTH","bldgnbr":"BLDGNUMBER","predir":null,"streetname":"STREETNAME","streettype":null,"suffdir":null,"city":"SHELBYVILLE","state_code":"IN","zip5":"46176","latitude":"39.4382817880000000","longitude":"-85.843386265000000","publicwifi":"N","url":null,"broadband_type_id":6}
{"id":null,"anchorname":"WORKONE SOUTHWEST","address":"319 S 5TH ST # 10","bldgnbr":"BLDGNUMBER","predir":null,"streetname":"STREETNAME","streettype":null,"suffdir":null,"city":"ROCKPORT","state_code":"IN","zip5":"47635","latitude":"37.8803242820000000","longitude":"-87.051308454000000","publicwifi":"I","url":null,"broadband_type_id":6}
{"id":null,"anchorname":"East Pond Enterprises","address":"40 Industrial Park, Plymouth, MA 02360","bldgnbr":"40","predir":null,"streetname":"Industrial","streettype":"Park","suffdir":null,"city":"Plymouth","state_code":"MA","zip5":"02360","latitude":"41.9606428680000000","longitude":"-70.699995689000000","publicwifi":"U","url":null,"broadband_type_id":6}
{"id":null,"anchorname":"Cvs Pharmacy #2138","address":"8 Pilgrim Hill Road, Plymouth, MA 02360","bldgnbr":"8","predir":null,"streetname":"Pilgrim Hill","streettype":"Rd","suffdir":null,"city":"Plymouth","state_code":"MA","zip5":"02360","latitude":"41.9507993380000000","longitude":"-70.688432048000000","publicwifi":"U","url":null,"broadband_type_id":3}
{"id":null,"anchorname":"Plymouth North High","address":"41 Obery Street, Plymouth, MA 02360","bldgnbr":"41","predir":null,"streetname":"Obery","streettype":"Street","suffdir":null,"city":"Plymouth","state_code":"MA","zip5":"02360","latitude":"41.9432188090000000","longitude":"-70.652315814000000","publicwifi":"U","url":null,"broadband_type_id":6}
{"id":null,"anchorname":"Plymouth Airport","address":"246 South Meadow Road, Plymouth, MA 02360","bldgnbr":"246","predir":"South","streetname":"Meadow","streettype":"Road","suffdir":null,"city":"Plymouth","state_code":"MA","zip5":"02360","latitude":"41.9126447480000000","longitude":"-70.733087832000000","publicwifi":"U","url":null,"broadband_type_id":1}
{"id":null,"anchorname":"Plymouth Laser And Surgical Center","address":"40 Industrial Park Road, Plymouth, MA 02360","bldgnbr":"40","predir":null,"streetname":"Industrial Park","streettype":"Rd","suffdir":null,"city":"Plymouth","state_code":"MA","zip5":"02360","latitude":"41.9606428680000000","longitude":"-70.699995689000000","publicwifi":"U","url":null,"broadband_type_id":null}
{"id":null,"anchorname":"Hedge","address":"258 Standish Avenue, Plymouth, MA 02360","bldgnbr":"258","predir":null,"streetname":"Standish","streettype":"Avenue","suffdir":null,"city":"Plymouth","state_code":"MA","zip5":"02360","latitude":"41.9740748450000000","longitude":"-70.687723712000000","publicwifi":"U","url":null,"broadband_type_id":null}
{"id":null,"anchorname":"Cold Spring","address":"25 Alden Street, Plymouth, MA 02360","bldgnbr":"25","predir":null,"streetname":"Alden","streettype":"Street","suffdir":null,"city":"Plymouth","state_code":"MA","zip5":"02360","latitude":"41.9628766840000000","longitude":"-70.677373168000000","publicwifi":"U","url":null,"broadband_type_id":null}
{"id":null,"anchorname":"Mount Pleasant","address":"253 South Meadow Road, Plymouth, MA 02360","bldgnbr":"253","predir":"South","streetname":"Meadow","streettype":"Road","suffdir":null,"city":"Plymouth","state_code":"MA","zip5":"02360","latitude":"41.9110662810000000","longitude":"-70.735570099000000","publicwifi":"U","url":null,"broadband_type_id":null}
{"id":null,"anchorname":"Nathaniel Morton Elem","address":"6 Lincoln Street, Plymouth, MA 02360","bldgnbr":"6","predir":null,"streetname":"Lincoln","streettype":"Street","suffdir":null,"city":"Plymouth","state_code":"MA","zip5":"02360","latitude":"41.9540521800000000","longitude":"-70.659564215000000","publicwifi":"U","url":null,"broadband_type_id":null}
{"id":null,"anchorname":"Bridgewater Public Library","address":"15 South Street, Bridgewater, MA 02324-2593","bldgnbr":"15","predir":null,"streetname":"South","streettype":"Street","suffdir":null,"city":"Bridgewater","state_code":"MA","zip5":"02324","latitude":"41.9887986060000000","longitude":"-70.977070540000000","publicwifi":"N","url":"http://www.bridgewaterpubliclibrary.org/","broadband_type_id":6}
{"id":null,"anchorname":"Mitchell Elementary School","address":"500 South Street, Bridgewater, MA 02324","bldgnbr":"500","predir":null,"streetname":"South","streettype":"Street","suffdir":null,"city":"Bridgewater","state_code":"MA","zip5":"02324","latitude":"41.9764120670000000","longitude":"-70.979419599000000","publicwifi":"U","url":null,"broadband_type_id":6}
{"id":null,"anchorname":"Williams Intermediate School","address":"200 South Street, Bridgewater, MA 02324","bldgnbr":"200","predir":null,"streetname":"South","streettype":"Street","suffdir":null,"city":"Bridgewater","state_code":"MA","zip5":"02324","latitude":"41.9840928420000000","longitude":"-70.979628795000000","publicwifi":"U","url":null,"broadband_type_id":6}
{"id":null,"anchorname":"Bridgewater State Hospital","address":"20 Administration Road, Bridgewater, MA 02324","bldgnbr":"20","predir":null,"streetname":"Administration","streettype":"Rd","suffdir":null,"city":"Bridgewater","state_code":"MA","zip5":"02324","latitude":"41.9453762670000000","longitude":"-70.950754845000000","publicwifi":"U","url":null,"broadband_type_id":3}
{"id":null,"anchorname":"HALIFAX POLICE DEPT","address":"500 Plymouth Street, HALIFAX, MA 02338","bldgnbr":"500","predir":null,"streetname":"Plymouth","streettype":"Street","suffdir":null,"city":"HALIFAX","state_code":"MA","zip5":"02338","latitude":"41.9922651760000000","longitude":"-70.865079345000000","publicwifi":"U","url":null,"broadband_type_id":4}
{"id":null,"anchorname":"Halifax Town Hall","address":"499 Plymouth Street, HALIFAX, MA 02338","bldgnbr":"499","predir":null,"streetname":"Plymouth","streettype":"Street","suffdir":null,"city":"HALIFAX","state_code":"MA","zip5":"02338","latitude":"41.9913577580000000","longitude":"-70.860935836000000","publicwifi":"U","url":null,"broadband_type_id":1}
{"id":null,"anchorname":"HALIFAX FIRE DEPARTMENT","address":"438 Plymouth Street, HALIFAX, MA 02338","bldgnbr":"438","predir":null,"streetname":"Plymouth","streettype":"Street","suffdir":null,"city":"HALIFAX","state_code":"MA","zip5":"02338","latitude":"41.9911217390000000","longitude":"-70.855747851000000","publicwifi":"U","url":null,"broadband_type_id":5}
{"id":null,"anchorname":"Holmes Public Library","address":"470 Plymouth Street, Halifax, MA 02338-1342","bldgnbr":"470","predir":null,"streetname":"Plymouth","streettype":"Street","suffdir":null,"city":"Halifax","state_code":"MA","zip5":"02338","latitude":"41.9915386090000000","longitude":"-70.858310505000000","publicwifi":"Y","url":"http://holmespubliclibrary.org","broadband_type_id":6}
{"id":null,"anchorname":"Rising Tide Charter Public School","address":"6 Resnik Road, Plymouth, MA 02360","bldgnbr":"6","predir":null,"streetname":"Resnik","streettype":"Road","suffdir":null,"city":"Plymouth","state_code":"MA","zip5":"02360","latitude":"41.9485631400000000","longitude":"-70.712102496000000","publicwifi":"U","url":null,"broadband_type_id":6}
{"id":null,"anchorname":"PLYMOUTH FIRE DEPARTMENT","address":"240 Samoset Street, PLYMOUTH, MA 02360","bldgnbr":"240","predir":null,"streetname":"Samoset","streettype":"Street","suffdir":null,"city":"PLYMOUTH","state_code":"MA","zip5":"02360","latitude":"41.9452973530000000","longitude":"-70.700594568000000","publicwifi":"U","url":null,"broadband_type_id":5}
{"id":null,"anchorname":"Plymouth Career Center","address":"38 Cordage Park Circle, Plymouth, MA 02360","bldgnbr":"38","predir":null,"streetname":"Cordage Park","streettype":"Circle","suffdir":null,"city":"Plymouth","state_code":"MA","zip5":"02360","latitude":"41.9781005560000000","longitude":"-70.688296937000000","publicwifi":"U","url":null,"broadband_type_id":3}
{"id":null,"anchorname":"PLYMOUTH FIRE DEPARTMENT","address":"0 Spooner Street, PLYMOUTH, MA 02360","bldgnbr":"0","predir":null,"streetname":"Spooner","streettype":"Street","suffdir":null,"city":"PLYMOUTH","state_code":"MA","zip5":"02360","latitude":"41.9760115620000000","longitude":"-70.689424468000000","publicwifi":"U","url":null,"broadband_type_id":5}
{"id":null,"anchorname":"Plymouth Town Hall","address":"11 Lincoln Street, Plymouth, MA 02360","bldgnbr":"11","predir":null,"streetname":"Lincoln","streettype":"Street","suffdir":null,"city":"Plymouth","state_code":"MA","zip5":"02360","latitude":"41.9538460790000000","longitude":"-70.658511503000000","publicwifi":"U","url":null,"broadband_type_id":1}
{"id":null,"anchorname":"Plymouth Town Hall","address":"11 Lincoln Street, Plymouth, MA 02360","bldgnbr":"11","predir":null,"streetname":"Lincoln","streettype":"Street","suffdir":null,"city":"Plymouth","state_code":"MA","zip5":"02360","latitude":"41.9538460790000000","longitude":"-70.658511503000000","publicwifi":"U","url":null,"broadband_type_id":1}
{"id":null,"anchorname":"Plymouth Town Hall","address":"11 Lincoln Street, Plymouth, MA 02360","bldgnbr":"11","predir":null,"streetname":"Lincoln","streettype":"Street","suffdir":null,"city":"Plymouth","state_code":"MA","zip5":"02360","latitude":"41.9538460790000000","longitude":"-70.658511503000000","publicwifi":"U","url":null,"broadband_type_id":1}
{"id":null,"anchorname":"PLYMOUTH FIRE DEPARTMENT","address":"114 Sandwich Street, PLYMOUTH, MA 02360","bldgnbr":"114","predir":null,"streetname":"Sandwich","streettype":"Street","suffdir":null,"city":"PLYMOUTH","state_code":"MA","zip5":"02360","latitude":"41.9524436870000000","longitude":"-70.656929434000000","publicwifi":"U","url":null,"broadband_type_id":5}
{"id":null,"anchorname":"Plymouth Public Library","address":"132 South Street, Plymouth, MA 02360-2947","bldgnbr":"132","predir":null,"streetname":"South","streettype":"Street","suffdir":null,"city":"Plymouth","state_code":"MA","zip5":"02360","latitude":"41.9459886060000000","longitude":"-70.660870437000000","publicwifi":"U","url":"http://www.plymouthpubliclibrary.org/","broadband_type_id":6}
{"id":null,"anchorname":"Jordan Hospital","address":"275 Sandwich Street, Plymouth, MA 02360","bldgnbr":"275","predir":null,"streetname":"Sandwich","streettype":"Street","suffdir":null,"city":"Plymouth","state_code":"MA","zip5":"02360","latitude":"41.9431486660000000","longitude":"-70.644950295000000","publicwifi":"U","url":null,"broadband_type_id":3}
{"id":null,"anchorname":"Jordan Hospital","address":"275 Sandwich St, Plymouth, MA 02360","bldgnbr":"275","predir":null,"streetname":"Sandwich","streettype":"St","suffdir":null,"city":"Plymouth","state_code":"MA","zip5":"02360","latitude":"41.9445007350000000","longitude":"-70.645255964000000","publicwifi":"U","url":null,"broadband_type_id":3}
{"id":null,"anchorname":"PLYMOUTH POLICE DEPT","address":"20 Long Pond Road, PLYMOUTH, MA 02360","bldgnbr":"20","predir":null,"streetname":"Long Pond","streettype":"Road","suffdir":null,"city":"PLYMOUTH","state_code":"MA","zip5":"02360","latitude":"41.9336679630000000","longitude":"-70.656800795000000","publicwifi":"U","url":null,"broadband_type_id":4}
{"id":null,"anchorname":"Plymouth County Sheriff's Office","address":"24 Long Pond Road, Plymouth, MA 02360","bldgnbr":"24","predir":null,"streetname":"Long Pond","streettype":"Road","suffdir":null,"city":"Plymouth","state_code":"MA","zip5":"02360","latitude":"41.9316791150000000","longitude":"-70.653600312000000","publicwifi":"U","url":null,"broadband_type_id":4}
{"id":null,"anchorname":"Plymouth Commun Intermed","address":"117 Long Pond Road, Plymouth, MA 02360","bldgnbr":"117","predir":null,"streetname":"Long Pond","streettype":"Road","suffdir":null,"city":"Plymouth","state_code":"MA","zip5":"02360","latitude":"41.9225592760000000","longitude":"-70.658678023000000","publicwifi":"U","url":null,"broadband_type_id":null}
{"id":null,"anchorname":"Federal Furnace Sch","address":"860 Federal Furnace Road, Plymouth, MA 02360","bldgnbr":"860","predir":null,"streetname":"Federal Furnace","streettype":"Road","suffdir":null,"city":"Plymouth","state_code":"MA","zip5":"02360","latitude":"41.8912368970000000","longitude":"-70.713254159000000","publicwifi":"U","url":null,"broadband_type_id":null}
{"id":null,"anchorname":"Lakeville Crimelab","address":"30 Riverside Drive, Lakeville, MA 02347","bldgnbr":"30","predir":null,"streetname":"Riverside","streettype":"Drive","suffdir":null,"city":"Lakeville","state_code":"MA","zip5":"02347","latitude":"41.8771164470000000","longitude":"-70.922810158000000","publicwifi":"U","url":null,"broadband_type_id":4}
{"id":null,"anchorname":"BELLA VITA PREGNANCY RESOURCE","address":"206 S HEATON ST","bldgnbr":"BLDGNUMBER","predir":null,"streetname":"STREETNAME","streettype":null,"suffdir":null,"city":"KNOX","state_code":"IN","zip5":"46534","latitude":"41.2956032430000000","longitude":"-86.620634403000000","publicwifi":"I","url":null,"broadband_type_id":6}
{"id":null,"anchorname":"High Point Treatment Center Plymouth Campus","address":"1233 State Road, Plymouth, MA 02360","bldgnbr":"1233","predir":null,"streetname":"State","streettype":"Rd","suffdir":null,"city":"Plymouth","state_code":"MA","zip5":"02360","latitude":"41.8867480740000000","longitude":"-70.536921229000000","publicwifi":"U","url":null,"broadband_type_id":6}
{"id":null,"anchorname":"Indian Brook","address":"1181 State Road, Plymouth, MA 02360","bldgnbr":"1181","predir":null,"streetname":"State","streettype":"Road","suffdir":null,"city":"Plymouth","state_code":"MA","zip5":"02360","latitude":"41.8894704230000000","longitude":"-70.540239369000000","publicwifi":"U","url":null,"broadband_type_id":null}
{"id":null,"anchorname":"Manomet Elementary","address":"70 Manomet Point Road, Plymouth, MA 02360","bldgnbr":"70","predir":null,"streetname":"Manomet Point","streettype":"Road","suffdir":null,"city":"Plymouth","state_code":"MA","zip5":"02360","latitude":"41.9211017280000000","longitude":"-70.554709278000000","publicwifi":"U","url":null,"broadband_type_id":6}
{"id":null,"anchorname":"South Elementary","address":"178 Bourne Road, Plymouth, MA 02360","bldgnbr":"178","predir":null,"streetname":"Bourne","streettype":"Road","suffdir":null,"city":"Plymouth","state_code":"MA","zip5":"02360","latitude":"41.8356032110000000","longitude":"-70.607079452000000","publicwifi":"U","url":null,"broadband_type_id":6}
{"id":null,"anchorname":"Mullein Hill Christian Academy","address":"111 Highland Road, Lakeville, MA 02347","bldgnbr":"111","predir":null,"streetname":"Highland","streettype":"Road","suffdir":null,"city":"Lakeville","state_code":"MA","zip5":"02347","latitude":"41.8096913080000000","longitude":"-70.975229920000000","publicwifi":"U","url":null,"broadband_type_id":6}
{"id":null,"anchorname":"Apponequet Regional High","address":"100 Howland Road, Lakeville, MA 02347","bldgnbr":"100","predir":null,"streetname":"Howland","streettype":"Road","suffdir":null,"city":"Lakeville","state_code":"MA","zip5":"02347","latitude":"41.7921750250000000","longitude":"-70.982882177000000","publicwifi":"U","url":null,"broadband_type_id":6}
{"id":null,"anchorname":"Assawompset","address":"232 Main Street, Lakeville, MA 02346","bldgnbr":"232","predir":null,"streetname":"Main","streettype":"Street","suffdir":null,"city":"Lakeville","state_code":"MA","zip5":"02346","latitude":"41.8477394560000000","longitude":"-70.946750286000000","publicwifi":"U","url":null,"broadband_type_id":null}
{"id":null,"anchorname":"Rochester Memorial","address":"16 Pine Street, Rochester, MA 02770","bldgnbr":"16","predir":null,"streetname":"Pine","streettype":"Street","suffdir":null,"city":"Rochester","state_code":"MA","zip5":"02770","latitude":"41.7467121830000000","longitude":"-70.866516564000000","publicwifi":"U","url":null,"broadband_type_id":6}
{"id":null,"anchorname":"Middleborough High","address":"71 East Grove Street, Middleborough, MA 02346","bldgnbr":"71","predir":"East","streetname":"Grove","streettype":"Street","suffdir":null,"city":"Middleborough","state_code":"MA","zip5":"02346","latitude":"41.8803583250000000","longitude":"-70.904346373000000","publicwifi":"U","url":null,"broadband_type_id":6}
{"id":null,"anchorname":"John T. Nichols Middle","address":"112 Tiger Drive, Middleborough, MA 02346","bldgnbr":"112","predir":null,"streetname":"Tiger","streettype":"Drive","suffdir":null,"city":"Middleborough","state_code":"MA","zip5":"02346","latitude":"41.8780435630000000","longitude":"-70.901280964000000","publicwifi":"U","url":null,"broadband_type_id":6}
{"id":null,"anchorname":"Old Colony Reg Voc Tech","address":"476 North Avenue, Rochester, MA 02770","bldgnbr":"476","predir":null,"streetname":"North","streettype":"Avenue","suffdir":null,"city":"Rochester","state_code":"MA","zip5":"02770","latitude":"41.7859155100000000","longitude":"-70.871482375000000","publicwifi":"U","url":null,"broadband_type_id":null}
{"id":null,"anchorname":"Memorial Early Childhood Center","address":"219 North Main Street, Middleborough, MA 02346","bldgnbr":"219","predir":"North","streetname":"Main","streettype":"Street","suffdir":null,"city":"Middleborough","state_code":"MA","zip5":"02346","latitude":"41.8946686420000000","longitude":"-70.905684650000000","publicwifi":"U","url":null,"broadband_type_id":null}
{"id":null,"anchorname":"PLYMOUTH FIRE DEPARTMENT","address":"827 State Road, PLYMOUTH, MA 02360","bldgnbr":"827","predir":null,"streetname":"State","streettype":"Road","suffdir":null,"city":"PLYMOUTH","state_code":"MA","zip5":"02360","latitude":"41.9098688870000000","longitude":"-70.551111382000000","publicwifi":"U","url":null,"broadband_type_id":5}
{"id":null,"anchorname":"PLYMOUTH FIRE DEPARTMENT","address":"533 Bourne Road, PLYMOUTH, MA 02601","bldgnbr":"533","predir":null,"streetname":"Bourne","streettype":"Road","suffdir":null,"city":"PLYMOUTH","state_code":"MA","zip5":"02601","latitude":"41.8131839660000000","longitude":"-70.610037998000000","publicwifi":"U","url":null,"broadband_type_id":5}
{"id":null,"anchorname":"PLYMOUTH FIRE DEPARTMENT","address":"2209 State Road, PLYMOUTH, MA 02360","bldgnbr":"2209","predir":null,"streetname":"State","streettype":"Road","suffdir":null,"city":"PLYMOUTH","state_code":"MA","zip5":"02360","latitude":"41.8237534160000000","longitude":"-70.550370365000000","publicwifi":"U","url":null,"broadband_type_id":5}
{"id":null,"anchorname":"LAKEVILLE POLICE DEPT","address":"296 Bedford Street, LAKEVILLE, MA 02347","bldgnbr":"296","predir":null,"streetname":"Bedford","streettype":"Street","suffdir":null,"city":"LAKEVILLE","state_code":"MA","zip5":"02347","latitude":"41.8529496310000000","longitude":"-70.949904701000000","publicwifi":"U","url":null,"broadband_type_id":4}
{"id":null,"anchorname":"Lakeville Town Hall","address":"346 Bedford Street, Lakeville, MA 02347","bldgnbr":"346","predir":null,"streetname":"Bedford","streettype":"Street","suffdir":null,"city":"Lakeville","state_code":"MA","zip5":"02347","latitude":"41.8382622450000000","longitude":"-70.944847708000000","publicwifi":"U","url":null,"broadband_type_id":1}
{"id":null,"anchorname":"LAKEVILLE FIRE DEPARTMENT","address":"346 Bedford Street, LAKEVILLE, MA 02347","bldgnbr":"346","predir":null,"streetname":"Bedford","streettype":"Street","suffdir":null,"city":"LAKEVILLE","state_code":"MA","zip5":"02347","latitude":"41.8382731210000000","longitude":"-70.944844123000000","publicwifi":"U","url":null,"broadband_type_id":5}
{"id":null,"anchorname":"Freetown-Lakeville Middle School","address":"96 Howland Road, Lakeville, MA 02347","bldgnbr":"96","predir":null,"streetname":"Howland","streettype":"Road","suffdir":null,"city":"Lakeville","state_code":"MA","zip5":"02347","latitude":"41.7894711430000000","longitude":"-70.986127300000000","publicwifi":"U","url":null,"broadband_type_id":6}
{"id":null,"anchorname":"Freetown-Lakeville Intermediate School","address":"96 Howland Road, Lakeville, MA 02347","bldgnbr":"96","predir":null,"streetname":"Howland","streettype":"Road","suffdir":null,"city":"Lakeville","state_code":"MA","zip5":"02347","latitude":"41.7891331580000000","longitude":"-70.981264078000000","publicwifi":"U","url":null,"broadband_type_id":6}
{"id":null,"anchorname":"George R. Austin Intermediate School","address":"112 Howland Road, Lakeville, MA 02347","bldgnbr":"112","predir":null,"streetname":"Howland","streettype":"Road","suffdir":null,"city":"Lakeville","state_code":"MA","zip5":"02347","latitude":"41.7895615460000000","longitude":"-70.981124934000000","publicwifi":"U","url":null,"broadband_type_id":6}
{"id":null,"anchorname":"Joseph H. Plumb Memorial Library","address":"17 Constitution Way, Rochester, MA 02770-0069","bldgnbr":"17","predir":null,"streetname":"Constitution","streettype":"Way","suffdir":null,"city":"Rochester","state_code":"MA","zip5":"02770","latitude":"41.7318385640000000","longitude":"-70.820860475000000","publicwifi":"U","url":"http://www.plumblibrary.com","broadband_type_id":6}
{"id":null,"anchorname":"Rochester Town Hall","address":"1 Constitution Way, Rochester, MA 02770","bldgnbr":"1","predir":null,"streetname":"Constitution","streettype":"Way","suffdir":null,"city":"Rochester","state_code":"MA","zip5":"02770","latitude":"41.7315974590000000","longitude":"-70.822453142000000","publicwifi":"U","url":null,"broadband_type_id":1}
{"id":null,"anchorname":"Rochester Police Department","address":"29 Dexter Street, Rochester, MA 02770","bldgnbr":"29","predir":null,"streetname":"Dexter","streettype":"Street","suffdir":null,"city":"Rochester","state_code":"MA","zip5":"02770","latitude":"41.7304227690000000","longitude":"-70.818220238000000","publicwifi":"U","url":null,"broadband_type_id":4}
{"id":null,"anchorname":"ROCHESTER FIRE DEPARTMENT","address":"4 Pine Street, ROCHESTER, MA 02770","bldgnbr":"4","predir":null,"streetname":"Pine","streettype":"Street","suffdir":null,"city":"ROCHESTER","state_code":"MA","zip5":"02770","latitude":"41.7458842490000000","longitude":"-70.866267131000000","publicwifi":"U","url":null,"broadband_type_id":5}
{"id":null,"anchorname":"MIDDLEBOROUGH FIRE DEPARTMENT","address":"566 Wareham Street, MIDDLEBOROUGH, MA 02346","bldgnbr":"566","predir":null,"streetname":"Wareham","streettype":"Street","suffdir":null,"city":"MIDDLEBOROUGH","state_code":"MA","zip5":"02346","latitude":"41.8237613230000000","longitude":"-70.826733579000000","publicwifi":"U","url":null,"broadband_type_id":5}
{"id":null,"anchorname":"MIDDLEBOROUGH FIRE DEPARTMENT","address":"58 Bedford Street, MIDDLEBOROUGH, MA 02346","bldgnbr":"58","predir":null,"streetname":"Bedford","streettype":"Street","suffdir":null,"city":"MIDDLEBOROUGH","state_code":"MA","zip5":"02346","latitude":"41.9065157060000000","longitude":"-70.960818748000000","publicwifi":"U","url":null,"broadband_type_id":5}
{"id":null,"anchorname":"Samuel Fuller School","address":"6 Plympton Street, Middleborough, MA 02346","bldgnbr":"6","predir":null,"streetname":"Plympton","streettype":"Street","suffdir":null,"city":"Middleborough","state_code":"MA","zip5":"02346","latitude":"41.9084791250000000","longitude":"-70.885246043000000","publicwifi":"U","url":null,"broadband_type_id":6}
{"id":null,"anchorname":"MIDDLEBORO POLICE DEPT","address":"99 North Main Street, MIDDLEBOROUGH, MA 02346","bldgnbr":"99","predir":"North","streetname":"Main","streettype":"Street","suffdir":null,"city":"MIDDLEBOROUGH","state_code":"MA","zip5":"02346","latitude":"41.8933799070000000","longitude":"-70.907488023000000","publicwifi":"U","url":null,"broadband_type_id":4}
{"id":null,"anchorname":"MIDDLEBOROUGH FIRE DEPARTMENT","address":"125 North Main Street, MIDDLEBOROUGH, MA 02346","bldgnbr":"125","predir":"North","streetname":"Main","streettype":"Street","suffdir":null,"city":"MIDDLEBOROUGH","state_code":"MA","zip5":"02346","latitude":"41.8936852500000000","longitude":"-70.907008350000000","publicwifi":"U","url":null,"broadband_type_id":5}
{"id":null,"anchorname":"Middleborough Public Library","address":"102 North Main Street, Middleborough, MA 02346","bldgnbr":"102","predir":"North","streetname":"Main","streettype":"Street","suffdir":null,"city":"Middleborough","state_code":"MA","zip5":"02346","latitude":"41.8939185910000000","longitude":"-70.907350513000000","publicwifi":"U","url":"http://www.midlib.org","broadband_type_id":6}
{"id":null,"anchorname":"State Police Middleboro","address":"326 West Grove Street, Middleborough, MA 02346","bldgnbr":"326","predir":"West","streetname":"Grove","streettype":"Street","suffdir":null,"city":"Middleborough","state_code":"MA","zip5":"02346","latitude":"41.8937286020000000","longitude":"-70.942576745000000","publicwifi":"U","url":null,"broadband_type_id":4}
{"id":null,"anchorname":"NORTH JUDSON-SAN PIERRE HIGH SCH","address":"1 BLUEJAY DR","bldgnbr":"BLDGNUMBER","predir":null,"streetname":"STREETNAME","streettype":null,"suffdir":null,"city":"NORTH JUDSON","state_code":"IN","zip5":"46366","latitude":"41.2150377220000000","longitude":"-86.787722158000000","publicwifi":"N","url":null,"broadband_type_id":6}
{"id":null,"anchorname":"West Wareham Academy","address":"1073 Main Street, Wareham, MA 02571","bldgnbr":"1073","predir":null,"streetname":"Main","streettype":"Street","suffdir":null,"city":"Wareham","state_code":"MA","zip5":"02571","latitude":"41.7912493810000000","longitude":"-70.764795679000000","publicwifi":"U","url":null,"broadband_type_id":6}
{"id":null,"anchorname":"Henry B Burkland Intermed","address":"41 Mayflower Avenue, Middleborough, MA 02346","bldgnbr":"41","predir":null,"streetname":"Mayflower","streettype":"Avenue","suffdir":null,"city":"Middleborough","state_code":"MA","zip5":"02346","latitude":"41.8859039360000000","longitude":"-70.910518907000000","publicwifi":"U","url":null,"broadband_type_id":null}
{"id":null,"anchorname":"Plympton Public Library","address":"248 Main Street, Plympton, MA 02367-1114","bldgnbr":"248","predir":null,"streetname":"Main","streettype":"Street","suffdir":null,"city":"Plympton","state_code":"MA","zip5":"02367","latitude":"41.9619086080000000","longitude":"-70.812970488000000","publicwifi":"U","url":"http://www.plymptonlibrary.org","broadband_type_id":6}
{"id":null,"anchorname":"PLYMPTON POLICE DEPT","address":"5 Palmer Road, PLYMPTON, MA 02367","bldgnbr":"5","predir":null,"streetname":"Palmer","streettype":"Road","suffdir":null,"city":"PLYMPTON","state_code":"MA","zip5":"02367","latitude":"41.9572596220000000","longitude":"-70.816766599000000","publicwifi":"U","url":null,"broadband_type_id":4}
{"id":null,"anchorname":"PLYMPTON FIRE DEPARTMENT","address":"3 Palmer Road, PLYMPTON, MA 02367","bldgnbr":"3","predir":null,"streetname":"Palmer","streettype":"Road","suffdir":null,"city":"PLYMPTON","state_code":"MA","zip5":"02367","latitude":"41.9567857590000000","longitude":"-70.815577985000000","publicwifi":"U","url":null,"broadband_type_id":5}
{"id":null,"anchorname":"Plympton Town Hall","address":"5 Palmer Road, PLYMPTON, MA 02367","bldgnbr":"5","predir":null,"streetname":"Palmer","streettype":"Road","suffdir":null,"city":"PLYMPTON","state_code":"MA","zip5":"02367","latitude":"41.9572535330000000","longitude":"-70.816681865000000","publicwifi":"U","url":null,"broadband_type_id":1}
{"id":null,"anchorname":"CARVER FIRE DEPARTMENT","address":"1 Green Street, CARVER, MA 02330","bldgnbr":"1","predir":null,"streetname":"Green","streettype":"Street","suffdir":null,"city":"CARVER","state_code":"MA","zip5":"02330","latitude":"41.9157185570000000","longitude":"-70.802369549000000","publicwifi":"U","url":null,"broadband_type_id":5}
{"id":null,"anchorname":"Carver Elementary School","address":"85 Main Street, Carver, MA 02330","bldgnbr":"85","predir":null,"streetname":"Main","streettype":"Street","suffdir":null,"city":"Carver","state_code":"MA","zip5":"02330","latitude":"41.8905888310000000","longitude":"-70.774748763000000","publicwifi":"U","url":null,"broadband_type_id":6}
{"id":null,"anchorname":"CARVER FIRE DEPARTMENT","address":"120 South Main Street, CARVER, MA 02330","bldgnbr":"120","predir":"South","streetname":"Main","streettype":"Street","suffdir":null,"city":"CARVER","state_code":"MA","zip5":"02330","latitude":"41.8414837280000000","longitude":"-70.752643992000000","publicwifi":"U","url":null,"broadband_type_id":5}
{"id":null,"anchorname":"Carver High School","address":"60 South Meadow Road, Carver, MA 02330","bldgnbr":"60","predir":"South","streetname":"Meadow","streettype":"Road","suffdir":null,"city":"Carver","state_code":"MA","zip5":"02330","latitude":"41.8846422380000000","longitude":"-70.762653946000000","publicwifi":"U","url":null,"broadband_type_id":6}
{"id":null,"anchorname":"Carver Middle School","address":"60 South Meadow Road, Carver, MA 02330","bldgnbr":"60","predir":"South","streetname":"Meadow","streettype":"Road","suffdir":null,"city":"Carver","state_code":"MA","zip5":"02330","latitude":"41.8938505720000000","longitude":"-70.755593003000000","publicwifi":"U","url":null,"broadband_type_id":6}
{"id":null,"anchorname":"Carver Public Library","address":"2 Meadowbrook Way, Carver, MA 02330","bldgnbr":"2","predir":null,"streetname":"Meadowbrook","streettype":"Way","suffdir":null,"city":"Carver","state_code":"MA","zip5":"02330","latitude":"41.8892385930000000","longitude":"-70.769330471000000","publicwifi":"Y","url":"http://www.carverpl.org","broadband_type_id":6}
{"id":null,"anchorname":"CARVER POLICE DEPT","address":"112 Main Street, CARVER, MA 02330","bldgnbr":"112","predir":null,"streetname":"Main","streettype":"Street","suffdir":null,"city":"CARVER","state_code":"MA","zip5":"02330","latitude":"41.8885165280000000","longitude":"-70.768147596000000","publicwifi":"U","url":null,"broadband_type_id":4}
{"id":null,"anchorname":"CARVER FIRE DEPARTMENT","address":"Main Street, CARVER, MA 02330","bldgnbr":"N/A","predir":null,"streetname":"Main","streettype":"Street","suffdir":null,"city":"CARVER","state_code":"MA","zip5":"02330","latitude":"41.8884575860000000","longitude":"-70.768124655000000","publicwifi":"U","url":null,"broadband_type_id":5}
{"id":null,"anchorname":"Carver Town Hall","address":"108 Main Street, CARVER, MA 02330","bldgnbr":"108","predir":null,"streetname":"Main","streettype":"Street","suffdir":null,"city":"CARVER","state_code":"MA","zip5":"02330","latitude":"41.8888743200000000","longitude":"-70.768481962000000","publicwifi":"U","url":null,"broadband_type_id":1}
{"id":null,"anchorname":"Carver Public Library","address":"2 Meadowbrook Way, Carver, MA 02330","bldgnbr":"2","predir":null,"streetname":"Meadowbrook","streettype":"Way","suffdir":null,"city":"Carver","state_code":"MA","zip5":"02330","latitude":"41.8892385930000000","longitude":"-70.769330471000000","publicwifi":"Y","url":"http://www.carverpl.org","broadband_type_id":6}
{"id":null,"anchorname":"WAREHAM FIRE DEPARTMENT","address":"2368 Cranberry Highway, WAREHAM, MA 02571","bldgnbr":"2368","predir":null,"streetname":"Cranberry","streettype":"Highway","suffdir":null,"city":"WAREHAM","state_code":"MA","zip5":"02571","latitude":"41.7864701770000000","longitude":"-70.749994268000000","publicwifi":"U","url":null,"broadband_type_id":5}
{"id":null,"anchorname":"WAREHAM POLICE DEPT","address":"2515 Cranberry Highway, WAREHAM, MA 02571","bldgnbr":"2515","predir":null,"streetname":"Cranberry","streettype":"Highway","suffdir":null,"city":"WAREHAM","state_code":"MA","zip5":"02571","latitude":"41.7695442190000000","longitude":"-70.733127612000000","publicwifi":"U","url":null,"broadband_type_id":4}
{"id":null,"anchorname":"John W Decas Elem School","address":"760 Main Street, Wareham, MA 02571","bldgnbr":"760","predir":null,"streetname":"Main","streettype":"Street","suffdir":null,"city":"Wareham","state_code":"MA","zip5":"02571","latitude":"41.7707274420000000","longitude":"-70.746777357000000","publicwifi":"U","url":null,"broadband_type_id":6}
{"id":null,"anchorname":"WAREHAM FIRE DEPARTMENT","address":"142 Minot Avenue, WAREHAM, MA 02571","bldgnbr":"142","predir":null,"streetname":"Minot","streettype":"Avenue","suffdir":null,"city":"WAREHAM","state_code":"MA","zip5":"02571","latitude":"41.7565797330000000","longitude":"-70.677488592000000","publicwifi":"U","url":null,"broadband_type_id":5}
{"id":null,"anchorname":"East Wareham Elem School","address":"27 Depot Street, East Wareham, MA 02538","bldgnbr":"27","predir":null,"streetname":"Depot","streettype":"Street","suffdir":null,"city":"East Wareham","state_code":"MA","zip5":"02538","latitude":"41.7583466590000000","longitude":"-70.675976710000000","publicwifi":"U","url":null,"broadband_type_id":6}
{"id":null,"anchorname":"Ethel E Hammond Elem School","address":"13 Highland Avenue, Onset, MA 02558","bldgnbr":"13","predir":null,"streetname":"Highland","streettype":"Avenue","suffdir":null,"city":"Onset","state_code":"MA","zip5":"02558","latitude":"41.7443978410000000","longitude":"-70.658429964000000","publicwifi":"U","url":null,"broadband_type_id":6}
{"id":null,"anchorname":"ONSET FIRE DEPARTMENT","address":"5 East Central Avenue, WAREHAM, MA 02558","bldgnbr":"5","predir":"East","streetname":"Central","streettype":"Avenue","suffdir":null,"city":"WAREHAM","state_code":"MA","zip5":"02558","latitude":"41.7437116020000000","longitude":"-70.660619509000000","publicwifi":"U","url":null,"broadband_type_id":5}
{"id":null,"anchorname":"WAREHAM FIRE DEPARTMENT","address":"273 Main Street, WAREHAM, MA 02571","bldgnbr":"273","predir":null,"streetname":"Main","streettype":"Street","suffdir":null,"city":"WAREHAM","state_code":"MA","zip5":"02571","latitude":"41.7599461110000000","longitude":"-70.717728327000000","publicwifi":"U","url":null,"broadband_type_id":5}
{"id":null,"anchorname":"Wareham Free Library","address":"59 Marion Road, Wareham, MA 02571-1448","bldgnbr":"59","predir":null,"streetname":"Marion","streettype":"Road","suffdir":null,"city":"Wareham","state_code":"MA","zip5":"02571","latitude":"41.7593485700000000","longitude":"-70.725860450000000","publicwifi":"U","url":"http://www.warehamfreelibrary.org","broadband_type_id":6}
{"id":null,"anchorname":"Wareham Career Center","address":"48 Marion Road, Wareham, MA 02571","bldgnbr":"48","predir":null,"streetname":"Marion","streettype":"Road","suffdir":null,"city":"Wareham","state_code":"MA","zip5":"02571","latitude":"41.7601003100000000","longitude":"-70.722679894000000","publicwifi":"U","url":null,"broadband_type_id":3}
{"id":null,"anchorname":"Wareham Junior Senior Cooperative High School","address":"3 Viking Drive, Wareham, MA 02571","bldgnbr":"3","predir":null,"streetname":"Viking","streettype":"Drive","suffdir":null,"city":"Wareham","state_code":"MA","zip5":"02571","latitude":"41.7578281110000000","longitude":"-70.723273616000000","publicwifi":"U","url":null,"broadband_type_id":6}
{"id":null,"anchorname":"Wareham Middle School","address":"4 Viking Drive, Wareham, MA 02571","bldgnbr":"4","predir":null,"streetname":"Viking","streettype":"Drive","suffdir":null,"city":"Wareham","state_code":"MA","zip5":"02571","latitude":"41.7596476370000000","longitude":"-70.722806671000000","publicwifi":"U","url":null,"broadband_type_id":6}
{"id":null,"anchorname":"Wareham High School","address":"7 Viking Drive, Wareham, MA 02571","bldgnbr":"7","predir":null,"streetname":"Viking","streettype":"Drive","suffdir":null,"city":"Wareham","state_code":"MA","zip5":"02571","latitude":"41.7585353790000000","longitude":"-70.723848354000000","publicwifi":"U","url":null,"broadband_type_id":6}
{"id":null,"anchorname":"Wareham Town Hall","address":"54 Marion Road, Wareham, MA 02571","bldgnbr":"54","predir":null,"streetname":"Marion","streettype":"Road","suffdir":null,"city":"Wareham","state_code":"MA","zip5":"02571","latitude":"41.7593440650000000","longitude":"-70.724066884000000","publicwifi":"U","url":null,"broadband_type_id":1}
{"id":null,"anchorname":"Wareham Town Hall","address":"54 Marion Road, Wareham, MA 02571","bldgnbr":"54","predir":null,"streetname":"Marion","streettype":"Road","suffdir":null,"city":"Wareham","state_code":"MA","zip5":"02571","latitude":"41.7593440650000000","longitude":"-70.724066884000000","publicwifi":"U","url":null,"broadband_type_id":1}
{"id":null,"anchorname":"Southcoast Hospitals Group - Tobey Hospital Campus","address":"43 High Street, Wareham, MA 02571","bldgnbr":"43","predir":null,"streetname":"High","streettype":"Street","suffdir":null,"city":"Wareham","state_code":"MA","zip5":"02571","latitude":"41.7559466170000000","longitude":"-70.714062144000000","publicwifi":"U","url":null,"broadband_type_id":3}
{"id":null,"anchorname":"Toby Hospital","address":"43 High St, Wareham, MA 02571","bldgnbr":"43","predir":null,"streetname":"High","streettype":"St","suffdir":null,"city":"Wareham","state_code":"MA","zip5":"02571","latitude":"41.7554392600000000","longitude":"-70.714177122000000","publicwifi":"U","url":null,"broadband_type_id":3}
{"id":null,"anchorname":"Tobey Hospital","address":"43 High Street, Wareham, MA 02571","bldgnbr":"43","predir":null,"streetname":"High","streettype":"Street","suffdir":null,"city":"Wareham","state_code":"MA","zip5":"02571","latitude":"41.7554392240000000","longitude":"-70.714177132000000","publicwifi":"U","url":null,"broadband_type_id":3}
{"id":null,"anchorname":"Minot Forest Elem School","address":"63 Minot Avenue, Wareham, MA 02571","bldgnbr":"63","predir":null,"streetname":"Minot","streettype":"Avenue","suffdir":null,"city":"Wareham","state_code":"MA","zip5":"02571","latitude":"41.7559158050000000","longitude":"-70.687288474000000","publicwifi":"U","url":null,"broadband_type_id":6}
{"id":null,"anchorname":"MATTAPOISETT POLICE DEPT","address":"64 County Road, MATTAPOISETT, MA 02739","bldgnbr":"64","predir":null,"streetname":"County","streettype":"Road","suffdir":null,"city":"MATTAPOISETT","state_code":"MA","zip5":"02739","latitude":"41.6634433620000000","longitude":"-70.805595723000000","publicwifi":"U","url":null,"broadband_type_id":4}
{"id":null,"anchorname":"WORK ONE WESTERN INDIANA","address":"35 W JACKSON ST","bldgnbr":"BLDGNUMBER","predir":null,"streetname":"STREETNAME","streettype":null,"suffdir":null,"city":"SULLIVAN","state_code":"IN","zip5":"47882","latitude":"39.0943550720000000","longitude":"-87.407534458000000","publicwifi":"Y","url":"COMCAST","broadband_type_id":6}
{"id":null,"anchorname":"Old Rochester Reg Jr High","address":"133 Marion Road, Mattapoisett, MA 02739","bldgnbr":"133","predir":null,"streetname":"Marion","streettype":"Road","suffdir":null,"city":"Mattapoisett","state_code":"MA","zip5":"02739","latitude":"41.6711708350000000","longitude":"-70.777424412000000","publicwifi":"U","url":null,"broadband_type_id":6}
{"id":null,"anchorname":"Center","address":"17 Barstow Street, Mattapoisett, MA 02739","bldgnbr":"17","predir":null,"streetname":"Barstow","streettype":"Street","suffdir":null,"city":"Mattapoisett","state_code":"MA","zip5":"02739","latitude":"41.6606667900000000","longitude":"-70.813878730000000","publicwifi":"U","url":null,"broadband_type_id":null}
{"id":null,"anchorname":"Tabor Academy","address":"66 Front Street, Marion, MA 02738","bldgnbr":"66","predir":null,"streetname":"Front","streettype":"Street","suffdir":null,"city":"Marion","state_code":"MA","zip5":"02738","latitude":"41.7078907700000000","longitude":"-70.765038098000000","publicwifi":"U","url":null,"broadband_type_id":6}
{"id":null,"anchorname":"Gardner Pilot Academy","address":"30 Athol Street, Allston, MA 02134","bldgnbr":"30","predir":null,"streetname":"Athol","streettype":"Street","suffdir":null,"city":"Allston","state_code":"MA","zip5":"02134","latitude":"42.3610304500000000","longitude":"-71.133847738000000","publicwifi":"U","url":null,"broadband_type_id":6}
{"id":null,"anchorname":"Thomas A Edison Jr High","address":"60 Glenmont Road, Brighton, MA 02135","bldgnbr":"60","predir":null,"streetname":"Glenmont","streettype":"Road","suffdir":null,"city":"Brighton","state_code":"MA","zip5":"02135","latitude":"42.3456349690000000","longitude":"-71.160238468000000","publicwifi":"U","url":null,"broadband_type_id":6}
{"id":null,"anchorname":"Old Hammondtown","address":"20 Shaw Street, Mattapoisett, MA 02739","bldgnbr":"20","predir":null,"streetname":"Shaw","streettype":"Street","suffdir":null,"city":"Mattapoisett","state_code":"MA","zip5":"02739","latitude":"41.6600728110000000","longitude":"-70.832168096000000","publicwifi":"U","url":null,"broadband_type_id":null}
{"id":null,"anchorname":"Mt St Joseph Academy","address":"617 Cambridge, Brighton, MA 02135","bldgnbr":"617","predir":null,"streetname":"Cambridge","streettype":null,"suffdir":null,"city":"Brighton","state_code":"MA","zip5":"02135","latitude":"42.3524344920000000","longitude":"-71.143905543000000","publicwifi":"U","url":null,"broadband_type_id":6}
{"id":null,"anchorname":"Sippican","address":"16 Spring Street, Marion, MA 02738","bldgnbr":"16","predir":null,"streetname":"Spring","streettype":"Street","suffdir":null,"city":"Marion","state_code":"MA","zip5":"02738","latitude":"41.7044828690000000","longitude":"-70.768022973000000","publicwifi":"U","url":null,"broadband_type_id":null}
{"id":null,"anchorname":"Mary Lyon","address":"50 Beechcroft Street, Brighton, MA 02135","bldgnbr":"50","predir":null,"streetname":"Beechcroft","streettype":"Street","suffdir":null,"city":"Brighton","state_code":"MA","zip5":"02135","latitude":"42.3511388970000000","longitude":"-71.161496439000000","publicwifi":"U","url":null,"broadband_type_id":null}
{"id":null,"anchorname":"St Columbkille Elem","address":"25 Arlington, Brighton, MA 02135","bldgnbr":"25","predir":null,"streetname":"Arlington","streettype":null,"suffdir":null,"city":"Brighton","state_code":"MA","zip5":"02135","latitude":"42.3524414590000000","longitude":"-71.152987456000000","publicwifi":"U","url":null,"broadband_type_id":null}
{"id":null,"anchorname":"Shaloh House Day","address":"29 Chestnut Hill Avenue, Brighton, MA 02135-3202","bldgnbr":"29","predir":null,"streetname":"Chestnut Hill","streettype":"Avenue","suffdir":null,"city":"Brighton","state_code":"MA","zip5":"02135","latitude":"42.3478842790000000","longitude":"-71.154298333000000","publicwifi":"U","url":null,"broadband_type_id":null}
{"id":null,"anchorname":"Baldwin ELC","address":"121 Corey Road, Brighton, MA 02135","bldgnbr":"121","predir":null,"streetname":"Corey","streettype":"Road","suffdir":null,"city":"Brighton","state_code":"MA","zip5":"02135","latitude":"42.3420706910000000","longitude":"-71.140392533000000","publicwifi":"U","url":null,"broadband_type_id":null}
{"id":null,"anchorname":"Jackson Mann","address":"40 Armington Street, Allston, MA 02134","bldgnbr":"40","predir":null,"streetname":"Armington","streettype":"Street","suffdir":null,"city":"Allston","state_code":"MA","zip5":"02134","latitude":"42.3521993630000000","longitude":"-71.137431845000000","publicwifi":"U","url":null,"broadband_type_id":null}
{"id":null,"anchorname":"Mattapoisett Town Hall","address":"16 Main Street, MATTAPOISETT, MA 02739","bldgnbr":"16","predir":null,"streetname":"Main","streettype":"Street","suffdir":null,"city":"MATTAPOISETT","state_code":"MA","zip5":"02739","latitude":"41.6592344330000000","longitude":"-70.817240141000000","publicwifi":"U","url":null,"broadband_type_id":1}
{"id":null,"anchorname":"MATTAPOISETT FIRE DEPARTMENT","address":"26 County Road, MATTAPOISETT, MA 02739","bldgnbr":"26","predir":null,"streetname":"County","streettype":"Road","suffdir":null,"city":"MATTAPOISETT","state_code":"MA","zip5":"02739","latitude":"41.6638706840000000","longitude":"-70.813949785000000","publicwifi":"U","url":null,"broadband_type_id":5}
{"id":null,"anchorname":"Marion Town Hall","address":"2 Spring Street, Marion, MA 02738","bldgnbr":"2","predir":null,"streetname":"Spring","streettype":"Street","suffdir":null,"city":"Marion","state_code":"MA","zip5":"02738","latitude":"41.7026234410000000","longitude":"-70.767036607000000","publicwifi":"U","url":null,"broadband_type_id":1}
{"id":null,"anchorname":"Elizabeth Taber Memorial Library","address":"8 Spring Street, Marion, MA 02738-0116","bldgnbr":"8","predir":null,"streetname":"Spring","streettype":"Street","suffdir":null,"city":"Marion","state_code":"MA","zip5":"02738","latitude":"41.7026585560000000","longitude":"-70.766680456000000","publicwifi":"U","url":"http://www.sailsinc.org/marion","broadband_type_id":6}
{"id":null,"anchorname":"MARION POLICE DEPT","address":"50 Spring Street, MARION, MA 02738","bldgnbr":"50","predir":null,"streetname":"Spring","streettype":"Street","suffdir":null,"city":"MARION","state_code":"MA","zip5":"02738","latitude":"41.7060074010000000","longitude":"-70.767421096000000","publicwifi":"U","url":null,"broadband_type_id":4}
{"id":null,"anchorname":"MARION FIRE DEPARTMENT","address":"50 Spring Street, MARION, MA 02738","bldgnbr":"50","predir":null,"streetname":"Spring","streettype":"Street","suffdir":null,"city":"MARION","state_code":"MA","zip5":"02738","latitude":"41.7061304410000000","longitude":"-70.767456573000000","publicwifi":"U","url":null,"broadband_type_id":5}
{"id":null,"anchorname":"Bridgewater State University","address":"131 Summer Street, Bridgewater, MA 02325","bldgnbr":"131","predir":null,"streetname":"Summer","streettype":"Street","suffdir":null,"city":"Bridgewater","state_code":"MA","zip5":"02325","latitude":"41.9901485410000000","longitude":"-70.964695575000000","publicwifi":"U","url":null,"broadband_type_id":6}
{"id":null,"anchorname":"Bridgewater State University","address":"131 Summer Street, Bridgewater, MA 02325","bldgnbr":"131","predir":null,"streetname":"Summer","streettype":"Street","suffdir":null,"city":"Bridgewater","state_code":"MA","zip5":"02325","latitude":"41.9901485410000000","longitude":"-70.964695575000000","publicwifi":"U","url":null,"broadband_type_id":6}
{"id":null,"anchorname":"BRIDGEWATER FIRE DEPARTMENT","address":"22 School Street, BRIDGEWATER, MA 02324","bldgnbr":"22","predir":null,"streetname":"School","streettype":"Street","suffdir":null,"city":"BRIDGEWATER","state_code":"MA","zip5":"02324","latitude":"41.9887889710000000","longitude":"-70.975566603000000","publicwifi":"U","url":null,"broadband_type_id":5}
{"id":null,"anchorname":"Bridgewater Town Hall","address":"64 Central Square, BRIDGEWATER, MA 02324","bldgnbr":"64","predir":null,"streetname":"Central","streettype":"Square","suffdir":null,"city":"BRIDGEWATER","state_code":"MA","zip5":"02324","latitude":"41.9889118760000000","longitude":"-70.975882144000000","publicwifi":"U","url":null,"broadband_type_id":1}
{"id":null,"anchorname":"Joseph M Smith Community Health Center Allston","address":"287 Western Ave, Allston, MA 02134","bldgnbr":"287","predir":null,"streetname":"Western","streettype":"Ave","suffdir":null,"city":"Allston","state_code":"MA","zip5":"02134","latitude":"42.3633831730000000","longitude":"-71.134312103000000","publicwifi":"U","url":null,"broadband_type_id":3}
{"id":null,"anchorname":"Joseph M. Smith Community Health Center","address":"287 Western Avenue, Allston, MA 02134","bldgnbr":"287","predir":null,"streetname":"Western","streettype":"Avenue","suffdir":null,"city":"Allston","state_code":"MA","zip5":"02134","latitude":"42.3637070860000000","longitude":"-71.134391852000000","publicwifi":"U","url":null,"broadband_type_id":3}
{"id":null,"anchorname":"State Police Brighton","address":"1400 Soldiers Field Road, Boston, MA 02135","bldgnbr":"1400","predir":null,"streetname":"Soldiers Field","streettype":"Road","suffdir":null,"city":"Boston","state_code":"MA","zip5":"02135","latitude":"42.3625448590000000","longitude":"-71.144127714000000","publicwifi":"U","url":null,"broadband_type_id":4}
{"id":null,"anchorname":"German International School Boston","address":"57 Holton Street, Allston, MA 02134","bldgnbr":"57","predir":null,"streetname":"Holton","streettype":"Street","suffdir":null,"city":"Allston","state_code":"MA","zip5":"02134","latitude":"42.3604098320000000","longitude":"-71.136105706000000","publicwifi":"U","url":null,"broadband_type_id":6}
{"id":null,"anchorname":"James A Garfield Elementary School","address":"95 Beechcroft Street, Brighton, MA 02135","bldgnbr":"95","predir":null,"streetname":"Beechcroft","streettype":"Street","suffdir":null,"city":"Brighton","state_code":"MA","zip5":"02135","latitude":"42.3522598960000000","longitude":"-71.160780760000000","publicwifi":"U","url":null,"broadband_type_id":6}
{"id":null,"anchorname":"Conservatory Lab Charter School","address":"25 Arlington Street, Brighton, MA 02135","bldgnbr":"25","predir":null,"streetname":"Arlington","streettype":"Street","suffdir":null,"city":"Brighton","state_code":"MA","zip5":"02135","latitude":"42.3521983750000000","longitude":"-71.152369198000000","publicwifi":"U","url":null,"broadband_type_id":6}
{"id":null,"anchorname":"BOSTON FIRE DEPARTMENT","address":"425 Faneul Street, BOSTON, MA 02135","bldgnbr":"425","predir":null,"streetname":"Faneul","streettype":"Street","suffdir":null,"city":"BOSTON","state_code":"MA","zip5":"02135","latitude":"42.3513047340000000","longitude":"-71.168169769000000","publicwifi":"U","url":null,"broadband_type_id":5}
{"id":null,"anchorname":"BOSTON FIRE DEPARTMENT","address":"138 Chestnut Hill Avenue, BOSTON, MA 02127","bldgnbr":"138","predir":null,"streetname":"Chestnut Hill","streettype":"Avenue","suffdir":null,"city":"BOSTON","state_code":"MA","zip5":"02127","latitude":"42.3427107220000000","longitude":"-71.153474914000000","publicwifi":"U","url":null,"broadband_type_id":5}
{"id":null,"anchorname":"St. John's Seminary College","address":"127 Lake Street, Brighton, MA 02135","bldgnbr":"127","predir":null,"streetname":"Lake","streettype":"Street","suffdir":null,"city":"Brighton","state_code":"MA","zip5":"02135","latitude":"42.3439662100000000","longitude":"-71.162383478000000","publicwifi":"U","url":null,"broadband_type_id":6}
{"id":null,"anchorname":"Winship Elementary School","address":"54 Dighton Street, Brighton, MA 02135","bldgnbr":"54","predir":null,"streetname":"Dighton","streettype":"Street","suffdir":null,"city":"Brighton","state_code":"MA","zip5":"02135","latitude":"42.3475815070000000","longitude":"-71.155406002000000","publicwifi":"U","url":null,"broadband_type_id":6}
{"id":null,"anchorname":"BRIGHTON POLICE DEPT","address":"301 Washington Street, BOSTON, MA 02135","bldgnbr":"301","predir":null,"streetname":"Washington","streettype":"Street","suffdir":null,"city":"BOSTON","state_code":"MA","zip5":"02135","latitude":"42.3493698020000000","longitude":"-71.150590860000000","publicwifi":"U","url":null,"broadband_type_id":4}
{"id":null,"anchorname":"Horace Mann School for the Deaf","address":"40 Armington Street, Allston, MA 02134","bldgnbr":"40","predir":null,"streetname":"Armington","streettype":"Street","suffdir":null,"city":"Allston","state_code":"MA","zip5":"02134","latitude":"42.3521993630000000","longitude":"-71.137431845000000","publicwifi":"U","url":null,"broadband_type_id":6}
{"id":null,"anchorname":"Franciscan Hospital for Childern","address":"30 Warren Street, Bosotn, MA 02135","bldgnbr":"30","predir":null,"streetname":"Warren","streettype":"Street","suffdir":null,"city":"Bosotn","state_code":"MA","zip5":"02135","latitude":"42.3498967490000000","longitude":"-71.145043026000000","publicwifi":"U","url":null,"broadband_type_id":3}
{"id":null,"anchorname":"INDIANA DEPT OF CHILD SERVICES","address":"506 FERRY ST","bldgnbr":"BLDGNUMBER","predir":null,"streetname":"STREETNAME","streettype":null,"suffdir":null,"city":"VEVAY","state_code":"IN","zip5":"47043","latitude":"38.7493820720000000","longitude":"-85.068829302000000","publicwifi":"Y","url":null,"broadband_type_id":6}
{"id":null,"anchorname":"Brighton High","address":"25 Warren Street, Brighton, MA 02135","bldgnbr":"25","predir":null,"streetname":"Warren","streettype":"Street","suffdir":null,"city":"Brighton","state_code":"MA","zip5":"02135","latitude":"42.3490644890000000","longitude":"-71.145698080000000","publicwifi":"U","url":null,"broadband_type_id":6}
{"id":null,"anchorname":"Boston Community Leadership Academy","address":"20 Warren Street, Brighton, MA 02135","bldgnbr":"20","predir":null,"streetname":"Warren","streettype":"Street","suffdir":null,"city":"Brighton","state_code":"MA","zip5":"02135","latitude":"42.3502521940000000","longitude":"-71.145596030000000","publicwifi":"U","url":null,"broadband_type_id":1}
