{"id":null,"anchorname":"FLORIDA DEPARTMENT OF TRANSPORTATION","address":"100 N US HIGHWAY 1, JUPITER, FL 33477","bldgnbr":"100","predir":null,"streetname":"US HWY 1","streettype":"0","suffdir":null,"city":"JUPITER","state_code":"FL","zip5":"33477","latitude":"26.9345497500000000","longitude":"-80.081382290000000","publicwifi":"Y","url":"0","broadband_type_id":null}
{"id":null,"anchorname":"JUPITER EYE SURGERY CENTER LLC","address":"102 COASTAL WAY, JUPITER, FL, 33477","bldgnbr":"102","predir":"0","streetname":"COASTAL","streettype":"WAY","suffdir":"0","city":"JUPITER","state_code":"FL","zip5":"33477","latitude":"26.9330160000000000","longitude":"-80.080790000000000","publicwifi":"U","url":"0","broadband_type_id":null}
{"id":null,"anchorname":"THE WATERFORD","address":"601 UNIVERSE BLVD, JUNO BEACH, FL, 33408","bldgnbr":"601","predir":"0","streetname":"UNIVERSE","streettype":"BLVD","suffdir":"0","city":"JUNO BEACH","state_code":"FL","zip5":"33408","latitude":"26.8578420000000000","longitude":"-80.056718000000000","publicwifi":"U","url":"0","broadband_type_id":null}
{"id":null,"anchorname":"WATERFORD  THE","address":"601 UNIVERSE BLVD, JUNO BEACH, FL, 33408","bldgnbr":"601","predir":"0","streetname":"UNIVERSE","streettype":"BLVD","suffdir":"0","city":"JUNO BEACH","state_code":"FL","zip5":"33408","latitude":"26.8578420000000000","longitude":"-80.056718000000000","publicwifi":"U","url":"0","broadband_type_id":null}
{"id":null,"anchorname":"AMIKIDS PALM BEACH","address":"13425 ELLISON WILSON ROAD, NORTH PALM BEACH, FL 33408","bldgnbr":"13425","predir":null,"streetname":"ELLISON WILSON","streettype":"RD","suffdir":null,"city":"NORTH PALM BEACH","state_code":"FL","zip5":"33408","latitude":"26.8734378500000000","longitude":"-80.064370920000000","publicwifi":"Y","url":"0","broadband_type_id":null}
{"id":null,"anchorname":"PALM BEACH COUNTY FIRE DEPARTMENT AND RESCUE STATION 16","address":"3550 N MILITARY TR, JUPITER, FL 33458","bldgnbr":"3550","predir":null,"streetname":"MILITARY","streettype":"TRL","suffdir":null,"city":"JUPITER","state_code":"FL","zip5":"33458","latitude":"26.9001634800000000","longitude":"-80.103614570000000","publicwifi":"U","url":"0","broadband_type_id":5}
{"id":null,"anchorname":"ADULT MEDICINE CENTER OF S FL","address":"601 UNIVERSITY BLVD, JUPITER, FL, 33458","bldgnbr":"601","predir":"0","streetname":"UNIVERSITY","streettype":"BLVD","suffdir":"0","city":"JUPITER","state_code":"FL","zip5":"33458","latitude":"26.8913600000000000","longitude":"-80.104961000000000","publicwifi":"U","url":"0","broadband_type_id":3}
{"id":null,"anchorname":"NURSING CENTER AT LA POSADA  THE","address":"3600 MASTERPIECE WAY, PALM BEACH GARDENS, FL, 33410","bldgnbr":"3600","predir":"0","streetname":"MASTERPIECE","streettype":"WAY","suffdir":"0","city":"PALM BEACH GARDENS","state_code":"FL","zip5":"33410","latitude":"26.8526360000000000","longitude":"-80.084022000000000","publicwifi":"U","url":"0","broadband_type_id":3}
{"id":null,"anchorname":"PREMIER ASSOCIATES FOR THE HEALTHCARE OF WOMEN","address":"11505 FAIRCHILD GARDENS AVE, PALM BEACH GARDENS, FL, 33410","bldgnbr":"11505","predir":"0","streetname":"FAIRCHILD GARDENS","streettype":"AVE","suffdir":"0","city":"PALM BEACH GARDENS","state_code":"FL","zip5":"33410","latitude":"26.8462280000000000","longitude":"-80.088945000000000","publicwifi":"U","url":"0","broadband_type_id":3}
{"id":null,"anchorname":"DWIGHT D. EISENHOWER ELEMENTARY SCHOOL","address":"2926 LONE PINE RD, PALM BEACH GARDENS, FL 33410","bldgnbr":"2926","predir":null,"streetname":"LONE PINE","streettype":"RD","suffdir":null,"city":"PALM BEACH GARDENS","state_code":"FL","zip5":"33410","latitude":"26.8542434400000000","longitude":"-80.079303250000000","publicwifi":"Y","url":"0","broadband_type_id":6}
{"id":null,"anchorname":"TOTAL RENAL CARE INC","address":"2841 PGA BLVD, PALM BEACH GARDENS, FL, 33410","bldgnbr":"2841","predir":"0","streetname":"PGA","streettype":"BLVD","suffdir":"0","city":"PALM BEACH GARDENS","state_code":"FL","zip5":"33410","latitude":"26.8449410000000000","longitude":"-80.078577000000000","publicwifi":"U","url":"0","broadband_type_id":3}
{"id":null,"anchorname":"FLORIDA DEPARTMENT OF HEALTH","address":"900 S US HIGHWAY 1, JUPITER, FL 33477","bldgnbr":"900","predir":null,"streetname":"US HWY 1","streettype":"0","suffdir":null,"city":"JUPITER","state_code":"FL","zip5":"33477","latitude":"26.9257084400000000","longitude":"-80.076598530000000","publicwifi":"Y","url":"0","broadband_type_id":3}
{"id":null,"anchorname":"VISUAL HEALTH AT JUPITER EYE CENTER LLC","address":"102 COASTAL WAY, JUPITER, FL, 33477","bldgnbr":"102","predir":"0","streetname":"COASTAL","streettype":"WAY","suffdir":"0","city":"JUPITER","state_code":"FL","zip5":"33477","latitude":"26.9330160000000000","longitude":"-80.080790000000000","publicwifi":"U","url":"0","broadband_type_id":3}
{"id":null,"anchorname":"PALM BEACH COUNTY FIRE DEPARTMENT AND RESCUE STATION 18","address":"351 S US HIGHWAY 1, JUPITER, FL 33477","bldgnbr":"351","predir":null,"streetname":"US HWY 1","streettype":"0","suffdir":null,"city":"JUPITER","state_code":"FL","zip5":"33477","latitude":"26.9314485500000000","longitude":"-80.078760440000000","publicwifi":"U","url":"0","broadband_type_id":5}
{"id":null,"anchorname":"BATT PRIVATE SCHOOL","address":"13205 US HIGHWAY 1, NORTH PALM BEACH, FL 33408","bldgnbr":"13205","predir":null,"streetname":"US HWY 1","streettype":"0","suffdir":null,"city":"NORTH PALM BEACH","state_code":"FL","zip5":"33408","latitude":"26.8689109900000000","longitude":"-80.055208900000000","publicwifi":"U","url":"0","broadband_type_id":6}
{"id":null,"anchorname":"JUNO BEACH PREPARATORY SCHOOL","address":"13205 US HIGHWAY 1 STE 202, NORTH PALM BEACH, FL 33408","bldgnbr":"13205","predir":null,"streetname":"US HWY 1","streettype":"0","suffdir":null,"city":"NORTH PALM BEACH","state_code":"FL","zip5":"33408","latitude":"26.8689109900000000","longitude":"-80.055208900000000","publicwifi":"U","url":"0","broadband_type_id":6}
{"id":null,"anchorname":"HEALTHWORKS MED GROUP OF FLORIDA, PA","address":"700 UNIVERSE BLVD, JUNO BEACH, FL, 33408","bldgnbr":"700","predir":"0","streetname":"UNIVERSE","streettype":"BLVD","suffdir":"0","city":"JUNO BEACH","state_code":"FL","zip5":"33408","latitude":"26.8581000000000000","longitude":"-80.058676000000000","publicwifi":"U","url":"0","broadband_type_id":3}
{"id":null,"anchorname":"TOWN OF JUNO BEACH TOWN HALL","address":"340 OCEAN DRIVE, JUNO BEACH, FL 33408","bldgnbr":"340","predir":null,"streetname":"OCEAN","streettype":"DR","suffdir":null,"city":"JUNO BEACH","state_code":"FL","zip5":"33408","latitude":"26.8717603600000000","longitude":"-80.052094380000000","publicwifi":"U","url":"0","broadband_type_id":1}
{"id":null,"anchorname":"JUNO BEACH POLICE DEPARTMENT","address":"340 OCEAN DRIVE, JUNO BEACH, FL, 33408","bldgnbr":"340","predir":"0","streetname":"OCEAN","streettype":"DRIVE","suffdir":"0","city":"JUNO BEACH","state_code":"FL","zip5":"33408","latitude":"26.8721982500000000","longitude":"-80.052169800000000","publicwifi":"Y","url":"0","broadband_type_id":4}
{"id":null,"anchorname":"PALM BEACH COUNTY FIRE DEPARTMENT AND RESCUE STATION 15","address":"12870 US HWY 1, JUNO, FL 33408","bldgnbr":"12870","predir":null,"streetname":"US HWY 1","streettype":"0","suffdir":null,"city":"JUNO","state_code":"FL","zip5":"33408","latitude":"26.8659255600000000","longitude":"-80.054489600000000","publicwifi":"U","url":"0","broadband_type_id":5}
{"id":null,"anchorname":"City Of Thornton","address":"9500 Civic Center Drive Thornton Co 80229","bldgnbr":"9500","predir":null,"streetname":"Civic Center","streettype":"Drive","suffdir":null,"city":"Thornton","state_code":"CO","zip5":"80229","latitude":"39.8703021090000000","longitude":"-104.98394988700000","publicwifi":"N","url":null,"broadband_type_id":1}
{"id":null,"anchorname":"Alamosa County Annex","address":"402 Edison Avenue Alamosa Co 81101","bldgnbr":"411","predir":null,"streetname":"Edison","streettype":"Avenue","suffdir":null,"city":"Alamosa","state_code":"CO","zip5":"81101","latitude":"37.4689882670000000","longitude":"-105.86816865700000","publicwifi":"N","url":null,"broadband_type_id":1}
{"id":null,"anchorname":"SHARON D. DAVIS-BROWNE DDS, PA","address":"721 NORTHLAKE BLVD, NORTH PALM BEACH, FL, 33408","bldgnbr":"721","predir":"0","streetname":"NORTHLAKE","streettype":"BLVD","suffdir":"0","city":"NORTH PALM BEACH","state_code":"FL","zip5":"33408","latitude":"26.8080050000000000","longitude":"-80.069970000000000","publicwifi":"U","url":"0","broadband_type_id":6}
{"id":null,"anchorname":"SEAGULL PLACE","address":"1233 ISLAND RD, WEST PALM BEACH, FL, 33404","bldgnbr":"1233","predir":"0","streetname":"ISLAND","streettype":"RD","suffdir":"0","city":"WEST PALM BEACH","state_code":"FL","zip5":"33404","latitude":"26.7827890000000000","longitude":"-80.036480000000000","publicwifi":"U","url":"0","broadband_type_id":null}
{"id":null,"anchorname":"PROFESSIONAL TRAINING ASSOCIATION CORPORATION","address":"321 NORTHLAKE BLVD, NORTH PALM BAECH, FL, 33408","bldgnbr":"321","predir":"0","streetname":"NORTHLAKE","streettype":"BLVD","suffdir":"0","city":"NORTH PALM BAECH","state_code":"FL","zip5":"33408","latitude":"26.8075130000000000","longitude":"-80.057058000000000","publicwifi":"U","url":"0","broadband_type_id":6}
{"id":null,"anchorname":"BRIGHT FUTURES INTERNATIONAL -LIGHTHOUSE CAMPUS","address":"757 LIGHTHOUSE DRIVE, NORTH PALM BEACH, FL 33408","bldgnbr":"757","predir":null,"streetname":"LIGHTHOUSE","streettype":"DR","suffdir":null,"city":"NORTH PALM BEACH","state_code":"FL","zip5":"33408","latitude":"26.8180925000000000","longitude":"-80.072895880000000","publicwifi":"U","url":"0","broadband_type_id":6}
{"id":null,"anchorname":"FLORIDA DEPARTMENT OF FINANCIAL SERVICES","address":"824 US HIGHWAY 1, NORTH PALM BEACH, FL 33408","bldgnbr":"824","predir":null,"streetname":"US HWY 1","streettype":"0","suffdir":null,"city":"NORTH PALM BEACH","state_code":"FL","zip5":"33408","latitude":"26.8226287400000000","longitude":"-80.059677430000000","publicwifi":"Y","url":"0","broadband_type_id":6}
{"id":null,"anchorname":"S.O.S THERAPY CENTER","address":"14750 SW 26TH ST, MIAMI, FL, 33185","bldgnbr":"14750","predir":"SW","streetname":"26TH","streettype":"ST","suffdir":"0","city":"MIAMI","state_code":"FL","zip5":"33185","latitude":"25.7428430000000000","longitude":"-80.434022000000000","publicwifi":"U","url":"0","broadband_type_id":3}
{"id":null,"anchorname":"LEWIS KAMINESTER MD PA","address":"840 US HIGHWAY 1, NORTH PALM BEACH, FL, 33408","bldgnbr":"840","predir":"0","streetname":"US HIGHWAY 1","streettype":"0","suffdir":"0","city":"NORTH PALM BEACH","state_code":"FL","zip5":"33408","latitude":"26.8233920000000000","longitude":"-80.059986000000000","publicwifi":"U","url":"0","broadband_type_id":6}
{"id":null,"anchorname":"FAITH LUTHERAN CHURCH OF N PALM BCH","address":"301 EBBTIDE DRIVE, NORTH PALM BEACH, FL, 33408","bldgnbr":"301","predir":"0","streetname":"EBBTIDE","streettype":"DRIVE","suffdir":"0","city":"NORTH PALM BEACH","state_code":"FL","zip5":"33408","latitude":"26.8136170000000000","longitude":"-80.057261000000000","publicwifi":"U","url":"0","broadband_type_id":null}
{"id":null,"anchorname":"BRIGHT FUTURES INTERNATIONAL - PROSPERITY FARMS CAMPUS","address":"717 PROSPERITY FARMS ROAD, NORTH PALM BEACH, FL 33408","bldgnbr":"717","predir":null,"streetname":"PROSPERITY FARMS","streettype":"RD","suffdir":null,"city":"NORTH PALM BEACH","state_code":"FL","zip5":"33408","latitude":"26.8194264900000000","longitude":"-80.074634600000000","publicwifi":"U","url":"0","broadband_type_id":6}
{"id":null,"anchorname":"WOOD MONTESSORI ACADEMY","address":"2526 RICHARD ROAD, WEST PALM BEACH, FL 33403","bldgnbr":"2526","predir":null,"streetname":"RICHARD","streettype":"RD","suffdir":null,"city":"WEST PALM BEACH","state_code":"FL","zip5":"33403","latitude":"26.8130761400000000","longitude":"-80.073977770000000","publicwifi":"U","url":"0","broadband_type_id":6}
{"id":null,"anchorname":"DEVELOPMENTAL THERAPY ASSOCIATES INC","address":"3345 BURNS RD, PALM BEACH GARDENS, FL, 33410","bldgnbr":"3345","predir":"0","streetname":"BURNS","streettype":"RD","suffdir":"0","city":"PALM BEACH GARDENS","state_code":"FL","zip5":"33410","latitude":"26.8306930000000000","longitude":"-80.084369000000000","publicwifi":"U","url":"0","broadband_type_id":6}
{"id":null,"anchorname":"PALM BEACH COUNTY PUBLIC SAFETY","address":"3700 RCA BLVD, PALM BEACH GARDENS, FL 33410","bldgnbr":"3700","predir":null,"streetname":"RCA","streettype":"BLVD","suffdir":null,"city":"PALM BEACH GARDENS","state_code":"FL","zip5":"33410","latitude":"26.8378137200000000","longitude":"-80.091296720000000","publicwifi":"Y","url":"0","broadband_type_id":4}
{"id":null,"anchorname":"ROBERT D. SIMON M.D.P.A.","address":"701 NORTHLAKE BLVD, NORTH PALM BEACH, FL, 33408","bldgnbr":"701","predir":"0","streetname":"NORTHLAKE","streettype":"BLVD","suffdir":"0","city":"NORTH PALM BEACH","state_code":"FL","zip5":"33408","latitude":"26.8079730000000000","longitude":"-80.068947000000000","publicwifi":"U","url":"0","broadband_type_id":null}
{"id":null,"anchorname":"SEA RANCH PHYSICAL THERAPY CENTER INC","address":"103400 OVERSEAS HWY, KEY LARGO, FL, 33037","bldgnbr":"103400","predir":"0","streetname":"OVERSEAS","streettype":"HWY","suffdir":"0","city":"KEY LARGO","state_code":"FL","zip5":"33037","latitude":"25.1356230000000000","longitude":"-80.404263000000000","publicwifi":"U","url":"0","broadband_type_id":3}
{"id":null,"anchorname":"CENTER FOR RELATIONSHIPS \u0026 FAMILY THERAPY","address":"321 NORTHLAKE BLVD, NORTH PALM BEACH, FL, 33408","bldgnbr":"321","predir":"0","streetname":"NORTHLAKE","streettype":"BLVD","suffdir":"0","city":"NORTH PALM BEACH","state_code":"FL","zip5":"33408","latitude":"26.8075130000000000","longitude":"-80.057058000000000","publicwifi":"U","url":"0","broadband_type_id":3}
{"id":null,"anchorname":"CHABAD HOUSE LUBAVITCH OF PALM BEACH / JSA","address":"844 PROSPERITY FARMS RD, NORTH PALM BEACH, FL 33408","bldgnbr":"844","predir":null,"streetname":"PROSPERITY FARMS","streettype":"RD","suffdir":null,"city":"NORTH PALM BEACH","state_code":"FL","zip5":"33408","latitude":"26.8246918100000000","longitude":"-80.072569130000000","publicwifi":"U","url":"0","broadband_type_id":null}
{"id":null,"anchorname":"ROSALIA LEITE-EVANS MD LLC","address":"745 US 1, NORTH PALM BEACH, FL, 33408","bldgnbr":"745","predir":"0","streetname":"US 1","streettype":"0","suffdir":"0","city":"NORTH PALM BEACH","state_code":"FL","zip5":"33408","latitude":"26.8188510000000000","longitude":"-80.058468000000000","publicwifi":"U","url":"0","broadband_type_id":null}
{"id":null,"anchorname":"SAGE CHIROPRACTIC INCORPORATED","address":"784 US HIGHWAY 1, NORTH PALM BEACH, FL, 33408","bldgnbr":"784","predir":"0","streetname":"US HIGHWAY 1","streettype":"0","suffdir":"0","city":"NORTH PALM BEACH","state_code":"FL","zip5":"33408","latitude":"26.8206380000000000","longitude":"-80.058882000000000","publicwifi":"U","url":"0","broadband_type_id":null}
{"id":null,"anchorname":"VIJAY B HARPALANI, MD, PA","address":"3400 BURNS RD, PALM BEACH GARDENS, FL, 33410","bldgnbr":"3400","predir":"0","streetname":"BURNS","streettype":"RD","suffdir":"0","city":"PALM BEACH GARDENS","state_code":"FL","zip5":"33410","latitude":"26.8305440000000000","longitude":"-80.088135000000000","publicwifi":"U","url":"0","broadband_type_id":null}
{"id":null,"anchorname":"M. JOSEPH FOX, D.D.S., P.A.","address":"2521 BURNS RD, PALM BEACH GARDENS, FL, 33410","bldgnbr":"2521","predir":"0","streetname":"BURNS","streettype":"RD","suffdir":"0","city":"PALM BEACH GARDENS","state_code":"FL","zip5":"33410","latitude":"26.8320580000000000","longitude":"-80.073498000000000","publicwifi":"U","url":"0","broadband_type_id":null}
{"id":null,"anchorname":"MIDTOWN IMAGING LLC","address":"2529 BURNS RD, PALM BEACH GARDENS, FL, 33410","bldgnbr":"2529","predir":"0","streetname":"BURNS","streettype":"RD","suffdir":"0","city":"PALM BEACH GARDENS","state_code":"FL","zip5":"33410","latitude":"26.8320590000000000","longitude":"-80.073537000000000","publicwifi":"U","url":"0","broadband_type_id":null}
{"id":null,"anchorname":"DESTINY, LLC","address":"3365 BURNS RD STE 214, PALM BEACH GARDENS, FL, 33410","bldgnbr":"3365","predir":"0","streetname":"BURNS","streettype":"RD","suffdir":"STE 214","city":"PALM BEACH GARDENS","state_code":"FL","zip5":"33410","latitude":"26.8307730000000000","longitude":"-80.085090000000000","publicwifi":"U","url":"0","broadband_type_id":6}
{"id":null,"anchorname":"RIVIERA BEACH FIRE DEPARTMENT STATION 3","address":"5010 N OCEAN DR, RIVIERA BEACH, FL 33404","bldgnbr":"5010","predir":null,"streetname":"OCEAN","streettype":"DR","suffdir":null,"city":"RIVIERA BEACH","state_code":"FL","zip5":"33404","latitude":"26.7988494600000000","longitude":"-80.034006600000000","publicwifi":"U","url":"0","broadband_type_id":5}
{"id":null,"anchorname":"TOWN OF PALM BEACH SHORES TOWN HALL","address":"247 EDWARDS LANE, PALM BEACH SHORES, FL 33404","bldgnbr":"247","predir":null,"streetname":"EDWARDS","streettype":"LN","suffdir":null,"city":"PALM BEACH SHORES","state_code":"FL","zip5":"33404","latitude":"26.7785239700000000","longitude":"-80.037161830000000","publicwifi":"U","url":"0","broadband_type_id":1}
{"id":null,"anchorname":"PALM BEACH SHORES POLICE DEPARTMENT","address":"247 EDWARDS LN, PALM BEACH SHORES, FL 33404","bldgnbr":"247","predir":null,"streetname":"EDWARDS","streettype":"LN","suffdir":null,"city":"PALM BEACH SHORES","state_code":"FL","zip5":"33404","latitude":"26.7784237100000000","longitude":"-80.036153510000000","publicwifi":"Y","url":"0","broadband_type_id":4}
{"id":null,"anchorname":"PALM BEACH SHORES FIRE DEPARTMENT","address":"247 EDWARDS LN, PALM BEACH SHORES, FL 33404","bldgnbr":"247","predir":null,"streetname":"EDWARDS","streettype":"LN","suffdir":null,"city":"PALM BEACH SHORES","state_code":"FL","zip5":"33404","latitude":"26.7784456100000000","longitude":"-80.037051220000000","publicwifi":"U","url":"0","broadband_type_id":5}
{"id":null,"anchorname":"THE BENJAMIN SCHOOL","address":"11000 ELLISON WILSON ROAD, NORTH PALM BEACH, FL 33408","bldgnbr":"11000","predir":null,"streetname":"ELLISON WILSON","streettype":"RD","suffdir":null,"city":"NORTH PALM BEACH","state_code":"FL","zip5":"33408","latitude":"26.8375717000000000","longitude":"-80.063175640000000","publicwifi":"U","url":"0","broadband_type_id":6}
{"id":null,"anchorname":"NEW DAY ADULT CARE CENTER","address":"301 EBBTIDE DRIVE, NORTH PALM BEACH, FL, 33408","bldgnbr":"301","predir":"0","streetname":"EBBTIDE","streettype":"DRIVE","suffdir":"0","city":"NORTH PALM BEACH","state_code":"FL","zip5":"33408","latitude":"26.8136170000000000","longitude":"-80.057261000000000","publicwifi":"U","url":"0","broadband_type_id":3}
{"id":null,"anchorname":"VILLAGE OF NORTH PALM BEACH VILLAGE HALL","address":"501 US HIGHWAY 1, NORTH PALM BEACH, FL 33408","bldgnbr":"501","predir":null,"streetname":"US HWY 1","streettype":"0","suffdir":null,"city":"NORTH PALM BEACH","state_code":"FL","zip5":"33408","latitude":"26.8107859400000000","longitude":"-80.056994920000000","publicwifi":"U","url":"0","broadband_type_id":1}
{"id":null,"anchorname":"NORTH PALM BEACH PUBLIC LIBRARY","address":"303 ANCHORAGE DR, NORTH PALM BEACH, FL 33408","bldgnbr":"303","predir":null,"streetname":"ANCHORAGE","streettype":"DR","suffdir":null,"city":"NORTH PALM BEACH","state_code":"FL","zip5":"33408","latitude":"26.8107664100000000","longitude":"-80.057024500000000","publicwifi":"Y","url":"0","broadband_type_id":6}
{"id":null,"anchorname":"OCCUPATIONAL HEALTH CENTER OF THE GARDENS","address":"3345 BURNS ROAD, PALM BEACH GARDENS, FL, 33410","bldgnbr":"3345","predir":"0","streetname":"BURNS","streettype":"ROAD","suffdir":"0","city":"PALM BEACH GARDENS","state_code":"FL","zip5":"33410","latitude":"26.8306930000000000","longitude":"-80.084369000000000","publicwifi":"U","url":"0","broadband_type_id":3}
{"id":null,"anchorname":"PALM BEACH GARDENS COMMUNITY HOSPITAL, INC.","address":"2503 BURNS RD, PALM BEACH GARDENS, FL, 33410","bldgnbr":"2503","predir":"0","streetname":"BURNS","streettype":"RD","suffdir":"0","city":"PALM BEACH GARDENS","state_code":"FL","zip5":"33410","latitude":"26.8320540000000000","longitude":"-80.073408000000000","publicwifi":"U","url":"0","broadband_type_id":3}
{"id":null,"anchorname":"DOUBLE R THERAPY CENTER INC","address":"2711 SW 137TH AVE, MIAMI, FL, 33175","bldgnbr":"2711","predir":"SW","streetname":"137TH","streettype":"AVE","suffdir":"0","city":"MIAMI","state_code":"FL","zip5":"33175","latitude":"25.7422490000000000","longitude":"-80.416054000000000","publicwifi":"U","url":"0","broadband_type_id":3}
{"id":null,"anchorname":"MAUREEN BERGMAN DMD PA","address":"3375 BURNS ROAD, PBG, FL, 33410","bldgnbr":"3375","predir":"0","streetname":"BURNS","streettype":"ROAD","suffdir":"0","city":"PBG","state_code":"FL","zip5":"33410","latitude":"26.8308220000000000","longitude":"-80.085471000000000","publicwifi":"U","url":"0","broadband_type_id":null}
{"id":null,"anchorname":"MAYS SCHRY \u0026 ETHEREDGE DENTAL","address":"3365 BURNS RD, PALM BEACH GARDENS, FL, 33410","bldgnbr":"3365","predir":"0","streetname":"BURNS","streettype":"RD","suffdir":"0","city":"PALM BEACH GARDENS","state_code":"FL","zip5":"33410","latitude":"26.8307730000000000","longitude":"-80.085090000000000","publicwifi":"U","url":"0","broadband_type_id":null}
{"id":null,"anchorname":"ONSHORE THERAPY, PLC","address":"92410 OVERSEAS HIGHWAY, TAVERNIER, FL, 33070","bldgnbr":"92410","predir":"0","streetname":"OVERSEAS","streettype":"HIGHWAY","suffdir":"0","city":"TAVERNIER","state_code":"FL","zip5":"33070","latitude":"25.0148780000000000","longitude":"-80.512374000000000","publicwifi":"U","url":"0","broadband_type_id":3}
{"id":null,"anchorname":"PHILIP MILLER MD PA","address":"3385 BURNS RD, PALM BEACH GARDENS, FL, 33410","bldgnbr":"3385","predir":"0","streetname":"BURNS","streettype":"RD","suffdir":"0","city":"PALM BEACH GARDENS","state_code":"FL","zip5":"33410","latitude":"26.8308750000000000","longitude":"-80.086263000000000","publicwifi":"U","url":"0","broadband_type_id":null}
{"id":null,"anchorname":"City Of Federal Heights","address":"2380 West 90th Avenue Federal Heights Co 80260","bldgnbr":"2380","predir":"West","streetname":"90th","streettype":"Avenue","suffdir":null,"city":"Federal Heights","state_code":"CO","zip5":"80260","latitude":"39.8590364310000000","longitude":"-105.01540670800000","publicwifi":"N","url":null,"broadband_type_id":1}
{"id":null,"anchorname":"Valley View Elementary-E","address":"660 West 70th Avenue Denver Co 80221","bldgnbr":"660","predir":"West","streetname":"70th","streettype":"Avenue","suffdir":null,"city":"Denver","state_code":"CO","zip5":"80221","latitude":"39.8233617170000000","longitude":"-104.99550086500000","publicwifi":"N","url":null,"broadband_type_id":6}
{"id":null,"anchorname":"ADVANCED OCEAN REHAB INC","address":"11381 PROSPERITY FARMS RD, PALM BEACH GARDENS, FL, 33410","bldgnbr":"11381","predir":"0","streetname":"PROSPERITY FARMS","streettype":"RD","suffdir":"0","city":"PALM BEACH GARDENS","state_code":"FL","zip5":"33410","latitude":"26.8421480000000000","longitude":"-80.072338000000000","publicwifi":"U","url":"0","broadband_type_id":null}
{"id":null,"anchorname":"ROBERT G WERBOFF MD PA","address":"2700 PGA BLVD, PALM BEACH GARDENS, FL, 33410","bldgnbr":"2700","predir":"0","streetname":"PGA","streettype":"BLVD","suffdir":"0","city":"PALM BEACH GARDENS","state_code":"FL","zip5":"33410","latitude":"26.8446340000000000","longitude":"-80.076680000000000","publicwifi":"U","url":"0","broadband_type_id":null}
{"id":null,"anchorname":"ONCOLOGY AND HEMATOLOGY CONSULTANTS OF PALM BEACHES","address":"3385 BURNS RD STE 203, PALM BEACH GARDENS, FL, 33410","bldgnbr":"3385","predir":"0","streetname":"BURNS","streettype":"RD","suffdir":"STE 203","city":"PALM BEACH GARDENS","state_code":"FL","zip5":"33410","latitude":"26.8308750000000000","longitude":"-80.086263000000000","publicwifi":"U","url":"0","broadband_type_id":6}
{"id":null,"anchorname":"PALM BEACH COUNTY TAX COLLECTOR","address":"3188 PGA BOULEVARD, PALM BEACH GARDENS, FL 33410","bldgnbr":"3188","predir":null,"streetname":"PGA","streettype":"BLVD","suffdir":null,"city":"PALM BEACH GARDENS","state_code":"FL","zip5":"33410","latitude":"26.8438312100000000","longitude":"-80.083324660000000","publicwifi":"Y","url":"0","broadband_type_id":1}
{"id":null,"anchorname":"PALM BEACH COUNTY TAX COLLECTOR","address":"3185 PGA BOULEVARD, PALM BEACH GARDENS, FL 33410","bldgnbr":"3185","predir":null,"streetname":"PGA","streettype":"BLVD","suffdir":null,"city":"PALM BEACH GARDENS","state_code":"FL","zip5":"33410","latitude":"26.8444920500000000","longitude":"-80.085253520000000","publicwifi":"Y","url":"0","broadband_type_id":1}
{"id":null,"anchorname":"PRIMETIME PHYSICAL THERAPY LLC","address":"1578 VENICE AVE, FORT WALTON BEACH, FL, 32547","bldgnbr":"1578","predir":"0","streetname":"VENICE","streettype":"AVE","suffdir":"0","city":"FORT WALTON BEACH","state_code":"FL","zip5":"32547","latitude":"30.4419230000000000","longitude":"-86.644789000000000","publicwifi":"U","url":"0","broadband_type_id":3}
{"id":null,"anchorname":"NORTH PALM BEACH COUNTY SURGERY CENTER LLC","address":"4000 BURNS RD, PALM BEACH GARDENS, FL, 33410","bldgnbr":"4000","predir":"0","streetname":"BURNS","streettype":"RD","suffdir":"0","city":"PALM BEACH GARDENS","state_code":"FL","zip5":"33410","latitude":"26.8306300000000000","longitude":"-80.097030000000000","publicwifi":"U","url":"0","broadband_type_id":1}
{"id":null,"anchorname":"BRIGHT FUTURES INTERNATIONAL - RIVERSIDE CAMPUS","address":"10350 RIVERSIDE DR, PALM BEACH GARDENS, FL 33410","bldgnbr":"10350","predir":null,"streetname":"RIVERSIDE","streettype":"DR","suffdir":null,"city":"PALM BEACH GARDENS","state_code":"FL","zip5":"33410","latitude":"26.8282824800000000","longitude":"-80.092948180000000","publicwifi":"Y","url":"0","broadband_type_id":6}
{"id":null,"anchorname":"WHITE PALMS ALF","address":"9090 OLD DIXIE HWY, LAKE PARK, FL, 33403","bldgnbr":"9090","predir":"0","streetname":"OLD DIXIE","streettype":"HWY","suffdir":"0","city":"LAKE PARK","state_code":"FL","zip5":"33403","latitude":"26.8093790000000000","longitude":"-80.078836000000000","publicwifi":"U","url":"0","broadband_type_id":6}
{"id":null,"anchorname":"APP-PBP LLC","address":"4000 BURNS RD, PALM BEACH GARDENS, FL, 33410","bldgnbr":"4000","predir":"0","streetname":"BURNS","streettype":"RD","suffdir":"0","city":"PALM BEACH GARDENS","state_code":"FL","zip5":"33410","latitude":"26.8306300000000000","longitude":"-80.097030000000000","publicwifi":"U","url":"0","broadband_type_id":null}
{"id":null,"anchorname":"ONEBLOOD INC","address":"3451 NORTHLAKE BLVD, LAKE PARK, FL, 33403","bldgnbr":"3451","predir":"0","streetname":"NORTHLAKE","streettype":"BLVD","suffdir":"0","city":"LAKE PARK","state_code":"FL","zip5":"33403","latitude":"26.8086310000000000","longitude":"-80.089585000000000","publicwifi":"U","url":"0","broadband_type_id":null}
{"id":null,"anchorname":"SAINT MARK'S EPISCOPAL SCHOOL","address":"3395 BURNS ROAD, PALM BEACH GARDENS, FL 33410","bldgnbr":"3395","predir":null,"streetname":"BURNS","streettype":"RD","suffdir":null,"city":"PALM BEACH GARDENS","state_code":"FL","zip5":"33410","latitude":"26.8315606400000000","longitude":"-80.087573900000000","publicwifi":"U","url":"0","broadband_type_id":6}
{"id":null,"anchorname":"EISSEY CAMPUS LLRC - PALM BEACH COMMUNITY COLLEGE LIBRARY","address":"3160 PGA BLVD, PALM BEACH GARDENS, FL 33410","bldgnbr":"3160","predir":null,"streetname":"PGA","streettype":"BLVD","suffdir":null,"city":"PALM BEACH GARDENS","state_code":"FL","zip5":"33410","latitude":"26.8420565400000000","longitude":"-80.078727050000000","publicwifi":"U","url":"0","broadband_type_id":6}
{"id":null,"anchorname":"PALM BEACH COUNTY - COUNTY COURT - NORTH COUNTY COURTHOUSE","address":"3188 PGA BLVD, PALM BEACH GARDENS, FL 33410","bldgnbr":"3188","predir":null,"streetname":"PGA","streettype":"BLVD","suffdir":null,"city":"PALM BEACH GARDENS","state_code":"FL","zip5":"33410","latitude":"26.8438312100000000","longitude":"-80.083324660000000","publicwifi":"U","url":"0","broadband_type_id":1}
{"id":null,"anchorname":"PALM BEACH GARDENS FIRE DEPARTMENT AND RESCUE STATION 62","address":"11025 CAMPUS DR, PALM BEACH GARDENS, FL 33410","bldgnbr":"11025","predir":null,"streetname":"CAMPUS","streettype":"DR","suffdir":null,"city":"PALM BEACH GARDENS","state_code":"FL","zip5":"33410","latitude":"26.8381221400000000","longitude":"-80.083106180000000","publicwifi":"U","url":"0","broadband_type_id":5}
{"id":null,"anchorname":"MIAMI CHILDREN'S HOSPITAL NICKLAUS OUTPATIENT CENTER","address":"11310 LEGACY BLVD, PALM BEACH GARDENS, FL, 33410","bldgnbr":"11310","predir":"0","streetname":"LEGACY","streettype":"BLVD","suffdir":"0","city":"PALM BEACH GARDENS","state_code":"FL","zip5":"33410","latitude":"26.8430250000000000","longitude":"-80.088923000000000","publicwifi":"U","url":"0","broadband_type_id":3}
{"id":null,"anchorname":"PALM BEACH GARDENS MEDICAL CENTER","address":"3360 BURNS ROAD, PALM BEACH GARDENS, FL 33410","bldgnbr":"3360","predir":null,"streetname":"BURNS","streettype":"RD","suffdir":null,"city":"PALM BEACH GARDENS","state_code":"FL","zip5":"33410","latitude":"26.8295887300000000","longitude":"-80.086665160000000","publicwifi":"U","url":null,"broadband_type_id":3}
{"id":null,"anchorname":"ALLAMANDA ELEMENTARY SCHOOL","address":"10300 ALLAMANDA DR, PALM BEACH GARDENS, FL 33410","bldgnbr":"10300","predir":null,"streetname":"ALLAMANDA","streettype":"DR","suffdir":null,"city":"PALM BEACH GARDENS","state_code":"FL","zip5":"33410","latitude":"26.8280735200000000","longitude":"-80.076418870000000","publicwifi":"Y","url":"0","broadband_type_id":6}
{"id":null,"anchorname":"ST. CLARE CATHOLIC SCHOOL","address":"821 PROSPERITY FARMS ROAD, NORTH PALM BEACH, FL 33408","bldgnbr":"821","predir":null,"streetname":"PROSPERITY FARMS","streettype":"RD","suffdir":null,"city":"NORTH PALM BEACH","state_code":"FL","zip5":"33408","latitude":"26.8234147200000000","longitude":"-80.074112050000000","publicwifi":"U","url":"0","broadband_type_id":6}
{"id":null,"anchorname":"CHURCH IN THE GARDENS SCHOOL","address":"3937 HOLLY DRIVE, PALM BEACH GARDENS, FL 33410","bldgnbr":"3937","predir":null,"streetname":"HOLLY","streettype":"DR","suffdir":null,"city":"PALM BEACH GARDENS","state_code":"FL","zip5":"33410","latitude":"26.8237887800000000","longitude":"-80.096714740000000","publicwifi":"U","url":"0","broadband_type_id":6}
{"id":null,"anchorname":"PETER PAN PRESCHOOL AND MURRAY-HILL SCHO","address":"3576 RUBY STREET, PALM BEACH GARDENS, FL 33410","bldgnbr":"3576","predir":null,"streetname":"RUBY","streettype":"ST","suffdir":null,"city":"PALM BEACH GARDENS","state_code":"FL","zip5":"33410","latitude":"26.8253999300000000","longitude":"-80.090159600000000","publicwifi":"U","url":"0","broadband_type_id":6}
{"id":null,"anchorname":"PALM BEACH GARDENS ELEMENTARY SCHOOL","address":"10060 RIVERSIDE DR, PALM BEACH GARDENS, FL 33410","bldgnbr":"10060","predir":null,"streetname":"RIVERSIDE","streettype":"DR","suffdir":null,"city":"PALM BEACH GARDENS","state_code":"FL","zip5":"33410","latitude":"26.8238623700000000","longitude":"-80.090177910000000","publicwifi":"Y","url":"0","broadband_type_id":6}
{"id":null,"anchorname":"APRIA HEALTHCARE INC","address":"10385 IRONWOOD RD STE 140, PALM BEACH GARDENS, FL, 33410","bldgnbr":"10385","predir":"0","streetname":"IRONWOOD","streettype":"RD","suffdir":"STE 140","city":"PALM BEACH GARDENS","state_code":"FL","zip5":"33410","latitude":"26.8291410000000000","longitude":"-80.092001000000000","publicwifi":"U","url":"0","broadband_type_id":3}
{"id":null,"anchorname":"HOWELL L WATKINS MIDDLE SCHOOL","address":"9480 MACARTHUR BLVD, WEST PALM BEACH, FL 33403","bldgnbr":"9480","predir":null,"streetname":"MACARTHUR","streettype":"BLVD","suffdir":null,"city":"WEST PALM BEACH","state_code":"FL","zip5":"33403","latitude":"26.8155235200000000","longitude":"-80.085882320000000","publicwifi":"Y","url":"0","broadband_type_id":6}
{"id":null,"anchorname":"RICHARD ROAD FIRE DEPARTMENT","address":"2971 RICHARD RD., RICHARD ROAD, FL 33403","bldgnbr":"2971","predir":null,"streetname":"RICHARD","streettype":"RD","suffdir":null,"city":"RICHARD ROAD","state_code":"FL","zip5":"33403","latitude":"26.8137356000000000","longitude":"-80.081284700000000","publicwifi":"U","url":"0","broadband_type_id":5}
{"id":null,"anchorname":"VIP URGENT CARE INC.","address":"3555 NORTHLAKE BLVD STE 2, PALM BEACH GARDENS, FL, 33403","bldgnbr":"3555","predir":"0","streetname":"NORTHLAKE","streettype":"BLVD","suffdir":"STE 2","city":"PALM BEACH GARDENS","state_code":"FL","zip5":"33403","latitude":"26.8086890000000000","longitude":"-80.090994000000000","publicwifi":"U","url":"0","broadband_type_id":3}
{"id":null,"anchorname":"MD NOW MEDICAL CENTERS, INC","address":"9060 N MILITARY TRL, PALM BEACH GARDENS, FL, 33410","bldgnbr":"9060","predir":"N","streetname":"MILITARY","streettype":"TRL","suffdir":"0","city":"PALM BEACH GARDENS","state_code":"FL","zip5":"33410","latitude":"26.8101890000000000","longitude":"-80.106177000000000","publicwifi":"U","url":"0","broadband_type_id":3}
{"id":null,"anchorname":"YESHIVA UNIVERSITY","address":"44 COCOANUT ROW, PALM BEACH, FL 33480","bldgnbr":"44","predir":null,"streetname":"COCOANUT","streettype":"ROW","suffdir":null,"city":"PALM BEACH","state_code":"FL","zip5":"33480","latitude":"26.7143621800000000","longitude":"-80.041563980000000","publicwifi":"U","url":"0","broadband_type_id":6}
{"id":null,"anchorname":"Sangre De Cristo RE-22","address":"8751 Lane 7 North Mosca Co 81146","bldgnbr":"8751","predir":null,"streetname":"Lane 7","streettype":"\u003cNull\u003e","suffdir":"North","city":"Mosca","state_code":"CO","zip5":"81146","latitude":"37.6775565780000000","longitude":"-105.88053993300000","publicwifi":"Y","url":"www.sdc.schoolfusion.us","broadband_type_id":6}
{"id":null,"anchorname":"REHABILITATION CENTER OF THE PALM BEACHES THE","address":"301 NORTHPOINTE PARKWAY, WEST PALM BEACH, FL, 33407","bldgnbr":"301","predir":"0","streetname":"NORTHPOINTE","streettype":"PARKWAY","suffdir":"0","city":"WEST PALM BEACH","state_code":"FL","zip5":"33407","latitude":"26.7608380000000000","longitude":"-80.097285000000000","publicwifi":"U","url":"0","broadband_type_id":6}
{"id":null,"anchorname":"FLORIDA MUNICIPAL POWER AGENCY","address":"3421 OVERSEAS HIGHWAY, MARATHON, FL, 33050","bldgnbr":"3421","predir":"0","streetname":"OVERSEAS","streettype":"HIGHWAY","suffdir":"0","city":"MARATHON","state_code":"FL","zip5":"33050","latitude":"24.7114020000000000","longitude":"-81.093457000000000","publicwifi":"Y","url":"0","broadband_type_id":1}
{"id":null,"anchorname":"PRESIDENTIAL WOMEN'S CENTER","address":"100 NORTHPOINT PARKWAY, WEST PALM BEACH, FL, 33407","bldgnbr":"100","predir":"0","streetname":"NORTHPOINT","streettype":"PARKWAY","suffdir":"0","city":"WEST PALM BEACH","state_code":"FL","zip5":"33407","latitude":"26.7605450000000000","longitude":"-80.099987000000000","publicwifi":"U","url":"0","broadband_type_id":6}
{"id":null,"anchorname":"WEST PALM OUTPATIENT SURGERY AND LASER CENTER LTD","address":"200 NORTHPOINT PKWY, WEST PALM BEACH, FL, 33407","bldgnbr":"200","predir":"0","streetname":"NORTHPOINT","streettype":"PKWY","suffdir":"0","city":"WEST PALM BEACH","state_code":"FL","zip5":"33407","latitude":"26.7606310000000000","longitude":"-80.099123000000000","publicwifi":"U","url":"0","broadband_type_id":6}
{"id":null,"anchorname":"WEST PALM BEACH VAMC","address":"7305 N MILITARY TRL, RIVIERA BEACH, FL, 33410","bldgnbr":"7305","predir":"N","streetname":"MILITARY","streettype":"TRL","suffdir":"0","city":"RIVIERA BEACH","state_code":"FL","zip5":"33410","latitude":"26.7854070000000000","longitude":"-80.107329000000000","publicwifi":"U","url":"0","broadband_type_id":6}
{"id":null,"anchorname":"THE CARDIOVASCULAR INSTITUTE","address":"483 N SEMORAN BLVD, WINTER PARK, FL, 32792","bldgnbr":"483","predir":"N","streetname":"SEMORAN","streettype":"BLVD","suffdir":"0","city":"WINTER PARK","state_code":"FL","zip5":"32792","latitude":"28.6033140000000000","longitude":"-81.307228000000000","publicwifi":"U","url":"0","broadband_type_id":3}
{"id":null,"anchorname":"FLORIDA MUNICIPAL POWER AGENCY","address":"9701 S JOHN YOUNG PKY, ORLANDO, FL 32819","bldgnbr":"9701","predir":null,"streetname":"JOHN YOUNG","streettype":"PKWY","suffdir":null,"city":"ORLANDO","state_code":"FL","zip5":"32819","latitude":"28.4278541900000000","longitude":"-81.422646390000000","publicwifi":"Y","url":"0","broadband_type_id":1}
{"id":null,"anchorname":"CYBERKNIFE CENTER OF PALM BEACH LLC","address":"10335 N MILITARY TRL, WEST PALM BEACH, FL, 33410","bldgnbr":"10335","predir":"N","streetname":"MILITARY","streettype":"TRL","suffdir":"0","city":"WEST PALM BEACH","state_code":"FL","zip5":"33410","latitude":"26.8278500000000000","longitude":"-80.105715000000000","publicwifi":"U","url":"0","broadband_type_id":null}
{"id":null,"anchorname":"JSTADOC, INC","address":"9121 N MILITARY TRL, WEST PALM BEACH, FL, 33410","bldgnbr":"9121","predir":"N","streetname":"MILITARY","streettype":"TRL","suffdir":"0","city":"WEST PALM BEACH","state_code":"FL","zip5":"33410","latitude":"26.8099030000000000","longitude":"-80.106494000000000","publicwifi":"U","url":"0","broadband_type_id":null}
{"id":null,"anchorname":"YOUNG BODY REHABILITATION, INC.","address":"9091 N MILITARY TRL, WEST PALM BEACH, FL, 33410","bldgnbr":"9091","predir":"N","streetname":"MILITARY","streettype":"TRL","suffdir":"0","city":"WEST PALM BEACH","state_code":"FL","zip5":"33410","latitude":"26.8097510000000000","longitude":"-80.106499000000000","publicwifi":"U","url":"0","broadband_type_id":null}
{"id":null,"anchorname":"KEVIN J GILBERT MD PA","address":"3109 45TH ST, WEST PALM BEACH, FL, 33407","bldgnbr":"3109","predir":"0","streetname":"45TH","streettype":"ST","suffdir":"0","city":"WEST PALM BEACH","state_code":"FL","zip5":"33407","latitude":"26.7595950000000000","longitude":"-80.101173000000000","publicwifi":"U","url":"0","broadband_type_id":null}
{"id":null,"anchorname":"APP-PBP LLC","address":"200 NORTHPOINT PKWY, WEST PALM BEACH, FL, 33407","bldgnbr":"200","predir":"0","streetname":"NORTHPOINT","streettype":"PKWY","suffdir":"0","city":"WEST PALM BEACH","state_code":"FL","zip5":"33407","latitude":"26.7606310000000000","longitude":"-80.099123000000000","publicwifi":"U","url":"0","broadband_type_id":null}
{"id":null,"anchorname":"KASHUBA REHABILITATION INC","address":"8895 N MILITARY TR, PALM BEACH GARDENS, FL, 33410","bldgnbr":"8895","predir":"N","streetname":"MILITARY","streettype":"TR","suffdir":"0","city":"PALM BEACH GARDENS","state_code":"FL","zip5":"33410","latitude":"26.8076500000000000","longitude":"-80.106559000000000","publicwifi":"U","url":"0","broadband_type_id":null}
{"id":null,"anchorname":"FLORIDA DEPARTMENT OF VETERANS' AFFAIRS","address":"7305 N MILITARY TRL, PALM BEACH GARDENS, FL 33410","bldgnbr":"7305","predir":null,"streetname":"MILITARY","streettype":"TRL","suffdir":null,"city":"W PALM BCH","state_code":"FL","zip5":"33410","latitude":"26.7854099500000000","longitude":"-80.107327170000000","publicwifi":"Y","url":"0","broadband_type_id":null}
{"id":null,"anchorname":"FLORIDA DEPARTMENT OF VETERAN AFFAIRS","address":"7305 N MILITARY TRL, RIVIERA BEACH, FL, 33410","bldgnbr":"7305","predir":"N","streetname":"MILITARY","streettype":"TRL","suffdir":"0","city":"RIVIERA BEACH","state_code":"FL","zip5":"33410","latitude":"26.7854070000000000","longitude":"-80.107329000000000","publicwifi":"U","url":"0","broadband_type_id":null}
{"id":null,"anchorname":"VAMC","address":"7305 N MILITARY TRL, RIVIERA BEACH, FL, 33410","bldgnbr":"7305","predir":"N","streetname":"MILITARY","streettype":"TRL","suffdir":"0","city":"RIVIERA BEACH","state_code":"FL","zip5":"33410","latitude":"26.7854070000000000","longitude":"-80.107329000000000","publicwifi":"U","url":"0","broadband_type_id":null}
{"id":null,"anchorname":"VETERANS ADMINITRATION","address":"7305 N MILITARY TRL, RIVIERA BEACH, FL, 33410","bldgnbr":"7305","predir":"N","streetname":"MILITARY","streettype":"TRL","suffdir":"0","city":"RIVIERA BEACH","state_code":"FL","zip5":"33410","latitude":"26.7854070000000000","longitude":"-80.107329000000000","publicwifi":"U","url":"0","broadband_type_id":null}
{"id":null,"anchorname":"PRIMARY CARE MD INC.","address":"9060 N MILITARY TRL, WEST PALM BEACH, FL, 33410","bldgnbr":"9060","predir":"N","streetname":"MILITARY","streettype":"TRL","suffdir":"0","city":"WEST PALM BEACH","state_code":"FL","zip5":"33410","latitude":"26.8101890000000000","longitude":"-80.106177000000000","publicwifi":"U","url":"0","broadband_type_id":3}
{"id":null,"anchorname":"PALM BEACH GARDENS POLICE DEPARTMENT","address":"10500 N MILITARY TRL, PALM BEACH GARDENS, FL 33410","bldgnbr":"10500","predir":null,"streetname":"MILITARY","streettype":"TRL","suffdir":null,"city":"PALM BEACH GARDENS","state_code":"FL","zip5":"33410","latitude":"26.8315256100000000","longitude":"-80.105300420000000","publicwifi":"Y","url":"0","broadband_type_id":4}
{"id":null,"anchorname":"PALM BEACH GARDENS FIRE DEPARTMENT AND RESCUE STATION 61","address":"10500 N MILITARY TR, PALM BEACH GARDENS, FL 33410","bldgnbr":"10500","predir":null,"streetname":"MILITARY","streettype":"TRL","suffdir":null,"city":"PALM BEACH GARDENS","state_code":"FL","zip5":"33410","latitude":"26.8313787400000000","longitude":"-80.104425900000000","publicwifi":"U","url":"0","broadband_type_id":5}
{"id":null,"anchorname":"THE WEISS SCHOOL","address":"4176 BURNS ROAD, PALM BEACH GARDENS, FL 33410","bldgnbr":"4176","predir":null,"streetname":"BURNS","streettype":"RD","suffdir":null,"city":"PALM BEACH GARDENS","state_code":"FL","zip5":"33410","latitude":"26.8299121400000000","longitude":"-80.100163970000000","publicwifi":"U","url":"0","broadband_type_id":6}
{"id":null,"anchorname":"ALZHEIMER'S COMMUNITY CARE INC","address":"4075 HOLLY DRIVE, PALM BEACH GARDENS, FL, 33410","bldgnbr":"4075","predir":"0","streetname":"HOLLY","streettype":"DRIVE","suffdir":"0","city":"PALM BEACH GARDENS","state_code":"FL","zip5":"33410","latitude":"26.8234630000000000","longitude":"-80.098847000000000","publicwifi":"U","url":"0","broadband_type_id":3}
{"id":null,"anchorname":"NATIVITY LUTHERAN CHURCH \u0026 SCHOOL","address":"4075 HOLLY DRIVE, PALM BEACH GARDENS, FL 33410","bldgnbr":"4075","predir":null,"streetname":"HOLLY","streettype":"DR","suffdir":null,"city":"PALM BEACH GARDENS","state_code":"FL","zip5":"33410","latitude":"26.8240552800000000","longitude":"-80.098976470000000","publicwifi":"U","url":"0","broadband_type_id":6}
{"id":null,"anchorname":"PALM BEACH GARDENS HIGH SCHOOL AND ADULT EDUCATION","address":"4245 HOLLY DR, PALM BEACH GARDENS, FL 33410","bldgnbr":"4245","predir":null,"streetname":"HOLLY","streettype":"DR","suffdir":null,"city":"PALM BEACH GARDENS","state_code":"FL","zip5":"33410","latitude":"26.8246514700000000","longitude":"-80.102302400000000","publicwifi":"Y","url":"0","broadband_type_id":6}
{"id":null,"anchorname":"BARRY UNIVERSITY","address":"9123 N MILITARY TRL, PALM BEACH GARDENS, FL 33410","bldgnbr":"9123","predir":null,"streetname":"MILITARY","streettype":"TRL","suffdir":null,"city":"PALM BEACH GARDENS","state_code":"FL","zip5":"33410","latitude":"26.8097571800000000","longitude":"-80.106490510000000","publicwifi":"Y","url":"0","broadband_type_id":6}
{"id":null,"anchorname":"BARRY UNIVERSITY - NORTH PALM BEACH CAMPUS","address":"9123 N MILITARY TRL, PALM BEACH GARDENS, FL 33418","bldgnbr":"9123","predir":null,"streetname":"MILITARY","streettype":"TRL","suffdir":null,"city":"PALM BEACH GARDENS","state_code":"FL","zip5":"33418","latitude":"26.8121747900000000","longitude":"-80.106827220000000","publicwifi":"U","url":"0","broadband_type_id":6}
{"id":null,"anchorname":"ALZHEIMER'S COMMUNITY CARE  INC","address":"800 NORTHPOINT PKWY  SUITE 101-A, WEST PALM BEACH, FL, 33407","bldgnbr":"800","predir":"0","streetname":"NORTHPOINT","streettype":"PKWY","suffdir":"SUITE 101-A","city":"WEST PALM BEACH","state_code":"FL","zip5":"33407","latitude":"26.7619580000000000","longitude":"-80.094309000000000","publicwifi":"U","url":"0","broadband_type_id":3}
{"id":null,"anchorname":"THE MEDICAL STORE OF PALM BEACH COUNTY INC","address":"300 NORTHPOINT PKWY STE 301, WEST PALM BEACH, FL, 33407","bldgnbr":"300","predir":"0","streetname":"NORTHPOINT","streettype":"PKWY","suffdir":"STE 301","city":"WEST PALM BEACH","state_code":"FL","zip5":"33407","latitude":"26.7605860000000000","longitude":"-80.098238000000000","publicwifi":"U","url":"0","broadband_type_id":3}
{"id":null,"anchorname":"HOLLAND NORTHLAKE DAY SCHOOL","address":"4650 NORTHLAKE BLVD, PALM BEACH GARDENS, FL 33418","bldgnbr":"4650","predir":null,"streetname":"NORTHLAKE","streettype":"BLVD","suffdir":null,"city":"PALM BEACH GARDENS","state_code":"FL","zip5":"33418","latitude":"26.8084432400000000","longitude":"-80.109176950000000","publicwifi":"U","url":"0","broadband_type_id":6}
{"id":null,"anchorname":"PALM BEACH GARDENS FIRE DEPARTMENT AND RESCUE STATION 63","address":"5161 NORTHLAKE BLVD, PALM BEACH GARDENS, FL 33418","bldgnbr":"5161","predir":null,"streetname":"NORTHLAKE","streettype":"BLVD","suffdir":null,"city":"PALM BEACH GARDENS","state_code":"FL","zip5":"33418","latitude":"26.8086706200000000","longitude":"-80.116571730000000","publicwifi":"U","url":"0","broadband_type_id":5}
{"id":null,"anchorname":"RIVIERA BEACH FIRE DEPARTMENT STATION 4","address":"7501 N MILITARY TR, RIVIERA BEACH, FL 33418","bldgnbr":"7501","predir":null,"streetname":"MILITARY","streettype":"TRL","suffdir":null,"city":"RIVIERA BEACH","state_code":"FL","zip5":"33418","latitude":"26.7868229600000000","longitude":"-80.107409280000000","publicwifi":"U","url":"0","broadband_type_id":5}
{"id":null,"anchorname":"WEST PALM BEACH VETERANS AFFAIRS MEDICAL CENTER","address":"7305 NORTH MILITARY TRAIL, WEST PALM BEACH, FL 33410","bldgnbr":"7305","predir":null,"streetname":"MILITARY","streettype":"TRL","suffdir":null,"city":"WEST PALM BEACH","state_code":"FL","zip5":"33410","latitude":"26.7860374600000000","longitude":"-80.114083520000000","publicwifi":"U","url":null,"broadband_type_id":3}
{"id":null,"anchorname":"FLORIDA MUNICIPAL POWER AGENCY","address":"6900 FRONT ST, KEY WEST, FL 33040","bldgnbr":"6900","predir":null,"streetname":"FRONT","streettype":"ST","suffdir":null,"city":"STOCK ISLAND","state_code":"FL","zip5":"33040","latitude":"24.5678239200000000","longitude":"-81.733031880000000","publicwifi":"Y","url":"0","broadband_type_id":1}
{"id":null,"anchorname":"Alamosa Elementary","address":"1707 West 10th Street Alamosa Co 81101","bldgnbr":"1707","predir":null,"streetname":"10th","streettype":"Street","suffdir":null,"city":"Alamosa","state_code":"CO","zip5":"81101","latitude":"37.4623420000000000","longitude":"-105.88394000000000","publicwifi":"U","url":null,"broadband_type_id":6}
{"id":null,"anchorname":"Kaiser Permanente Englewood Office","address":"2955 South Broadway Englewood Co 80113","bldgnbr":"2955","predir":"South","streetname":"Broadway","streettype":null,"suffdir":null,"city":"Englewood","state_code":"CO","zip5":"80113","latitude":"39.6630010530000000","longitude":"-104.98786664400000","publicwifi":"N","url":null,"broadband_type_id":6}
{"id":null,"anchorname":"BJA, INC.","address":"3450 NORTHLAKE BLVD, PALM BEACH GARDENS, FL, 33403","bldgnbr":"3450","predir":"0","streetname":"NORTHLAKE","streettype":"BLVD","suffdir":"0","city":"PALM BEACH GARDENS","state_code":"FL","zip5":"33403","latitude":"26.8083830000000000","longitude":"-80.090090000000000","publicwifi":"U","url":"0","broadband_type_id":null}
{"id":null,"anchorname":"Admissions West Office","address":"9150 East Union Avenue Greenwood Village Co 80111","bldgnbr":"9150","predir":"East","streetname":"Union","streettype":"Avenue","suffdir":null,"city":"Greenwood Village","state_code":"CO","zip5":"80111","latitude":"39.6309529990000000","longitude":"-104.88296165700000","publicwifi":"N","url":null,"broadband_type_id":6}
{"id":null,"anchorname":"INFUCENTERS, LLC","address":"3450 NORTHLAKE BLVD, PALM BEACH GARDENS, FL, 33403","bldgnbr":"3450","predir":"0","streetname":"NORTHLAKE","streettype":"BLVD","suffdir":"0","city":"PALM BEACH GARDENS","state_code":"FL","zip5":"33403","latitude":"26.8083830000000000","longitude":"-80.090090000000000","publicwifi":"U","url":"0","broadband_type_id":null}
{"id":null,"anchorname":"CITY OF RIVIERA BEACH","address":"600 W BLUE HERON BLVD., RIVIERA BEACH, FL, 33404","bldgnbr":"600","predir":"W","streetname":"BLUE HERON","streettype":"BLVD.","suffdir":"0","city":"RIVIERA BEACH","state_code":"FL","zip5":"33404","latitude":"26.7834257200000000","longitude":"-80.064503130000000","publicwifi":"Y","url":"0","broadband_type_id":1}
{"id":null,"anchorname":"R J HENDLEY CHRISTIAN EDUCATION CENTER","address":"2800 AVENUE R, WEST PALM BEACH, FL 33404","bldgnbr":"2800","predir":null,"streetname":"R","streettype":"0","suffdir":null,"city":"WEST PALM BEACH","state_code":"FL","zip5":"33404","latitude":"26.7858698600000000","longitude":"-80.078271940000000","publicwifi":"U","url":"0","broadband_type_id":6}
{"id":null,"anchorname":"ORTHOSPORT GROUP","address":"4360 NORTHLAKE BLVD, PALM BEACH GARDENS, FL, 33410","bldgnbr":"4360","predir":"0","streetname":"NORTHLAKE","streettype":"BLVD","suffdir":"0","city":"PALM BEACH GARDENS","state_code":"FL","zip5":"33410","latitude":"26.8087630000000000","longitude":"-80.103696000000000","publicwifi":"U","url":"0","broadband_type_id":null}
{"id":null,"anchorname":"SELECT PHYSICAL THERAPY HOLDINGS INC","address":"6000 TURKEY LAKE RD, ORLANDO, FL, 32819","bldgnbr":"6000","predir":"0","streetname":"TURKEY LAKE","streettype":"RD","suffdir":"0","city":"ORLANDO","state_code":"FL","zip5":"32819","latitude":"28.4767400000000000","longitude":"-81.475082000000000","publicwifi":"U","url":"0","broadband_type_id":3}
{"id":null,"anchorname":"DRIFTWOOD ACADEMY","address":"605 FLAGLER BLVD, WEST PALM BEACH, FL 33403","bldgnbr":"605","predir":null,"streetname":"FLAGLER","streettype":"BLVD","suffdir":null,"city":"WEST PALM BEACH","state_code":"FL","zip5":"33403","latitude":"26.8010288700000000","longitude":"-80.064611670000000","publicwifi":"U","url":"0","broadband_type_id":6}
{"id":null,"anchorname":"BRIGHT FUTURE CHILD DEVELOPMENT CENTER","address":"910 WEST ILEX DRIVE, LAKE PARK, FL 33403","bldgnbr":"910","predir":null,"streetname":"ILEX","streettype":"DR","suffdir":null,"city":"LAKE PARK","state_code":"FL","zip5":"33403","latitude":"26.8006947800000000","longitude":"-80.071592030000000","publicwifi":"U","url":"0","broadband_type_id":null}
{"id":null,"anchorname":"FLORIDA DEPARTMENT OF JUVENILE JUSTICE","address":"406 US HIGHWAY 1, LAKE PARK, FL 33403","bldgnbr":"406","predir":null,"streetname":"US HWY 1","streettype":"0","suffdir":null,"city":"LAKE PARK","state_code":"FL","zip5":"33403","latitude":"26.7955090600000000","longitude":"-80.054525550000000","publicwifi":"Y","url":"0","broadband_type_id":null}
{"id":null,"anchorname":"KINDRED HOSPITAL PALM BEACH LLC","address":"5555 W BLUE HERON BLVD, RIVIERA BEACH, FL, 33418","bldgnbr":"5555","predir":"W","streetname":"BLUE HERON","streettype":"BLVD","suffdir":"0","city":"RIVIERA BEACH","state_code":"FL","zip5":"33418","latitude":"26.7834540000000000","longitude":"-80.110637000000000","publicwifi":"U","url":"0","broadband_type_id":3}
{"id":null,"anchorname":"CORA HEALTH SERVICES INC","address":"3450 NORTHLAKE BLVD, PALM BEACH GARDENS, FL, 33403","bldgnbr":"3450","predir":"0","streetname":"NORTHLAKE","streettype":"BLVD","suffdir":"0","city":"PALM BEACH GARDENS","state_code":"FL","zip5":"33403","latitude":"26.8083830000000000","longitude":"-80.090090000000000","publicwifi":"U","url":"0","broadband_type_id":3}
{"id":null,"anchorname":"NORTHLAKE MEDICAL","address":"3450 NORTHLAKE BLVD, LAKE PARK, FL, 33403","bldgnbr":"3450","predir":"0","streetname":"NORTHLAKE","streettype":"BLVD","suffdir":"0","city":"LAKE PARK","state_code":"FL","zip5":"33403","latitude":"26.8083830000000000","longitude":"-80.090090000000000","publicwifi":"U","url":"0","broadband_type_id":3}
{"id":null,"anchorname":"NORTHLAKE MEDICAL CENTER","address":"4300 NORTHLAKE BLVD, PALM BEACH GARDENS, FL, 33410","bldgnbr":"4300","predir":"0","streetname":"NORTHLAKE","streettype":"BLVD","suffdir":"0","city":"PALM BEACH GARDENS","state_code":"FL","zip5":"33410","latitude":"26.8087360000000000","longitude":"-80.102686000000000","publicwifi":"U","url":"0","broadband_type_id":3}
{"id":null,"anchorname":"GROVE PARK ELEMENTARY SCHOOL","address":"8330 N MILITARY TRL, PALM BEACH GARDENS, FL 33410","bldgnbr":"8330","predir":null,"streetname":"MILITARY","streettype":"TRL","suffdir":null,"city":"PALM BEACH GARDENS","state_code":"FL","zip5":"33410","latitude":"26.7989270400000000","longitude":"-80.105837860000000","publicwifi":"Y","url":"0","broadband_type_id":6}
{"id":null,"anchorname":"COASTAL MIDDLE \u0026 SENIOR HIGH SCHOOL","address":"730 5TH STREET, LAKE PARK, FL 33403","bldgnbr":"730","predir":null,"streetname":"5TH","streettype":"ST","suffdir":null,"city":"LAKE PARK","state_code":"FL","zip5":"33403","latitude":"26.7988284800000000","longitude":"-80.062780370000000","publicwifi":"U","url":"0","broadband_type_id":6}
{"id":null,"anchorname":"LAKE PARK PUBLIC LIBRARY","address":"529 PARK AVE, LAKE PARK, FL 33403","bldgnbr":"529","predir":null,"streetname":"PARK","streettype":"AVE","suffdir":null,"city":"LAKE PARK","state_code":"FL","zip5":"33403","latitude":"26.7989021000000000","longitude":"-80.063110360000000","publicwifi":"Y","url":"0","broadband_type_id":6}
{"id":null,"anchorname":"LAKE PARK BAPTIST SCHOOL","address":"625 PARK AVENUE, WEST PALM BEACH, FL 33403","bldgnbr":"625","predir":null,"streetname":"PARK","streettype":"AVE","suffdir":null,"city":"WEST PALM BEACH","state_code":"FL","zip5":"33403","latitude":"26.7989573200000000","longitude":"-80.065470160000000","publicwifi":"U","url":"0","broadband_type_id":6}
{"id":null,"anchorname":"LAKE PARK ELEMENTARY SCHOOL","address":"410 3RD ST, WEST PALM BEACH, FL 33403","bldgnbr":"410","predir":null,"streetname":"3RD","streettype":"ST","suffdir":null,"city":"WEST PALM BEACH","state_code":"FL","zip5":"33403","latitude":"26.7962290000000000","longitude":"-80.059840750000000","publicwifi":"Y","url":"0","broadband_type_id":6}
{"id":null,"anchorname":"BALDWIN PREP SCHOOL","address":"200 CASTLEWOOD DR, NORTH PALM BEACH, FL 33408","bldgnbr":"200","predir":null,"streetname":"CASTLEWOOD","streettype":"DR","suffdir":null,"city":"NORTH PALM BEACH","state_code":"FL","zip5":"33408","latitude":"26.8056711500000000","longitude":"-80.053940420000000","publicwifi":"U","url":"0","broadband_type_id":6}
{"id":null,"anchorname":"POTENTIAL PREPARATORY SCHOOL","address":"406 N. FEDERAL HIGHWAY, #3, LAKE PARK, FL 33403","bldgnbr":"406","predir":null,"streetname":"FEDERAL","streettype":"HWY","suffdir":null,"city":"LAKE PARK","state_code":"FL","zip5":"33403","latitude":"26.7955054700000000","longitude":"-80.054473490000000","publicwifi":"U","url":"0","broadband_type_id":6}
{"id":null,"anchorname":"NORTH PALM BEACH POLICE DEPARTMENT","address":"560 US HIGHWAY 1, NORTH PALM BEACH, FL 33408","bldgnbr":"560","predir":null,"streetname":"US HWY 1","streettype":"0","suffdir":null,"city":"NORTH PALM BEACH","state_code":"FL","zip5":"33408","latitude":"26.8123428800000000","longitude":"-80.056743980000000","publicwifi":"Y","url":"0","broadband_type_id":4}
{"id":null,"anchorname":"NORTH PALM BEACH FIRE DEPARTMENT","address":"560 US HWY 1, NORTH PALM BEACH, FL 33408","bldgnbr":"560","predir":null,"streetname":"US HWY 1","streettype":"0","suffdir":null,"city":"NORTH PALM BEACH","state_code":"FL","zip5":"33408","latitude":"26.8124046800000000","longitude":"-80.056474190000000","publicwifi":"U","url":"0","broadband_type_id":5}
{"id":null,"anchorname":"RIVIERA BEACH POLICE DEPARTMENT","address":"600 W BLUE HERON BLVD, RIVIERA BEACH, FL 33404","bldgnbr":"600","predir":null,"streetname":"BLUE HERON","streettype":"BLVD","suffdir":null,"city":"RIVIERA BEACH","state_code":"FL","zip5":"33404","latitude":"26.7834257200000000","longitude":"-80.064503130000000","publicwifi":"Y","url":"0","broadband_type_id":4}
{"id":null,"anchorname":"RIVIERA BEACH PUBLIC LIBRARY","address":"600 W BLUE HERON BLVD, RIVIERA BEACH, FL 33404","bldgnbr":"600","predir":null,"streetname":"BLUE HERON","streettype":"BLVD","suffdir":null,"city":"RIVIERA BEACH","state_code":"FL","zip5":"33404","latitude":"26.7842617700000000","longitude":"-80.064772610000000","publicwifi":"Y","url":"0","broadband_type_id":6}
{"id":null,"anchorname":"RIVIERA BEACH FIRE DEPARTMENT STATION 1","address":"600 W BLUE HERON BLVD, RIVIERA BEACH, FL 33404","bldgnbr":"600","predir":null,"streetname":"BLUE HERON","streettype":"BLVD","suffdir":null,"city":"RIVIERA BEACH","state_code":"FL","zip5":"33404","latitude":"26.7837520200000000","longitude":"-80.064473480000000","publicwifi":"U","url":"0","broadband_type_id":5}
{"id":null,"anchorname":"SUNCOAST HIGH SCHOOL","address":"600 W 28TH ST, WEST PALM BEACH, FL 33404","bldgnbr":"600","predir":null,"streetname":"28TH","streettype":"ST","suffdir":null,"city":"WEST PALM BEACH","state_code":"FL","zip5":"33404","latitude":"26.7879214600000000","longitude":"-80.065118270000000","publicwifi":"Y","url":"0","broadband_type_id":6}
{"id":null,"anchorname":"PALM BEACH SDA BILINGUAL SCHOOL.","address":"2850 AVENUE F, WEST PALM BEACH, FL 33404","bldgnbr":"2850","predir":null,"streetname":"F","streettype":"0","suffdir":null,"city":"WEST PALM BEACH","state_code":"FL","zip5":"33404","latitude":"26.7856722300000000","longitude":"-80.057575600000000","publicwifi":"U","url":"0","broadband_type_id":6}
{"id":null,"anchorname":"WASHINGTON ELEMENTARY MAGNET SCHOOL","address":"1709 W 30TH ST, WEST PALM BEACH, FL 33404","bldgnbr":"1709","predir":null,"streetname":"30TH","streettype":"ST","suffdir":null,"city":"WEST PALM BEACH","state_code":"FL","zip5":"33404","latitude":"26.7874502400000000","longitude":"-80.083501850000000","publicwifi":"Y","url":"0","broadband_type_id":6}
{"id":null,"anchorname":"FLORIDA DEPARTMENT OF HEALTH CHILDREN'S MEDICAL SERVICES","address":"5101 GREENWOOD AVE, WEST PALM BEACH, FL 33407","bldgnbr":"5101","predir":null,"streetname":"GREENWOOD","streettype":"AVE","suffdir":null,"city":"WEST PALM BEACH","state_code":"FL","zip5":"33407","latitude":"26.7568891300000000","longitude":"-80.060535250000000","publicwifi":"Y","url":"0","broadband_type_id":3}
{"id":null,"anchorname":"FLORIDA DEPARTMENT OF HEALTH","address":"5305 GREENWOOD AVE, WEST PALM BEACH, FL 33407","bldgnbr":"5305","predir":null,"streetname":"GREENWOOD","streettype":"AVE","suffdir":null,"city":"PALM BEACH","state_code":"FL","zip5":"33407","latitude":"26.7586818500000000","longitude":"-80.060372610000000","publicwifi":"Y","url":"0","broadband_type_id":3}
{"id":null,"anchorname":"45TH STREET MENTAL HEALTH CENTER - OAKWOOD CENTER OF THE PALM BEACHES, INC.","address":"1041 45TH STREET, WEST PALM BEACH, FL 33407","bldgnbr":"1041","predir":null,"streetname":"45TH","streettype":"ST","suffdir":null,"city":"WEST PALM BEACH","state_code":"FL","zip5":"33407","latitude":"26.7537050300000000","longitude":"-80.067204170000000","publicwifi":"U","url":null,"broadband_type_id":3}
{"id":null,"anchorname":"Colorado State Patrol - Troop 5B","address":"1205 West Avenue Alamosa Co 81101","bldgnbr":"1205","predir":null,"streetname":"West","streettype":"Avenue","suffdir":null,"city":"Alamosa","state_code":"CO","zip5":"81101","latitude":"37.4599100360000000","longitude":"-105.87586672400000","publicwifi":"N","url":null,"broadband_type_id":4}
{"id":null,"anchorname":"PALM BEACH INSTITUTE OF TECHNOLOGY","address":"927 45TH ST, WEST PALM BEACH, FL 33407","bldgnbr":"927","predir":null,"streetname":"45TH","streettype":"ST","suffdir":null,"city":"WEST PALM BEACH","state_code":"FL","zip5":"33407","latitude":"26.7532534900000000","longitude":"-80.063938340000000","publicwifi":"U","url":"0","broadband_type_id":1}
{"id":null,"anchorname":"FERD AND GLADYS ALPERT JEWISH FAMILY \u0026 CHILDREN'S SVCS OF PB CO","address":"5841 CORPORATE WAY STE 200, WEST PALM BEACH, FL, 33407","bldgnbr":"5841","predir":"0","streetname":"CORPORATE","streettype":"WAY","suffdir":"STE 200","city":"WEST PALM BEACH","state_code":"FL","zip5":"33407","latitude":"26.7628770000000000","longitude":"-80.091165000000000","publicwifi":"U","url":"0","broadband_type_id":6}
{"id":null,"anchorname":"NASSAU COMMUNITY ACADEMY","address":"850935 US HWY 17 N BLDG 1201, YULEE, FL 32097","bldgnbr":"850935","predir":null,"streetname":"US HWY 17","streettype":"0","suffdir":null,"city":"YULEE","state_code":"FL","zip5":"32097","latitude":"30.6346542200000000","longitude":"-81.605219560000000","publicwifi":"Y","url":"0","broadband_type_id":1}
{"id":null,"anchorname":"RICHARD W. KAPLAN D.D.S., M.D., P.A.","address":"5305 GREENWOOD AVE, WEST PALM BEACH, FL, 33407","bldgnbr":"5305","predir":"0","streetname":"GREENWOOD","streettype":"AVE","suffdir":"0","city":"WEST PALM BEACH","state_code":"FL","zip5":"33407","latitude":"26.7586790000000000","longitude":"-80.060377000000000","publicwifi":"U","url":"0","broadband_type_id":null}
{"id":null,"anchorname":"FOUNTAIN IMAGING OF WEST PALM BEACH","address":"5841 CORPORATE WAY, WEST PALM BEACH, FL, 33407","bldgnbr":"5841","predir":"0","streetname":"CORPORATE","streettype":"WAY","suffdir":"0","city":"WEST PALM BEACH","state_code":"FL","zip5":"33407","latitude":"26.7628770000000000","longitude":"-80.091165000000000","publicwifi":"U","url":"0","broadband_type_id":6}
{"id":null,"anchorname":"TENET ST. MARY'S, INC.","address":"901 45TH ST, WEST PALM BEACH, FL, 33407","bldgnbr":"901","predir":"0","streetname":"45TH","streettype":"ST","suffdir":"0","city":"WEST PALM BEACH","state_code":"FL","zip5":"33407","latitude":"26.7532660000000000","longitude":"-80.062814000000000","publicwifi":"U","url":"0","broadband_type_id":null}
{"id":null,"anchorname":"WEST PALM BEACH MRI, LLC","address":"5601 CORPORATE WAY, WEST PALM BEACH, FL, 33407","bldgnbr":"5601","predir":"0","streetname":"CORPORATE","streettype":"WAY","suffdir":"0","city":"WEST PALM BEACH","state_code":"FL","zip5":"33407","latitude":"26.7604820000000000","longitude":"-80.089171000000000","publicwifi":"U","url":"0","broadband_type_id":6}
{"id":null,"anchorname":"CARP","address":"5400 EAST AVENUE, WEST PALM BEACH, FL 33407","bldgnbr":"5400","predir":null,"streetname":"EAST","streettype":"AVE","suffdir":null,"city":"WEST PALM BEACH","state_code":"FL","zip5":"33407","latitude":"26.7596409700000000","longitude":"-80.067197870000000","publicwifi":"Y","url":"0","broadband_type_id":null}
{"id":null,"anchorname":"JOSEPH LITTLES-NGUZO SABA","address":"1601 N TAMARIND AVE, WEST PALM BEACH, FL, 33407","bldgnbr":"1601","predir":"N","streetname":"TAMARIND","streettype":"AVE","suffdir":"0","city":"WEST PALM BEACH","state_code":"FL","zip5":"33407","latitude":"26.7274560000000000","longitude":"-80.061655000000000","publicwifi":"Y","url":"0","broadband_type_id":6}
{"id":null,"anchorname":"RENAISSANCE LEARNING CENTER","address":"5800 CORPORATE DRIVE, WEST PALM BEACH, FL 33407","bldgnbr":"5800","predir":null,"streetname":"CORPORATE","streettype":"DR","suffdir":null,"city":"WEST PALM BEACH","state_code":"FL","zip5":"33407","latitude":"26.7642034700000000","longitude":"-80.092114680000000","publicwifi":"Y","url":"0","broadband_type_id":6}
{"id":null,"anchorname":"ATLANTIC KIDNEY CENTER LLC","address":"4700 N CONGRESS AVE, WEST PALM BEACH, FL, 33407","bldgnbr":"4700","predir":"N","streetname":"CONGRESS","streettype":"AVE","suffdir":"0","city":"WEST PALM BEACH","state_code":"FL","zip5":"33407","latitude":"26.7625060000000000","longitude":"-80.086348000000000","publicwifi":"U","url":"0","broadband_type_id":null}
{"id":null,"anchorname":"GARDENS LTC PHARMACY, LLC","address":"2100 45TH ST, WEST PALM BEACH, FL, 33407","bldgnbr":"2100","predir":"0","streetname":"45TH","streettype":"ST","suffdir":"0","city":"WEST PALM BEACH","state_code":"FL","zip5":"33407","latitude":"26.7587250000000000","longitude":"-80.086953000000000","publicwifi":"U","url":"0","broadband_type_id":3}
{"id":null,"anchorname":"INTERMED SERVICES, PA","address":"1115 45TH ST, WEST PALM BEACH, FL, 33407","bldgnbr":"1115","predir":"0","streetname":"45TH","streettype":"ST","suffdir":"0","city":"WEST PALM BEACH","state_code":"FL","zip5":"33407","latitude":"26.7533430000000000","longitude":"-80.070032000000000","publicwifi":"U","url":"0","broadband_type_id":6}
{"id":null,"anchorname":"PALM BEACH PSYCHIATIST \u0026 ADDITION CENTER","address":"1115 45TH ST, WEST PALM BEACH, FL, 33407","bldgnbr":"1115","predir":"0","streetname":"45TH","streettype":"ST","suffdir":"0","city":"WEST PALM BEACH","state_code":"FL","zip5":"33407","latitude":"26.7533430000000000","longitude":"-80.070032000000000","publicwifi":"U","url":"0","broadband_type_id":6}
{"id":null,"anchorname":"FLORIDA DEPARTMENT OF CORRECTIONS W PALM BCH CENTRAL OFFICE","address":"4480 S TIFFANY DR, WEST PALM BEACH, FL 33407","bldgnbr":"4480","predir":null,"streetname":"TIFFANY","streettype":"DR","suffdir":null,"city":"WEST PALM BCH","state_code":"FL","zip5":"33407","latitude":"26.7536947900000000","longitude":"-80.082287170000000","publicwifi":"Y","url":"0","broadband_type_id":null}
{"id":null,"anchorname":"FLORIDA DEPARTMENT OF ELDER AFFAIRS","address":"4400 N CONGRESS AVE, WEST PALM BEACH, FL 33407","bldgnbr":"4400","predir":null,"streetname":"CONGRESS","streettype":"AVE","suffdir":null,"city":"WEST PALM BEACH","state_code":"FL","zip5":"33407","latitude":"26.7568838600000000","longitude":"-80.086716990000000","publicwifi":"Y","url":"0","broadband_type_id":null}
{"id":null,"anchorname":"FLORIDA DEPARTMENT OF CHILDREN AND FAMILIES","address":"2051 DR MARTIN LUTHER KING JR BLVD, RIVIERA BEACH, FL 33404","bldgnbr":"2051","predir":null,"streetname":"MARTIN LUTHER KING JR","streettype":"BLVD","suffdir":null,"city":"RIVIERA BEACH","state_code":"FL","zip5":"33404","latitude":"26.7699978700000000","longitude":"-80.089053880000000","publicwifi":"Y","url":"0","broadband_type_id":6}
{"id":null,"anchorname":"CITY OF RIVIERA BEACH","address":"2051 MARTIN LUTHER KING BLVD, RIVIERA BEACH, FL, 33404","bldgnbr":"2051","predir":"0","streetname":"MARTIN LUTHER KING","streettype":"BLVD","suffdir":"0","city":"RIVIERA BEACH","state_code":"FL","zip5":"33404","latitude":"26.7699990000000000","longitude":"-80.089160000000000","publicwifi":"Y","url":"0","broadband_type_id":1}
{"id":null,"anchorname":"AMERICAN PAIN MANAGEMENT CENTER INC","address":"2100 45TH ST, WEST PALM BEACH, FL, 33407","bldgnbr":"2100","predir":"0","streetname":"45TH","streettype":"ST","suffdir":"0","city":"WEST PALM BEACH","state_code":"FL","zip5":"33407","latitude":"26.7587250000000000","longitude":"-80.086953000000000","publicwifi":"U","url":"0","broadband_type_id":null}
{"id":null,"anchorname":"NICKLAUS CHILDREN'S HOSPITAL","address":"901 45TH STREET, WEST PALM BEACH, FL 33407","bldgnbr":"901","predir":null,"streetname":"45TH","streettype":"ST","suffdir":null,"city":"WEST PALM BEACH","state_code":"FL","zip5":"33407","latitude":"26.7558065800000000","longitude":"-80.062739770000000","publicwifi":"U","url":null,"broadband_type_id":3}
{"id":null,"anchorname":"FLORIDA ATLANTIC UNIVERSITY COLLEGE OF NURSING","address":"5205 GREENWOOD AVE, WEST PALM BEACH, FL, 33407","bldgnbr":"5205","predir":"0","streetname":"GREENWOOD","streettype":"AVE","suffdir":"0","city":"WEST PALM BEACH","state_code":"FL","zip5":"33407","latitude":"26.7577610000000000","longitude":"-80.060457000000000","publicwifi":"U","url":"0","broadband_type_id":3}
{"id":null,"anchorname":"ST MARYS MEDICAL CENTER CLINICAL LABORATORY","address":"901 45TH ST, WEST PALM BEACH, FL, 33407","bldgnbr":"901","predir":"0","streetname":"45TH","streettype":"ST","suffdir":"0","city":"WEST PALM BEACH","state_code":"FL","zip5":"33407","latitude":"26.7532660000000000","longitude":"-80.062814000000000","publicwifi":"U","url":"0","broadband_type_id":3}
{"id":null,"anchorname":"THE JEROME GOLDEN CENTER FOR BEHAVIORAL HEALTH","address":"1041 45TH ST, WEST PALM BEACH, FL, 33407","bldgnbr":"1041","predir":"0","streetname":"45TH","streettype":"ST","suffdir":"0","city":"WEST PALM BEACH","state_code":"FL","zip5":"33407","latitude":"26.7533150000000000","longitude":"-80.066288000000000","publicwifi":"U","url":"0","broadband_type_id":3}
{"id":null,"anchorname":"MANGONIA PARK POLICE DEPARTMENT","address":"1755 E TIFFANY DR, MANGONIA PARK, FL 33407","bldgnbr":"1755","predir":null,"streetname":"TIFFANY","streettype":"DR","suffdir":null,"city":"MANGONIA PARK","state_code":"FL","zip5":"33407","latitude":"26.7553726700000000","longitude":"-80.082040660000000","publicwifi":"U","url":"0","broadband_type_id":4}
{"id":null,"anchorname":"TOWN OF MANGONIA PARK TOWN HALL","address":"1755 E TIFFANY DRIVE, WEST PALM BEACH, FL 33407","bldgnbr":"1755","predir":null,"streetname":"TIFFANY","streettype":"DR","suffdir":null,"city":"WEST PALM BEACH","state_code":"FL","zip5":"33407","latitude":"26.7555465400000000","longitude":"-80.082016620000000","publicwifi":"U","url":"0","broadband_type_id":2}
{"id":null,"anchorname":"COLUMBIA HOSPITAL PALM BEACHES LIMITED PARTNERSHIP","address":"2151 45TH ST, WEST PALM BEACH, FL, 33407","bldgnbr":"2151","predir":"0","streetname":"45TH","streettype":"ST","suffdir":"0","city":"WEST PALM BEACH","state_code":"FL","zip5":"33407","latitude":"26.7590150000000000","longitude":"-80.085942000000000","publicwifi":"U","url":"0","broadband_type_id":3}
{"id":null,"anchorname":"COLUMBIA HOSPITAL","address":"2201 45TH STREET, WEST PALM BEACH, FL 33407","bldgnbr":"2201","predir":null,"streetname":"45TH","streettype":"ST","suffdir":null,"city":"WEST PALM BEACH","state_code":"FL","zip5":"33407","latitude":"26.7614505900000000","longitude":"-80.087632740000000","publicwifi":"Y","url":null,"broadband_type_id":3}
{"id":null,"anchorname":"AMERICAN CURRENT CARE PA","address":"4455 MEDICAL CENTER WAY, WEST PALM BEACH, FL, 33407","bldgnbr":"4455","predir":"0","streetname":"MEDICAL CENTER","streettype":"WAY","suffdir":"0","city":"WEST PALM BEACH","state_code":"FL","zip5":"33407","latitude":"26.7578770000000000","longitude":"-80.085609000000000","publicwifi":"U","url":"0","broadband_type_id":3}
{"id":null,"anchorname":"CONCENTRA HEALTH SERVICES, INC.","address":"4455 MEDICAL CENTER WAY, WEST PALM BEACH, FL, 33407","bldgnbr":"4455","predir":"0","streetname":"MEDICAL CENTER","streettype":"WAY","suffdir":"0","city":"WEST PALM BEACH","state_code":"FL","zip5":"33407","latitude":"26.7578770000000000","longitude":"-80.085609000000000","publicwifi":"U","url":"0","broadband_type_id":3}
{"id":null,"anchorname":"OCCUPATIONAL HEALTH CENTERS OF THE SOUTHWEST, P.A.","address":"4455 MEDICAL CENTER WAY, WEST PALM BEACH, FL, 33407","bldgnbr":"4455","predir":"0","streetname":"MEDICAL CENTER","streettype":"WAY","suffdir":"0","city":"WEST PALM BEACH","state_code":"FL","zip5":"33407","latitude":"26.7578770000000000","longitude":"-80.085609000000000","publicwifi":"U","url":"0","broadband_type_id":3}
{"id":null,"anchorname":"LAKESIDE DENTAL CARE, PA","address":"2100 45TH ST STE A8, WEST PALM BEACH, FL, 33407","bldgnbr":"2100","predir":"0","streetname":"45TH","streettype":"ST","suffdir":"STE A8","city":"WEST PALM BEACH","state_code":"FL","zip5":"33407","latitude":"26.7587250000000000","longitude":"-80.086953000000000","publicwifi":"U","url":"0","broadband_type_id":3}
{"id":null,"anchorname":"WEST PALM BEACH FIRE DEPARTMENT STATION 7 MANGONIA PARK","address":"5000 N AUSTRALIAN AVE, MANGONIA, FL 33407","bldgnbr":"5000","predir":null,"streetname":"AUSTRALIAN","streettype":"AVE","suffdir":null,"city":"MANGONIA","state_code":"FL","zip5":"33407","latitude":"26.7570448200000000","longitude":"-80.071830750000000","publicwifi":"U","url":"0","broadband_type_id":5}
{"id":null,"anchorname":"City Of Glendale","address":"950 South Birch Street Glendale Co 80222","bldgnbr":"950","predir":"South","streetname":"Birch","streettype":"Street","suffdir":null,"city":"Glendale","state_code":"CO","zip5":"80222","latitude":"39.6988865960000000","longitude":"-104.93616698700000","publicwifi":"N","url":null,"broadband_type_id":1}
{"id":null,"anchorname":"FLORIDA MUNICIPAL POWER AGENCY","address":"6113 PERSHING AVE, ORLANDO, FL, 32822","bldgnbr":"6113","predir":"0","streetname":"PERSHING","streettype":"AVE","suffdir":"0","city":"ORLANDO","state_code":"FL","zip5":"32822","latitude":"28.4990734200000000","longitude":"-81.301801230000000","publicwifi":"Y","url":"0","broadband_type_id":1}
{"id":null,"anchorname":"Active Learners Academy","address":"55 East Costilla Avenue Centennial Co 80122","bldgnbr":"55","predir":"East","streetname":"Costilla","streettype":"Avenue","suffdir":null,"city":"Centennial","state_code":"CO","zip5":"80122","latitude":"39.5904752380000000","longitude":"-104.98704545500000","publicwifi":"N","url":null,"broadband_type_id":6}
{"id":null,"anchorname":"CITY OF RIVIERA BEACH","address":"1124 BROADWAY, RIVIERA BEACH, FL, 33404","bldgnbr":"1124","predir":"0","streetname":"BROADWAY","streettype":"0","suffdir":"0","city":"RIVIERA BEACH","state_code":"FL","zip5":"33404","latitude":"26.7728950000000000","longitude":"-80.055005000000000","publicwifi":"Y","url":"0","broadband_type_id":1}
{"id":null,"anchorname":"HOPE LEARNING COMMUNITY OF RIVIERA BEACH, INC.","address":"21 W 22ND STREET, WEST PALM BEACH, FL 33404","bldgnbr":"21","predir":null,"streetname":"22ND","streettype":"ST","suffdir":null,"city":"WEST PALM BEACH","state_code":"FL","zip5":"33404","latitude":"26.7802147800000000","longitude":"-80.055889840000000","publicwifi":"Y","url":"0","broadband_type_id":6}
{"id":null,"anchorname":"PETER PUMPKIN","address":"1671 WEST 15TH STREET, RIVIERA BEACH, FL 33404","bldgnbr":"1671","predir":null,"streetname":"15TH","streettype":"ST","suffdir":null,"city":"RIVIERA BEACH","state_code":"FL","zip5":"33404","latitude":"26.7754697700000000","longitude":"-80.082477500000000","publicwifi":"U","url":"0","broadband_type_id":null}
{"id":null,"anchorname":"PARENT CHILD CENTER","address":"2001 W BLUE HERON BLVD, RIVIERA BEACH, FL, 33404","bldgnbr":"2001","predir":"W","streetname":"BLUE HERON","streettype":"BLVD","suffdir":"0","city":"RIVIERA BEACH","state_code":"FL","zip5":"33404","latitude":"26.7822210000000000","longitude":"-80.087634000000000","publicwifi":"U","url":"0","broadband_type_id":null}
{"id":null,"anchorname":"CITY OF RIVIERA BEACH","address":"2409 AVENUE H WEST, RIVIERA BEACH, FL, 33404","bldgnbr":"2409","predir":"0","streetname":"AVENUE H","streettype":"WEST","suffdir":"0","city":"RIVIERA BEACH","state_code":"FL","zip5":"33404","latitude":"26.7819040000000000","longitude":"-80.063945000000000","publicwifi":"Y","url":"0","broadband_type_id":1}
{"id":null,"anchorname":"DR. JOHN P CHRISTENSEN P A","address":"3001 BROADWAY, WEST PALM BEACH, FL, 33407","bldgnbr":"3001","predir":"0","streetname":"BROADWAY","streettype":"0","suffdir":"0","city":"WEST PALM BEACH","state_code":"FL","zip5":"33407","latitude":"26.7399600000000000","longitude":"-80.056791000000000","publicwifi":"U","url":"0","broadband_type_id":6}
{"id":null,"anchorname":"HIGHRIDGE FAMILY CENTER","address":"4200 N AUSTRALIAN AVE, WEST PALM BEACH, FL 33407","bldgnbr":"4200","predir":null,"streetname":"AUSTRALIAN","streettype":"AVE","suffdir":null,"city":"WEST PALM BEACH","state_code":"FL","zip5":"33407","latitude":"26.7495726000000000","longitude":"-80.071305100000000","publicwifi":"Y","url":"0","broadband_type_id":6}
{"id":null,"anchorname":"LAKE VIEW COURT","address":"920 WEST KENNEDY BLVD, ORLANDO, FL, 32810","bldgnbr":"920","predir":"WEST","streetname":"KENNEDY","streettype":"BLVD","suffdir":"0","city":"ORLANDO","state_code":"FL","zip5":"32810","latitude":"28.6184330000000000","longitude":"-81.402259000000000","publicwifi":"U","url":"0","broadband_type_id":1}
{"id":null,"anchorname":"PALM BEACH MOBILE SONOGRAPHY INC.","address":"3205 FLORAL AVE, WEST PALM BEACH, FL, 33407","bldgnbr":"3205","predir":"0","streetname":"FLORAL","streettype":"AVE","suffdir":"0","city":"WEST PALM BEACH","state_code":"FL","zip5":"33407","latitude":"26.7419900000000000","longitude":"-80.050688000000000","publicwifi":"U","url":"0","broadband_type_id":null}
{"id":null,"anchorname":"FLORIDA DEPARTMENT OF JUVENILE JUSTICE PALM BEACH JUVENILE DETENTION CENTER","address":"1100 45TH ST, WEST PALM BEACH, FL 33407","bldgnbr":"1100","predir":null,"streetname":"45TH","streettype":"ST","suffdir":null,"city":"WEST PALM BEACH","state_code":"FL","zip5":"33407","latitude":"26.7530765300000000","longitude":"-80.068484170000000","publicwifi":"Y","url":"0","broadband_type_id":null}
{"id":null,"anchorname":"FLORIDA DEPARTMENT OF JUVENILE JUSTICE","address":"1100 45TH STREET, West Palm Beach, FL, 33407","bldgnbr":"1100","predir":"0","streetname":"45TH","streettype":"STREET","suffdir":"0","city":"West Palm Beach","state_code":"FL","zip5":"33407","latitude":"26.7530760000000000","longitude":"-80.068487000000000","publicwifi":"Y","url":"0","broadband_type_id":null}
{"id":null,"anchorname":"PALM BEACH REGIONAL DETENTION CENTER","address":"1100 45TH ST BLDG A, WEST PALM BEACH, FL 33407","bldgnbr":"1100","predir":null,"streetname":"45TH","streettype":"ST","suffdir":null,"city":"WEST PALM BEACH","state_code":"FL","zip5":"33407","latitude":"26.7513144800000000","longitude":"-80.067683600000000","publicwifi":"Y","url":"0","broadband_type_id":null}
{"id":null,"anchorname":"SERENITY NOW CMHC, INC.","address":"2724 N AUSTRALIAN AVE, WEST PALM BEACH, FL, 33407","bldgnbr":"2724","predir":"N","streetname":"AUSTRALIAN","streettype":"AVE","suffdir":"0","city":"WEST PALM BEACH","state_code":"FL","zip5":"33407","latitude":"26.7381290000000000","longitude":"-80.068177000000000","publicwifi":"U","url":"0","broadband_type_id":null}
{"id":null,"anchorname":"PALM BEACH COUNTY HEALTH DEPARTMENT","address":"7289 GARDEN ROAD, RIVIERA BEACH, FL 33404","bldgnbr":"7289","predir":null,"streetname":"GARDEN","streettype":"RD","suffdir":null,"city":"RIVIERA BEACH","state_code":"FL","zip5":"33404","latitude":"26.7823571900000000","longitude":"-80.092522910000000","publicwifi":"Y","url":"0","broadband_type_id":3}
{"id":null,"anchorname":"INLET GROVE HIGH SCHOOL AND ADULT EDUCATION","address":"7071 GARDEN RD, WEST PALM BEACH, FL 33404","bldgnbr":"7071","predir":null,"streetname":"GARDEN","streettype":"RD","suffdir":null,"city":"WEST PALM BEACH","state_code":"FL","zip5":"33404","latitude":"26.7803571900000000","longitude":"-80.094519110000000","publicwifi":"Y","url":"0","broadband_type_id":6}
{"id":null,"anchorname":"FLORIDA DEPARTMENT OF HEALTH","address":"1050 W 15TH ST, RIVIERA BEACH, FL 33404","bldgnbr":"1050","predir":null,"streetname":"15TH","streettype":"ST","suffdir":null,"city":"RIVIERA BCH","state_code":"FL","zip5":"33404","latitude":"26.7756512500000000","longitude":"-80.068419380000000","publicwifi":"Y","url":"0","broadband_type_id":3}
{"id":null,"anchorname":"LINCOLN ELEMENTARY SCHOOL","address":"1160 W 10TH ST, WEST PALM BEACH, FL 33404","bldgnbr":"1160","predir":null,"streetname":"10TH","streettype":"ST","suffdir":null,"city":"WEST PALM BEACH","state_code":"FL","zip5":"33404","latitude":"26.7720168600000000","longitude":"-80.073030250000000","publicwifi":"Y","url":"0","broadband_type_id":6}
{"id":null,"anchorname":"PALM BEACH COUNTY HEALTH DEPARTMENT","address":"851 AVENUE P, RIVIERA BEACH, FL 33404","bldgnbr":"851","predir":null,"streetname":"P","streettype":"0","suffdir":null,"city":"RIVIERA BEACH","state_code":"FL","zip5":"33404","latitude":"26.7711037800000000","longitude":"-80.076872030000000","publicwifi":"Y","url":"0","broadband_type_id":3}
{"id":null,"anchorname":"FLORIDA DEPARTMENT OF HEALTH","address":"851 AVE. P, RIVIERA BCH, FL, 33404","bldgnbr":"851","predir":"0","streetname":"AVE. P","streettype":"0","suffdir":"0","city":"RIVIERA BCH","state_code":"FL","zip5":"33404","latitude":"26.7728700000000000","longitude":"-80.076222000000000","publicwifi":"Y","url":"0","broadband_type_id":3}
{"id":null,"anchorname":"TOTAL RENAL CARE INC","address":"2611 POINSETTIA AVE, WEST PALM BEACH, FL, 33407","bldgnbr":"2611","predir":"0","streetname":"POINSETTIA","streettype":"AVE","suffdir":"0","city":"WEST PALM BEACH","state_code":"FL","zip5":"33407","latitude":"26.7363150000000000","longitude":"-80.052880000000000","publicwifi":"U","url":"0","broadband_type_id":3}
{"id":null,"anchorname":"NORTHBORO ELEMENTARY SCHOOL","address":"400 40TH ST, WEST PALM BEACH, FL 33407","bldgnbr":"400","predir":null,"streetname":"40TH","streettype":"ST","suffdir":null,"city":"WEST PALM BEACH","state_code":"FL","zip5":"33407","latitude":"26.7488400600000000","longitude":"-80.052988090000000","publicwifi":"Y","url":"0","broadband_type_id":6}
{"id":null,"anchorname":"THE JEROME GOLDEN CENTER FOR BEHAVIORAL HEALTH","address":"424 METCALF COURT, WEST PALM BEACH, FL, 33407-4211","bldgnbr":"424","predir":"0","streetname":"METCALF","streettype":"COURT","suffdir":"0","city":"WEST PALM BEACH","state_code":"FL","zip5":"33407","latitude":"26.7470700000000000","longitude":"-80.053364000000000","publicwifi":"U","url":"0","broadband_type_id":3}
{"id":null,"anchorname":"WEST PALM BEACH FIRE DEPARTMENT STATION 3","address":"3601 POINSETTA AVE, WEST PALM BEACH, FL 33407","bldgnbr":"3601","predir":null,"streetname":"POINSETTA","streettype":"AVE","suffdir":null,"city":"WEST PALM BEACH","state_code":"FL","zip5":"33407","latitude":"26.7450805000000000","longitude":"-80.052806630000000","publicwifi":"U","url":"0","broadband_type_id":5}
{"id":null,"anchorname":"PALM BEACH COUNTY HEALTH DEPARTMENT","address":"1150 45TH STREET, WEST PALM BEACH, FL 33407","bldgnbr":"1150","predir":null,"streetname":"45TH","streettype":"ST","suffdir":null,"city":"WEST PALM BEACH","state_code":"FL","zip5":"33407","latitude":"26.7518110900000000","longitude":"-80.069243250000000","publicwifi":"Y","url":"0","broadband_type_id":3}
{"id":null,"anchorname":"FLORIDA DEPARTMENT OF HEALTH","address":"1150 45th. St., W. Palm Bch, FL, 33407","bldgnbr":"1150","predir":"0","streetname":"45th.","streettype":"St.","suffdir":"0","city":"W. Palm Bch","state_code":"FL","zip5":"33407","latitude":"26.7530850000000000","longitude":"-80.069267000000000","publicwifi":"Y","url":"0","broadband_type_id":3}
{"id":null,"anchorname":"EDWARD J HEALEY REHABILITATION AND NURSING CENTER","address":"1200 45TH STREET, WEST PALM BEACH, FL, 33407","bldgnbr":"1200","predir":"0","streetname":"45TH","streettype":"STREET","suffdir":"0","city":"WEST PALM BEACH","state_code":"FL","zip5":"33407","latitude":"26.7530750000000000","longitude":"-80.070628000000000","publicwifi":"U","url":"0","broadband_type_id":3}
{"id":null,"anchorname":"PALM BEACH COUNTY HEALTH DEPARTMENT LAB","address":"1150 45TH ST  RM L-200, WEST PALM BEACH, FL, 33407","bldgnbr":"1150","predir":"0","streetname":"45TH","streettype":"ST","suffdir":"RM L-200","city":"WEST PALM BEACH","state_code":"FL","zip5":"33407","latitude":"26.7530850000000000","longitude":"-80.069267000000000","publicwifi":"U","url":"0","broadband_type_id":3}
{"id":null,"anchorname":"COMMUNITY HEALTH CENTER/FIRST BAPTIST CHURCH","address":"2823 N AUSTRALIAN AVE, WEST PALM BEACH, FL, 33407","bldgnbr":"2823","predir":"N","streetname":"AUSTRALIAN","streettype":"AVE","suffdir":"0","city":"WEST PALM BEACH","state_code":"FL","zip5":"33407","latitude":"26.7389330000000000","longitude":"-80.069029000000000","publicwifi":"U","url":"0","broadband_type_id":3}
{"id":null,"anchorname":"BAK MIDDLE SCHOOL OF THE ARTS","address":"1725 ECHO LAKE DR, WEST PALM BEACH, FL 33407","bldgnbr":"1725","predir":null,"streetname":"ECHO LAKE","streettype":"DR","suffdir":null,"city":"WEST PALM BEACH","state_code":"FL","zip5":"33407","latitude":"26.7487740000000000","longitude":"-80.083930840000000","publicwifi":"Y","url":"0","broadband_type_id":6}
{"id":null,"anchorname":"WEST PALM BEACH POLICE DEPARTMENT SUBSTATION","address":"954 30TH STREET, WEST PALM BEACH, FL 33401","bldgnbr":"954","predir":null,"streetname":"30TH","streettype":"ST","suffdir":null,"city":"WEST PALM BEACH","state_code":"FL","zip5":"33401","latitude":"26.7410053600000000","longitude":"-80.063104670000000","publicwifi":"U","url":"0","broadband_type_id":4}
{"id":null,"anchorname":"NORTHMORE ELEMENTARY SCHOOL","address":"4111 N TERRACE DR, WEST PALM BEACH, FL 33407","bldgnbr":"4111","predir":null,"streetname":"TERRACE","streettype":"DR","suffdir":null,"city":"WEST PALM BEACH","state_code":"FL","zip5":"33407","latitude":"26.7502475200000000","longitude":"-80.063491690000000","publicwifi":"Y","url":"0","broadband_type_id":6}
{"id":null,"anchorname":"FLORIDA DENTAL \u0026 DENTURE CTR. 111","address":"2945 N AUSTRALIAN AVE, WEST PALM BEACH, FL, 33407","bldgnbr":"2945","predir":"N","streetname":"AUSTRALIAN","streettype":"AVE","suffdir":"0","city":"WEST PALM BEACH","state_code":"FL","zip5":"33407","latitude":"26.7410610000000000","longitude":"-80.069874000000000","publicwifi":"U","url":"0","broadband_type_id":null}
{"id":null,"anchorname":"PRESIDENTIAL SURGICENTER INC","address":"1501 PRESIDENTIAL WAY, WEST PALM BEACH, FL, 33401","bldgnbr":"1501","predir":"0","streetname":"PRESIDENTIAL","streettype":"WAY","suffdir":"0","city":"WEST PALM BEACH","state_code":"FL","zip5":"33401","latitude":"26.7267950000000000","longitude":"-80.085001000000000","publicwifi":"U","url":"0","broadband_type_id":6}
{"id":null,"anchorname":"CLEOPATRA ORTIZ, MD, PA","address":"1639 FORUM PL STE 7, WEST PALM BEACH, FL, 33401","bldgnbr":"1639","predir":"0","streetname":"FORUM","streettype":"PL","suffdir":"STE 7","city":"WEST PALM BEACH","state_code":"FL","zip5":"33401","latitude":"26.7267160000000000","longitude":"-80.080610000000000","publicwifi":"U","url":"0","broadband_type_id":null}
{"id":null,"anchorname":"SELECT PHYSICAL THERAPY HOLDINGS INC","address":"1181 AND 1185 BLACKWOOD AVENUE, OCOEE, FL, 34761","bldgnbr":"1181","predir":"0","streetname":"BLACKWOOD","streettype":"AVENUE","suffdir":"0","city":"OCOEE","state_code":"FL","zip5":"34761","latitude":"28.5505020000000000","longitude":"-81.529800000000000","publicwifi":"U","url":"0","broadband_type_id":3}
{"id":null,"anchorname":"MORSELIFE THERAPY CORP","address":"4920 LORING DRIVE, WEST PALM BEACH, FL, 33417","bldgnbr":"4920","predir":"0","streetname":"LORING","streettype":"DRIVE","suffdir":"0","city":"WEST PALM BEACH","state_code":"FL","zip5":"33417","latitude":"26.7484950000000000","longitude":"-80.115187000000000","publicwifi":"U","url":"0","broadband_type_id":3}
{"id":null,"anchorname":"BERLIANT ENTERPRISES","address":"2541 METROCENTRE BLVD, WEST PALM BEACH, FL, 33407","bldgnbr":"2541","predir":"0","streetname":"METROCENTRE","streettype":"BLVD","suffdir":"0","city":"WEST PALM BEACH","state_code":"FL","zip5":"33407","latitude":"26.7587050000000000","longitude":"-80.098536000000000","publicwifi":"U","url":"0","broadband_type_id":6}
{"id":null,"anchorname":"FLORIDA DEPARTMENT OF REVENUE","address":"2468 METROCENTRE BLVD E, WEST PALM BEACH, FL 33407","bldgnbr":"2468","predir":null,"streetname":"METROCENTRE","streettype":"BLVD","suffdir":null,"city":"WEST PALM BEACH","state_code":"FL","zip5":"33407","latitude":"26.7575501000000000","longitude":"-80.095636270000000","publicwifi":"Y","url":"0","broadband_type_id":null}
{"id":null,"anchorname":"BERLIANT SLEEP SERVICES LLC","address":"2541 METROCENTRE BLVD, WEST PALM BEACH, FL, 33407","bldgnbr":"2541","predir":"0","streetname":"METROCENTRE","streettype":"BLVD","suffdir":"0","city":"WEST PALM BEACH","state_code":"FL","zip5":"33407","latitude":"26.7587050000000000","longitude":"-80.098536000000000","publicwifi":"U","url":"0","broadband_type_id":6}
{"id":null,"anchorname":"FLORIDA CULINARY INSTITUTE","address":"2400 METROCENTRE BLVD E, WEST PALM BEACH, FL 33407","bldgnbr":"2400","predir":null,"streetname":"METROCENTRE","streettype":"BLVD","suffdir":null,"city":"WEST PALM BEACH","state_code":"FL","zip5":"33407","latitude":"26.7570294200000000","longitude":"-80.092335130000000","publicwifi":"U","url":"0","broadband_type_id":null}
{"id":null,"anchorname":"IMAGING CENTER OF WEST PALM BEACH LLC","address":"2450 METROCENTRE BLVD, WEST PALM BEACH, FL, 33407","bldgnbr":"2450","predir":"0","streetname":"METROCENTRE","streettype":"BLVD","suffdir":"0","city":"WEST PALM BEACH","state_code":"FL","zip5":"33407","latitude":"26.7573220000000000","longitude":"-80.095208000000000","publicwifi":"U","url":"0","broadband_type_id":6}
{"id":null,"anchorname":"ALAN N. KOHN, M.D., PA","address":"2505 METROCENTRE BLVD, WEST PALM BEACH, FL, 33407","bldgnbr":"2505","predir":"0","streetname":"METROCENTRE","streettype":"BLVD","suffdir":"0","city":"WEST PALM BEACH","state_code":"FL","zip5":"33407","latitude":"26.7585120000000000","longitude":"-80.097088000000000","publicwifi":"U","url":"0","broadband_type_id":null}
{"id":null,"anchorname":"ENDOCRINOLOGY \u0026 DIABETES CONSULTANTS","address":"112 1ST WAY, WEST PALM BEACH, FL, 33407","bldgnbr":"112","predir":"0","streetname":"1ST","streettype":"WAY","suffdir":"0","city":"WEST PALM BEACH","state_code":"FL","zip5":"33407","latitude":"26.7507820000000000","longitude":"-80.092738000000000","publicwifi":"U","url":"0","broadband_type_id":6}
{"id":null,"anchorname":"TRADITION OF THE PALM BEACHES (THE)","address":"4880 LORING DRIVE, WEST PALM BEACH, FL, 33417","bldgnbr":"4880","predir":"0","streetname":"LORING","streettype":"DRIVE","suffdir":"0","city":"WEST PALM BEACH","state_code":"FL","zip5":"33417","latitude":"26.7485240000000000","longitude":"-80.116682000000000","publicwifi":"U","url":"0","broadband_type_id":6}
{"id":null,"anchorname":"ARTHUR I MEYER JEWISH ACADEMY","address":"3261 N MILITARY TRAIL, WEST PALM BEACH, FL 33417","bldgnbr":"3261","predir":null,"streetname":"MILITARY","streettype":"TRL","suffdir":null,"city":"WEST PALM BEACH","state_code":"FL","zip5":"33417","latitude":"26.7255781600000000","longitude":"-80.112094240000000","publicwifi":"U","url":"0","broadband_type_id":6}
{"id":null,"anchorname":"ADULT EDUCATION CENTER OF PALM BEACH","address":"2161 N MILITARY TRAIL, WEST PALM BEACH, FL 33417","bldgnbr":"2161","predir":null,"streetname":"MILITARY","streettype":"TRL","suffdir":null,"city":"WEST PALM BEACH","state_code":"FL","zip5":"33417","latitude":"26.7091815100000000","longitude":"-80.112237960000000","publicwifi":"Y","url":"0","broadband_type_id":6}
{"id":null,"anchorname":"STATE OF FLORIDA DIVISION OF ADMINISTRATIVE HEARINGS","address":"5405 OKEECHOBEE BLVD, WEST PALM BEACH, FL 33417","bldgnbr":"5405","predir":null,"streetname":"OKEECHOBEE","streettype":"BLVD","suffdir":null,"city":"W. PALM BCH","state_code":"FL","zip5":"33417","latitude":"26.7073305500000000","longitude":"-80.126083940000000","publicwifi":"Y","url":"0","broadband_type_id":6}
{"id":null,"anchorname":"JOSEPH L MORSE GERIATRIC CENTER INC","address":"4847 FRED GLADSTONE DRIVE, WEST PALM BEACH, FL, 33417","bldgnbr":"4847","predir":"0","streetname":"FRED GLADSTONE","streettype":"DRIVE","suffdir":"0","city":"WEST PALM BEACH","state_code":"FL","zip5":"33417","latitude":"26.7458350000000000","longitude":"-80.116916000000000","publicwifi":"U","url":"0","broadband_type_id":null}
{"id":null,"anchorname":"OHIO BUREAU OF MOTOR VEHICLES","address":"15065 KINSMAN RD MIDDLEFIELD, OH 44062","bldgnbr":"15065","predir":null,"streetname":"KINSMAN RD","streettype":null,"suffdir":null,"city":"MIDDLEFIELD","state_code":"OH","zip5":"44062","latitude":"41.4629890000000000","longitude":"-81.104825000000000","publicwifi":"U","url":null,"broadband_type_id":6}
{"id":null,"anchorname":"ADVANCED SHOULDER ORTHOPAEDICS","address":"5405 OKEECHOBEE BLVD, WEST PALM BEACH, FL, 33417","bldgnbr":"5405","predir":"0","streetname":"OKEECHOBEE","streettype":"BLVD","suffdir":"0","city":"WEST PALM BEACH","state_code":"FL","zip5":"33417","latitude":"26.7073300000000000","longitude":"-80.126087000000000","publicwifi":"U","url":"0","broadband_type_id":null}
{"id":null,"anchorname":"MIDTOWN IMAGING LLC","address":"5405 OKEECHOBEE BLVD, WEST PALM BEACH, FL, 33417","bldgnbr":"5405","predir":"0","streetname":"OKEECHOBEE","streettype":"BLVD","suffdir":"0","city":"WEST PALM BEACH","state_code":"FL","zip5":"33417","latitude":"26.7073300000000000","longitude":"-80.126087000000000","publicwifi":"U","url":"0","broadband_type_id":null}
{"id":null,"anchorname":"WHOLE BODY REHABILITATION INC","address":"5093 OKEECHOBEE BLVD, WEST PALM BEACH, FL, 33417","bldgnbr":"5093","predir":"0","streetname":"OKEECHOBEE","streettype":"BLVD","suffdir":"0","city":"WEST PALM BEACH","state_code":"FL","zip5":"33417","latitude":"26.7072100000000000","longitude":"-80.121625000000000","publicwifi":"U","url":"0","broadband_type_id":null}
{"id":null,"anchorname":"FLORIDA DEPARTMENT OF TRANSPORTATION","address":"99 FLORIDA TURNPIKE WPB INTRCHG, W. PALM BCH, FL","bldgnbr":"99","predir":null,"streetname":"FLORIDA","streettype":"TPKE","suffdir":null,"city":"W. PALM BCH","state_code":"FL","zip5":"ZZ","latitude":"26.7089018100000000","longitude":"-80.137413100000000","publicwifi":"Y","url":"0","broadband_type_id":null}
{"id":null,"anchorname":"AGENCY FOR HEALTH CARE ADMINISTRATION","address":"1655 PALM BEACH LAKES BLVD, WEST PALM BEACH, FL 33401","bldgnbr":"1655","predir":null,"streetname":"PALM BEACH LAKES","streettype":"BLVD","suffdir":null,"city":"WEST PALM BEACH","state_code":"FL","zip5":"33401","latitude":"26.7249531200000000","longitude":"-80.082214450000000","publicwifi":"Y","url":"0","broadband_type_id":3}
{"id":null,"anchorname":"NUCLEAR MEDICINE SCANNING","address":"2500 METROCENTRE BLVD, WEST PALM BEACH, FL, 33407","bldgnbr":"2500","predir":"0","streetname":"METROCENTRE","streettype":"BLVD","suffdir":"0","city":"WEST PALM BEACH","state_code":"FL","zip5":"33407","latitude":"26.7583350000000000","longitude":"-80.097038000000000","publicwifi":"U","url":"0","broadband_type_id":3}
{"id":null,"anchorname":"LINCOLN COLLEGE OF TECHNOLOGY LIBRARY","address":"2410 METROCENTRE BLVD, WEST PALM BEACH, FL 33407","bldgnbr":"2410","predir":null,"streetname":"METROCENTRE","streettype":"BLVD","suffdir":null,"city":"WEST PALM BEACH","state_code":"FL","zip5":"33407","latitude":"26.7570452300000000","longitude":"-80.092370130000000","publicwifi":"U","url":"0","broadband_type_id":6}
{"id":null,"anchorname":"FLORIDA DEPARTMENT OF HEALTH","address":"3505 SHILOH DR, WEST PALM BEACH, FL 33407","bldgnbr":"3505","predir":null,"streetname":"SHILOH","streettype":"DR","suffdir":null,"city":"WEST PALM BEACH","state_code":"FL","zip5":"33407","latitude":"26.7540917500000000","longitude":"-80.105392810000000","publicwifi":"Y","url":"0","broadband_type_id":3}
{"id":null,"anchorname":"PALM BEACH LAKES HIGH SCHOOL AND ADULT EDUCATION","address":"3505 SHILOH DR, WEST PALM BEACH, FL 33407","bldgnbr":"3505","predir":null,"streetname":"SHILOH","streettype":"DR","suffdir":null,"city":"WEST PALM BEACH","state_code":"FL","zip5":"33407","latitude":"26.7556023600000000","longitude":"-80.106480600000000","publicwifi":"Y","url":"0","broadband_type_id":6}
{"id":null,"anchorname":"EGRET LAKE ELEMENTARY SCHOOL","address":"5115 47TH PL N, WEST PALM BEACH, FL, 33417","bldgnbr":"5115","predir":"0","streetname":"47TH","streettype":"PL","suffdir":"N","city":"WEST PALM BEACH","state_code":"FL","zip5":"33417","latitude":"26.7473150000000000","longitude":"-80.118738000000000","publicwifi":"Y","url":"0","broadband_type_id":6}
{"id":null,"anchorname":"RISE ACADEMY SCHOOL OF SCIENCE AND TECHNOLOGY","address":"6101 NW 31ST ST, MARGATE, FL, 33063","bldgnbr":"6101","predir":"NW","streetname":"31ST","streettype":"ST","suffdir":"0","city":"MARGATE","state_code":"FL","zip5":"33063","latitude":"26.2690300000000000","longitude":"-80.206195000000000","publicwifi":"Y","url":"0","broadband_type_id":6}
{"id":null,"anchorname":"MORSELIFE HOME CARE","address":"4920 LORING DR, WEST PALM BEACH, FL, 33417","bldgnbr":"4920","predir":"0","streetname":"LORING","streettype":"DR","suffdir":"0","city":"WEST PALM BEACH","state_code":"FL","zip5":"33417","latitude":"26.7484950000000000","longitude":"-80.115187000000000","publicwifi":"U","url":"0","broadband_type_id":3}
{"id":null,"anchorname":"SCHAFFER ADULT DAY HEALTH CENTER","address":"4847 FRED GLADSTONE DRIVE, WEST PALM BEACH, FL, 33417","bldgnbr":"4847","predir":"0","streetname":"FRED GLADSTONE","streettype":"DRIVE","suffdir":"0","city":"WEST PALM BEACH","state_code":"FL","zip5":"33417","latitude":"26.7458350000000000","longitude":"-80.116916000000000","publicwifi":"U","url":"0","broadband_type_id":3}
{"id":null,"anchorname":"SEMINOLE TRAILS ELEMENTARY SCHOOL","address":"4075 WILLOW POND RD, WEST PALM BEACH, FL 33417","bldgnbr":"4075","predir":null,"streetname":"WILLOW POND","streettype":"RD","suffdir":null,"city":"WEST PALM BEACH","state_code":"FL","zip5":"33417","latitude":"26.7375446700000000","longitude":"-80.116315580000000","publicwifi":"Y","url":"0","broadband_type_id":6}
{"id":null,"anchorname":"PALM BEACH COUNTY FIRE DEPARTMENT AND RESCUE STATION 23","address":"5471 OKEECHOBEE BLVD, WEST PALM BEACH, FL 33417","bldgnbr":"5471","predir":null,"streetname":"OKEECHOBEE","streettype":"BLVD","suffdir":null,"city":"WEST PALM BEACH","state_code":"FL","zip5":"33417","latitude":"26.7076662500000000","longitude":"-80.126990260000000","publicwifi":"U","url":"0","broadband_type_id":5}
{"id":null,"anchorname":"FLORIDA DEPARTMENT OF TRANSPORTATION","address":"6401 OKEECHOBEE BLVD., WEST PALM BEACH, FL, 33417","bldgnbr":"6401","predir":"0","streetname":"OKEECHOBEE","streettype":"BLVD.","suffdir":"0","city":"WEST PALM BEACH","state_code":"FL","zip5":"33417","latitude":"26.7077560000000000","longitude":"-80.139465000000000","publicwifi":"Y","url":"0","broadband_type_id":null}
{"id":null,"anchorname":"Early Childhood Education Center - Sheridan","address":"4000 South Lowell Boulevard Denver Co 80236","bldgnbr":"4000","predir":"South","streetname":"Lowell","streettype":"Boulevard","suffdir":null,"city":"Denver","state_code":"CO","zip5":"80236","latitude":"39.6455212520000000","longitude":"-105.03433698700000","publicwifi":"N","url":null,"broadband_type_id":6}
{"id":null,"anchorname":"Montessori Childrens House Of","address":"71 East Panama Drive Littleton Co 80121","bldgnbr":"71","predir":"East","streetname":"Panama","streettype":"Drive","suffdir":null,"city":"Littleton","state_code":"CO","zip5":"80121","latitude":"39.6010520850000000","longitude":"-104.98514160900000","publicwifi":"N","url":null,"broadband_type_id":6}
{"id":null,"anchorname":"ASPM LLC","address":"2078 CEZANNE RD, WEST PALM BEACH, FL, 33409","bldgnbr":"2078","predir":"0","streetname":"CEZANNE","streettype":"RD","suffdir":"0","city":"WEST PALM BEACH","state_code":"FL","zip5":"33409","latitude":"26.7318300000000000","longitude":"-80.101352000000000","publicwifi":"U","url":"0","broadband_type_id":null}
{"id":null,"anchorname":"City Of Englewood","address":"1000 Englewood Parkway Englewood Co 80110","bldgnbr":"1000","predir":null,"streetname":"Englewood","streettype":"Parkway","suffdir":null,"city":"Englewood","state_code":"CO","zip5":"80110","latitude":"39.6548597950000000","longitude":"-104.99884520600000","publicwifi":"N","url":null,"broadband_type_id":1}
{"id":null,"anchorname":"2047 PALM BEACH LAKES PARTNERS LLC","address":"2047 PALM BEACH LAKES BLVD, WEST PALM BEACH, FL, 33409","bldgnbr":"2047","predir":"0","streetname":"PALM BEACH LAKES","streettype":"BLVD","suffdir":"0","city":"WEST PALM BEACH","state_code":"FL","zip5":"33409","latitude":"26.7151310000000000","longitude":"-80.093359000000000","publicwifi":"U","url":"0","broadband_type_id":6}
