{"id":null,"anchorname":"CULLEN POLICE DEPARTMENT","address":"403 COYLE AVENUE","bldgnbr":"403","predir":null,"streetname":"COYLE","streettype":null,"suffdir":null,"city":"Springhill","state_code":"LA","zip5":"71075","latitude":"32.9686740000000000","longitude":"-93.454758000000000","publicwifi":"U","url":null,"broadband_type_id":4}
{"id":null,"anchorname":"SAREPTA FIRE DISTRICT 5 STATION 2","address":"160 FRAZIER ROAD","bldgnbr":"160","predir":null,"streetname":"FRAZIER","streettype":null,"suffdir":null,"city":"Sarepta","state_code":"LA","zip5":"71071","latitude":"32.9223630000000000","longitude":"-93.451431000000000","publicwifi":"U","url":null,"broadband_type_id":5}
{"id":null,"anchorname":"Springhill Medical Center --ICO","address":"2001 Doctors Drive","bldgnbr":"2001","predir":null,"streetname":"DOCTORS","streettype":null,"suffdir":null,"city":"Springhill","state_code":"LA","zip5":"71075","latitude":"33.0111470000000000","longitude":"-93.442719000000000","publicwifi":"U","url":null,"broadband_type_id":3}
{"id":null,"anchorname":"Jack-n-Jill Day Care Center","address":"308 1st Street N.W.","bldgnbr":"308","predir":null,"streetname":"1ST","streettype":null,"suffdir":null,"city":"Springhill","state_code":"LA","zip5":"71075","latitude":"33.0061000000000000","longitude":"-93.462303000000000","publicwifi":"U","url":null,"broadband_type_id":3}
{"id":null,"anchorname":"Franklin County Board Of Education","address":"919 Hull Ave","bldgnbr":"919","predir":null,"streetname":"Hull","streettype":"Ave","suffdir":null,"city":"Carnesville","state_code":"GA","zip5":"30521","latitude":"34.3678122180000000","longitude":"-83.234113974000000","publicwifi":"U","url":null,"broadband_type_id":6}
{"id":null,"anchorname":"Brown Memorial Convalescent Center","address":"545 Cook Street","bldgnbr":"545","predir":null,"streetname":"Cook","streettype":"St","suffdir":null,"city":"ROYSTON","state_code":"GA","zip5":"30662","latitude":"34.2831420000000000","longitude":"-83.119038000000000","publicwifi":"U","url":null,"broadband_type_id":6}
{"id":null,"anchorname":"Springhill","address":"217 N Main St","bldgnbr":"217","predir":"N","streetname":"MAIN","streettype":null,"suffdir":null,"city":"Springhill","state_code":"LA","zip5":"71075","latitude":"33.0048560000000000","longitude":"-93.461189000000000","publicwifi":"U","url":null,"broadband_type_id":null}
{"id":null,"anchorname":"Bell Oaks - Hilda House","address":"228 N. Main St.","bldgnbr":"228","predir":"N","streetname":"MAIN","streettype":"ST.","suffdir":null,"city":"Springhill","state_code":"LA","zip5":"71075","latitude":"33.0041072600000000","longitude":"-93.461299000000000","publicwifi":"N","url":null,"broadband_type_id":null}
{"id":null,"anchorname":"Frank Anthony Community Action Center","address":"301 W CHURCH ST, SPRINGHILL, LA, 71075","bldgnbr":"301","predir":"W","streetname":"CHURCH","streettype":null,"suffdir":null,"city":"Springhill","state_code":"LA","zip5":"71075","latitude":"33.0034900000000000","longitude":"-93.465096000000000","publicwifi":"U","url":null,"broadband_type_id":1}
{"id":null,"anchorname":"Tenth Street Community Home","address":"803 NW Tenth Street.","bldgnbr":"803","predir":"NW","streetname":"10TH","streettype":null,"suffdir":null,"city":"Springhill","state_code":"LA","zip5":"71075","latitude":"33.0117990000000000","longitude":"-93.473099000000000","publicwifi":"U","url":null,"broadband_type_id":1}
{"id":null,"anchorname":"Bell Oaks, Inc.","address":"228 North Main Street","bldgnbr":"228","predir":"N","streetname":"MAIN","streettype":null,"suffdir":null,"city":"Springhill","state_code":"LA","zip5":"71075","latitude":"33.0035020000000000","longitude":"-93.461197000000000","publicwifi":"U","url":null,"broadband_type_id":null}
{"id":null,"anchorname":"Springhill Senior Cener","address":"403 W CHURCH ST, SPRINGHILL, LA, 71075","bldgnbr":"403","predir":"W","streetname":"CHURCH","streettype":null,"suffdir":null,"city":"Springhill","state_code":"LA","zip5":"71075","latitude":"33.0034870000000000","longitude":"-93.466393000000000","publicwifi":"U","url":null,"broadband_type_id":null}
{"id":null,"anchorname":"Milford Drive Community Home","address":"115 Milford Drive","bldgnbr":"115","predir":null,"streetname":"MILFORD","streettype":null,"suffdir":null,"city":"Minden","state_code":"LA","zip5":"71055","latitude":"32.6073000000000000","longitude":"-93.350403000000000","publicwifi":"U","url":null,"broadband_type_id":1}
{"id":null,"anchorname":"ADVANCED EMERGENCY MED SVC","address":"118 S MAIN ST","bldgnbr":"118","predir":"S","streetname":"MAIN","streettype":null,"suffdir":null,"city":"Springhill","state_code":"LA","zip5":"71075","latitude":"33.0019990000000000","longitude":"-93.461578000000000","publicwifi":"U","url":null,"broadband_type_id":null}
{"id":null,"anchorname":"ADVANCED EMRGNCY MED SVC SAREPTA","address":"25426 US HIGHWAY 371","bldgnbr":"25426","predir":null,"streetname":"371","streettype":"HWY","suffdir":null,"city":"Sarepta","state_code":"LA","zip5":"71071","latitude":"32.9203490000000000","longitude":"-93.453568000000000","publicwifi":"U","url":null,"broadband_type_id":null}
{"id":null,"anchorname":"The ARC of North Webster","address":"24556 Highway 371","bldgnbr":"24556","predir":null,"streetname":"371","streettype":"HWY","suffdir":null,"city":"Sarepta","state_code":"LA","zip5":"71071","latitude":"32.9015010000000000","longitude":"-93.450798000000000","publicwifi":"U","url":null,"broadband_type_id":null}
{"id":null,"anchorname":"Cotton Valley Group Home","address":"202 Maple Street","bldgnbr":"202","predir":null,"streetname":"MAPLE","streettype":null,"suffdir":null,"city":"Cotton Valley","state_code":"LA","zip5":"71018","latitude":"32.8217010000000000","longitude":"-93.416496000000000","publicwifi":"U","url":null,"broadband_type_id":null}
{"id":null,"anchorname":"Humpty Dumpty Head Start","address":"479 Bellevue Road","bldgnbr":"479","predir":null,"streetname":"BELLEVUE","streettype":null,"suffdir":null,"city":"Cotton Valley","state_code":"LA","zip5":"71018","latitude":"32.8119010000000000","longitude":"-93.427002000000000","publicwifi":"N","url":null,"broadband_type_id":null}
{"id":null,"anchorname":"Doyline","address":"333 Main St","bldgnbr":"333","predir":null,"streetname":"MAIN","streettype":null,"suffdir":null,"city":"Doyline","state_code":"LA","zip5":"71023","latitude":"32.5368920000000000","longitude":"-93.405518000000000","publicwifi":"U","url":null,"broadband_type_id":null}
{"id":null,"anchorname":"Mother Goose Land Head Start","address":"618 Weston Street","bldgnbr":"618","predir":null,"streetname":"WESTON","streettype":null,"suffdir":null,"city":"Minden","state_code":"LA","zip5":"71055","latitude":"32.6152990000000000","longitude":"-93.305901000000000","publicwifi":"Y","url":null,"broadband_type_id":null}
{"id":null,"anchorname":"Webster Health Unit (Springhill)","address":"218 First St. N.E.","bldgnbr":"218","predir":null,"streetname":"1ST","streettype":null,"suffdir":null,"city":"Springhill","state_code":"LA","zip5":"71075","latitude":"33.0038190000000000","longitude":"-93.460297000000000","publicwifi":"U","url":null,"broadband_type_id":3}
{"id":null,"anchorname":"WEBSTER PARISH FIRE PROTECTION DISTRICT 11 / SPRINGHILL FIRE DISTRICT STATION 1","address":"110 SOUTH MAIN STREET","bldgnbr":"110","predir":"S","streetname":"MAIN","streettype":null,"suffdir":null,"city":"Springhill","state_code":"LA","zip5":"71075","latitude":"33.0015830000000000","longitude":"-93.461441000000000","publicwifi":"U","url":null,"broadband_type_id":5}
{"id":null,"anchorname":"Brown Upper Elementary School","address":"804 4th St. SW","bldgnbr":"804","predir":null,"streetname":"4TH","streettype":null,"suffdir":null,"city":"Springhill","state_code":"LA","zip5":"71075","latitude":"32.9958556310000000","longitude":"-93.464664129000000","publicwifi":"Y","url":null,"broadband_type_id":6}
{"id":null,"anchorname":"WEBSTER PARISH FIRE PROTECTION DISTRICT 11 / SPRINGHILL FIRE DISTRICT STATION 2","address":"407 BUTLER STREET","bldgnbr":"407","predir":null,"streetname":"BUTLER","streettype":null,"suffdir":null,"city":"Springhill","state_code":"LA","zip5":"71075","latitude":"33.0054590000000000","longitude":"-93.466583000000000","publicwifi":"U","url":null,"broadband_type_id":5}
{"id":null,"anchorname":"Browning Elementary School","address":"505 Herrington Dr","bldgnbr":"505","predir":null,"streetname":"HERRINGTON","streettype":null,"suffdir":null,"city":"Springhill","state_code":"LA","zip5":"71075","latitude":"33.0143924730000000","longitude":"-93.469274846000000","publicwifi":"Y","url":null,"broadband_type_id":6}
{"id":null,"anchorname":"SAREPTA POLICE DEPARTMENT","address":"24448 UNITED STATES HIGHWAY 371","bldgnbr":"24448","predir":null,"streetname":"371","streettype":"HWY","suffdir":null,"city":"Sarepta","state_code":"LA","zip5":"71071","latitude":"32.8970030000000000","longitude":"-93.450935000000000","publicwifi":"N","url":null,"broadband_type_id":4}
{"id":null,"anchorname":"SAREPTA FIRE DISTRICT 5 STATION 1","address":"227 SEXTON STREET","bldgnbr":"227","predir":null,"streetname":"SEXTON","streettype":null,"suffdir":null,"city":"Sarepta","state_code":"LA","zip5":"71071","latitude":"32.8953170000000000","longitude":"-93.452713000000000","publicwifi":"U","url":null,"broadband_type_id":5}
{"id":null,"anchorname":"WEBSTER PARISH FIRE DISTRICT 8 STATION 2","address":"22390 UNITED STATES HIGHWAY 371","bldgnbr":"22390","predir":null,"streetname":"371","streettype":"HWY","suffdir":null,"city":"Cotton Valley","state_code":"LA","zip5":"71018","latitude":"32.8388670000000000","longitude":"-93.432892000000000","publicwifi":"U","url":null,"broadband_type_id":5}
{"id":null,"anchorname":"Cotton Valley High School","address":"6245 Hwy. 150","bldgnbr":"6245","predir":null,"streetname":"150","streettype":"HWY","suffdir":null,"city":"Cotton Valley","state_code":"LA","zip5":"71018","latitude":"32.8189807880000000","longitude":"-93.414163771000000","publicwifi":"U","url":null,"broadband_type_id":6}
{"id":null,"anchorname":"WEBSTER PARISH FIRE DISTRICT 8 STATION 1","address":"20947 UNITED STATES HIGHWAY 371","bldgnbr":"20947","predir":null,"streetname":"371","streettype":"HWY","suffdir":null,"city":"Cotton Valley","state_code":"LA","zip5":"71018","latitude":"32.8022770000000000","longitude":"-93.416985000000000","publicwifi":"U","url":null,"broadband_type_id":5}
{"id":null,"anchorname":"WEBSTER PARISH FIRE DISTRICT 7 STORAGE FACILITY","address":"1756 OLD HIGHWAY 7","bldgnbr":"1756","predir":null,"streetname":"OLD HIGHWAY 7","streettype":null,"suffdir":null,"city":"Cotton Valley","state_code":"LA","zip5":"71018","latitude":"32.7966190000000000","longitude":"-93.413574000000000","publicwifi":"U","url":null,"broadband_type_id":5}
{"id":null,"anchorname":"COTTON VALLEY POLICE DEPARTMENT","address":"222 RAILROAD AVENUE","bldgnbr":"222","predir":null,"streetname":"RAILROAD","streettype":null,"suffdir":null,"city":"Cotton Valley","state_code":"LA","zip5":"71018","latitude":"32.8175810000000000","longitude":"-93.416267000000000","publicwifi":"U","url":null,"broadband_type_id":4}
{"id":null,"anchorname":"WEBSTER PARISH FIRE DISTRICT 8 STATION 3","address":"1478 HUMBLE AVENUE","bldgnbr":"1478","predir":null,"streetname":"HUMBLE","streettype":null,"suffdir":null,"city":"Cotton Valley","state_code":"LA","zip5":"71018","latitude":"32.8164520000000000","longitude":"-93.417305000000000","publicwifi":"U","url":null,"broadband_type_id":5}
{"id":null,"anchorname":"WEBSTER PARISH FIRE DISTRICT 8 STATION 4","address":"1240 MARATHON ROAD","bldgnbr":"1240","predir":null,"streetname":"MARATHON","streettype":null,"suffdir":null,"city":"Cotton Valley","state_code":"LA","zip5":"71018","latitude":"32.7842410000000000","longitude":"-93.376587000000000","publicwifi":"U","url":null,"broadband_type_id":5}
{"id":null,"anchorname":"CULLEN FIRE PROTECTION DISTRICT 6 STATION 3","address":"979 KING ORCHARD ROAD","bldgnbr":"979","predir":null,"streetname":"KING ORCHARD","streettype":null,"suffdir":null,"city":"Sarepta","state_code":"LA","zip5":"71071","latitude":"32.9616660000000000","longitude":"-93.403542000000000","publicwifi":"U","url":null,"broadband_type_id":5}
{"id":null,"anchorname":"CULLEN  FIRE PROTECTION DISTRICT 6 STATION 2","address":"2920 WALNUT ROAD","bldgnbr":"2920","predir":null,"streetname":"WALNUT","streettype":null,"suffdir":null,"city":"Sarepta","state_code":"LA","zip5":"71071","latitude":"32.9513130000000000","longitude":"-93.428360000000000","publicwifi":"U","url":null,"broadband_type_id":5}
{"id":null,"anchorname":"Sarepta High School","address":"6041 Hwy 2","bldgnbr":"6041","predir":null,"streetname":"2","streettype":"HWY","suffdir":null,"city":"Sarepta","state_code":"LA","zip5":"71071","latitude":"32.9002938890000000","longitude":"-93.446671496000000","publicwifi":"U","url":null,"broadband_type_id":6}
{"id":null,"anchorname":"DIXIE INN VOLUNTEER FIRE DEPT.","address":"61 SHELL ST.","bldgnbr":"61","predir":null,"streetname":"SHELL","streettype":null,"suffdir":null,"city":"Minden","state_code":"LA","zip5":"71055","latitude":"32.5937920000000000","longitude":"-93.334320000000000","publicwifi":"N","url":null,"broadband_type_id":5}
{"id":null,"anchorname":"DIXIE INN POLICE DEPARTMENT","address":"60 SHELL STREET","bldgnbr":"60","predir":null,"streetname":"SHELL","streettype":null,"suffdir":null,"city":"Minden","state_code":"LA","zip5":"71055","latitude":"32.5933690000000000","longitude":"-93.334824000000000","publicwifi":"Y","url":null,"broadband_type_id":4}
{"id":null,"anchorname":"Doyline High School","address":"804 College St.","bldgnbr":"804","predir":null,"streetname":"COLLEGE","streettype":null,"suffdir":null,"city":"Doyline","state_code":"LA","zip5":"71023","latitude":"32.5365160990000000","longitude":"-93.406938959000000","publicwifi":"U","url":null,"broadband_type_id":6}
{"id":null,"anchorname":"DOYLINE POLICE DEPARTMENT","address":"624 COLLEGE STREET","bldgnbr":"624","predir":null,"streetname":"COLLEGE","streettype":null,"suffdir":null,"city":"Doyline","state_code":"LA","zip5":"71023","latitude":"32.5360640000000000","longitude":"-93.410660000000000","publicwifi":"U","url":null,"broadband_type_id":4}
{"id":null,"anchorname":"Union Elementary School","address":"273 Pilgrim Rest Rd","bldgnbr":"273","predir":null,"streetname":"PILGRIM REST","streettype":null,"suffdir":null,"city":"Doyline","state_code":"LA","zip5":"71023","latitude":"32.5294522560000000","longitude":"-93.414223189000000","publicwifi":"U","url":null,"broadband_type_id":6}
{"id":null,"anchorname":"WEBSTER PARISH FIRE DISTRICT 3 DOYLINE FIRE DEPARTMENT","address":"2344 STATE HIGHWAY 163","bldgnbr":"2344","predir":null,"streetname":"163","streettype":"HWY","suffdir":null,"city":"Doyline","state_code":"LA","zip5":"71023","latitude":"32.4796560000000000","longitude":"-93.398857000000000","publicwifi":"U","url":null,"broadband_type_id":5}
{"id":null,"anchorname":"Glenbrook School","address":"1674 Country Club Circle","bldgnbr":"1674","predir":null,"streetname":"COUNTRY CLUB","streettype":null,"suffdir":null,"city":"Minden","state_code":"LA","zip5":"71055","latitude":"32.6415536800000000","longitude":"-93.294426049000000","publicwifi":"N","url":null,"broadband_type_id":6}
{"id":null,"anchorname":"Town \u0026 Country Nursing Center","address":"614 Weston Street","bldgnbr":"614","predir":null,"streetname":"WESTON","streettype":null,"suffdir":null,"city":"Minden","state_code":"LA","zip5":"71055","latitude":"32.6152000000000000","longitude":"-93.305901000000000","publicwifi":"Y","url":null,"broadband_type_id":3}
{"id":null,"anchorname":"Webster Council on Aging","address":"316 McIntyre Street","bldgnbr":"316","predir":null,"streetname":"MCINTYRE","streettype":null,"suffdir":null,"city":"Minden","state_code":"LA","zip5":"71055","latitude":"32.6184010000000000","longitude":"-93.291603000000000","publicwifi":"U","url":null,"broadband_type_id":1}
{"id":null,"anchorname":"City Of Atlanta Dept Of Information Technology","address":"1085 Piedmont Ave Ne","bldgnbr":"1085","predir":null,"streetname":"Piedmont","streettype":"Ave","suffdir":"NE","city":"ATLANTA","state_code":"GA","zip5":"30309","latitude":"33.7842217400000000","longitude":"-84.378848433000000","publicwifi":"U","url":null,"broadband_type_id":1}
{"id":null,"anchorname":"City Of Atlanta Dept Of Information Technology","address":"1115 North Ave Ne","bldgnbr":"1115","predir":null,"streetname":"North","streettype":"Ave","suffdir":"NE","city":"ATLANTA","state_code":"GA","zip5":"30307","latitude":"33.7710051700000000","longitude":"-84.350951541000000","publicwifi":"U","url":null,"broadband_type_id":1}
{"id":null,"anchorname":"Herndon Elementary","address":"350 Temple St Nw","bldgnbr":"350","predir":null,"streetname":"Temple","streettype":"St","suffdir":"NW","city":"ATLANTA","state_code":"GA","zip5":"30314","latitude":"33.7641870000000000","longitude":"-84.422002000000000","publicwifi":"U","url":null,"broadband_type_id":6}
{"id":null,"anchorname":"Maple Community Home","address":"323 Pennsylvania Avenue","bldgnbr":"323","predir":null,"streetname":"PENNSYLVANIA","streettype":null,"suffdir":null,"city":"Minden","state_code":"LA","zip5":"71055","latitude":"32.6172980000000000","longitude":"-93.281403000000000","publicwifi":"U","url":null,"broadband_type_id":1}
{"id":null,"anchorname":"Angels In Learning Enrichment Center, Inc","address":"303 Sibley Road","bldgnbr":"303","predir":null,"streetname":"SIBLEY","streettype":null,"suffdir":null,"city":"Minden","state_code":"LA","zip5":"71055","latitude":"32.6105000000000000","longitude":"-93.288803000000000","publicwifi":"U","url":null,"broadband_type_id":6}
{"id":null,"anchorname":"North Central Louisiana Community Services","address":"401 Shaw Drive","bldgnbr":"401","predir":null,"streetname":"SHAW","streettype":null,"suffdir":null,"city":"Minden","state_code":"LA","zip5":"71055","latitude":"32.5971980000000000","longitude":"-93.291298000000000","publicwifi":"U","url":null,"broadband_type_id":6}
{"id":null,"anchorname":"Mar-C Industries","address":"1400 Commerce Street","bldgnbr":"1400","predir":null,"streetname":"COMMERCE","streettype":null,"suffdir":null,"city":"Minden","state_code":"LA","zip5":"71055","latitude":"32.6022000000000000","longitude":"-93.306099000000000","publicwifi":"Y","url":null,"broadband_type_id":6}
{"id":null,"anchorname":"Webster Parish Achievement Center","address":"109 Clerk St","bldgnbr":"109","predir":null,"streetname":"CLERK","streettype":null,"suffdir":null,"city":"Minden","state_code":"LA","zip5":"71055","latitude":"32.6254930590000000","longitude":"-93.291367443000000","publicwifi":"U","url":null,"broadband_type_id":6}
{"id":null,"anchorname":"Lewisville Road Group Home","address":"1303 Lewisville Road","bldgnbr":"1303","predir":null,"streetname":"LEWISVILLE","streettype":null,"suffdir":null,"city":"Minden","state_code":"LA","zip5":"71055","latitude":"32.6315990000000000","longitude":"-93.284203000000000","publicwifi":"U","url":null,"broadband_type_id":6}
{"id":null,"anchorname":"First Baptist Church Weekday Early Education","address":"301 Pennsylvania Avenue","bldgnbr":"301","predir":null,"streetname":"PENNSYLVANIA","streettype":null,"suffdir":null,"city":"Minden","state_code":"LA","zip5":"71055","latitude":"32.6171000000000000","longitude":"-93.281601000000000","publicwifi":"Y","url":null,"broadband_type_id":6}
{"id":null,"anchorname":"Minden Senior Center","address":"316 MCINTYRE ST, MINDEN, LA, 71055","bldgnbr":"316","predir":null,"streetname":"MCINTYRE","streettype":null,"suffdir":null,"city":"Minden","state_code":"LA","zip5":"71055","latitude":"32.6183320000000000","longitude":"-93.291473000000000","publicwifi":"U","url":null,"broadband_type_id":null}
{"id":null,"anchorname":"PAFFORD EMS","address":"1227 SHEPPARD ST","bldgnbr":"1227","predir":null,"streetname":"SHEPPARD","streettype":null,"suffdir":null,"city":"Minden","state_code":"LA","zip5":"71055","latitude":"32.6172330000000000","longitude":"-93.275383000000000","publicwifi":"U","url":null,"broadband_type_id":6}
{"id":null,"anchorname":"Little Blessings Early Learning Center, LLC","address":"120 Homer Road","bldgnbr":"120","predir":null,"streetname":"HOMER","streettype":null,"suffdir":null,"city":"Minden","state_code":"LA","zip5":"71055","latitude":"32.6212010000000000","longitude":"-93.279701000000000","publicwifi":"U","url":null,"broadband_type_id":6}
{"id":null,"anchorname":"Minden Main","address":"521 East and West St","bldgnbr":"521","predir":null,"streetname":"EAST AND WEST","streettype":null,"suffdir":null,"city":"Minden","state_code":"LA","zip5":"71055","latitude":"32.6210370000000000","longitude":"-93.281364000000000","publicwifi":"U","url":null,"broadband_type_id":null}
{"id":null,"anchorname":"Northwest Supports and Services Center-Melanie Home","address":"145 Melanie Lane","bldgnbr":"145","predir":null,"streetname":"MELANIE","streettype":null,"suffdir":null,"city":"Sibley","state_code":"LA","zip5":"71073","latitude":"32.5276990000000000","longitude":"-93.293800000000000","publicwifi":"U","url":null,"broadband_type_id":6}
{"id":null,"anchorname":"The Children's Center (Child Development Centers, Inc.)","address":"806 Broadway Street","bldgnbr":"806","predir":null,"streetname":"BROADWAY","streettype":null,"suffdir":null,"city":"Minden","state_code":"LA","zip5":"71055","latitude":"32.6165010000000000","longitude":"-93.284897000000000","publicwifi":"U","url":null,"broadband_type_id":null}
{"id":null,"anchorname":"Minden Arbors, LLC","address":"619 Germantown Road","bldgnbr":"619","predir":null,"streetname":"GERMANTOWN","streettype":null,"suffdir":null,"city":"Minden","state_code":"LA","zip5":"71055","latitude":"32.6334000000000000","longitude":"-93.270500000000000","publicwifi":"U","url":null,"broadband_type_id":null}
{"id":null,"anchorname":"Heflin","address":"7041 Hwy 531","bldgnbr":"7041","predir":null,"streetname":"531","streettype":"HWY","suffdir":null,"city":"Heflin","state_code":"LA","zip5":"71039","latitude":"32.4560130000000000","longitude":"-93.264328000000000","publicwifi":"U","url":null,"broadband_type_id":null}
{"id":null,"anchorname":"ADVANCED EMRGNCY MED SVC SIBLEY","address":"365 N MAIN ST","bldgnbr":"365","predir":"N","streetname":"MAIN","streettype":null,"suffdir":null,"city":"Sibley","state_code":"LA","zip5":"71073","latitude":"32.5427550000000000","longitude":"-93.295547000000000","publicwifi":"U","url":null,"broadband_type_id":null}
{"id":null,"anchorname":"Stewart Elementary School","address":"215 N Middle Landing","bldgnbr":"215","predir":"N","streetname":"MIDDLE","streettype":null,"suffdir":null,"city":"Minden","state_code":"LA","zip5":"71055","latitude":"32.6091069720000000","longitude":"-93.300692997000000","publicwifi":"U","url":null,"broadband_type_id":6}
{"id":null,"anchorname":"MINDEN FIRE DEPARTMENT STATION 2","address":"115 NORTH MIDDLE LANDING ROAD","bldgnbr":"115","predir":"N","streetname":"MIDDLE LANDING","streettype":null,"suffdir":null,"city":"Minden","state_code":"LA","zip5":"71055","latitude":"32.6079640000000000","longitude":"-93.300491000000000","publicwifi":"U","url":null,"broadband_type_id":5}
{"id":null,"anchorname":"Moore's Day Care","address":"403 Myers Street","bldgnbr":"403","predir":null,"streetname":"MYERS","streettype":null,"suffdir":null,"city":"Minden","state_code":"LA","zip5":"71055","latitude":"32.6029010000000000","longitude":"-93.285599000000000","publicwifi":"U","url":null,"broadband_type_id":3}
{"id":null,"anchorname":"First Impressions Child Care and Pre-School, Inc.","address":"1106 Sibley Road","bldgnbr":"1106","predir":null,"streetname":"SIBLEY","streettype":null,"suffdir":null,"city":"Minden","state_code":"LA","zip5":"71055","latitude":"32.6008000000000000","longitude":"-93.288696000000000","publicwifi":"Y","url":null,"broadband_type_id":3}
{"id":null,"anchorname":"ADVANCED EMERGENCY MEDICAL SVC","address":"900 SHREVEPORT RD","bldgnbr":"900","predir":null,"streetname":"SHREVEPORT","streettype":null,"suffdir":null,"city":"Minden","state_code":"LA","zip5":"71055","latitude":"32.6066400000000000","longitude":"-93.298012000000000","publicwifi":"U","url":null,"broadband_type_id":3}
{"id":null,"anchorname":"Webster Parish Expulsion School","address":"109 Clerk Street","bldgnbr":"109","predir":null,"streetname":"CLERK","streettype":null,"suffdir":null,"city":"Minden","state_code":"LA","zip5":"71055","latitude":"32.6254090800000000","longitude":"-93.290792175000000","publicwifi":"Y","url":null,"broadband_type_id":6}
{"id":null,"anchorname":"E. S. Richardson Elementary School","address":"515 W Todd","bldgnbr":"515","predir":"W","streetname":"TODD","streettype":null,"suffdir":null,"city":"Minden","state_code":"LA","zip5":"71055","latitude":"32.6289595700000000","longitude":"-93.281073123000000","publicwifi":"U","url":null,"broadband_type_id":6}
{"id":null,"anchorname":"LA Technical College-Northwest LA Campus","address":"814 Constable Street","bldgnbr":"814","predir":null,"streetname":"CONSTABLE","streettype":null,"suffdir":null,"city":"Minden","state_code":"LA","zip5":"71055","latitude":"32.6257020000000000","longitude":"-93.294403000000000","publicwifi":"U","url":null,"broadband_type_id":6}
{"id":null,"anchorname":"Minden High School","address":"1103 S College St","bldgnbr":"1103","predir":"S","streetname":"COLLEGE","streettype":null,"suffdir":null,"city":"Minden","state_code":"LA","zip5":"71055","latitude":"32.6192992740000000","longitude":"-93.289398000000000","publicwifi":"U","url":null,"broadband_type_id":6}
{"id":null,"anchorname":"Michele's Little Angel Child-Care Center","address":"218 Murrell Street","bldgnbr":"218","predir":null,"streetname":"MURRELL","streettype":null,"suffdir":null,"city":"Minden","state_code":"LA","zip5":"71055","latitude":"32.6152990000000000","longitude":"-93.282402000000000","publicwifi":"U","url":null,"broadband_type_id":3}
{"id":null,"anchorname":"J. L. Jones Elementary School","address":"620 District Dr","bldgnbr":"620","predir":null,"streetname":"DISTRICT","streettype":null,"suffdir":null,"city":"Minden","state_code":"LA","zip5":"71055","latitude":"32.6034473220000000","longitude":"-93.281304524000000","publicwifi":"U","url":null,"broadband_type_id":6}
{"id":null,"anchorname":"MINDEN FIRE DEPARTMENT STATION 1","address":"1213 SHEPPARD STREET","bldgnbr":"1213","predir":null,"streetname":"SHEPPARD","streettype":null,"suffdir":null,"city":"Minden","state_code":"LA","zip5":"71055","latitude":"32.6153760000000000","longitude":"-93.279861000000000","publicwifi":"U","url":null,"broadband_type_id":5}
{"id":null,"anchorname":"MINDEN POLICE DEPARTMENT","address":"520 BROADWAY STREET","bldgnbr":"520","predir":null,"streetname":"BROADWAY","streettype":null,"suffdir":null,"city":"Minden","state_code":"LA","zip5":"71055","latitude":"32.6145360000000000","longitude":"-93.286491000000000","publicwifi":"U","url":null,"broadband_type_id":4}
{"id":null,"anchorname":"St. Rest Day Care Center","address":"611 East Union Street","bldgnbr":"611","predir":"E","streetname":"UNION","streettype":null,"suffdir":null,"city":"Minden","state_code":"LA","zip5":"71055","latitude":"32.6124000000000000","longitude":"-93.277397000000000","publicwifi":"U","url":null,"broadband_type_id":3}
{"id":null,"anchorname":"Webster Junior High School","address":"700 East Union","bldgnbr":"700","predir":null,"streetname":"EAST","streettype":null,"suffdir":null,"city":"Minden","state_code":"LA","zip5":"71055","latitude":"32.6115159730000000","longitude":"-93.272839913000000","publicwifi":"U","url":null,"broadband_type_id":6}
{"id":null,"anchorname":"MINDEN FIRE DEPARTMENT STATION 3","address":"501 GERMANTOWN ROAD","bldgnbr":"501","predir":null,"streetname":"GERMANTOWN","streettype":null,"suffdir":null,"city":"Minden","state_code":"LA","zip5":"71055","latitude":"32.6317860000000000","longitude":"-93.272812000000000","publicwifi":"U","url":null,"broadband_type_id":5}
{"id":null,"anchorname":"J. A. Phillips Middle School","address":"811 Durwood Dr","bldgnbr":"811","predir":null,"streetname":"DURWOOD","streettype":null,"suffdir":null,"city":"Minden","state_code":"LA","zip5":"71055","latitude":"32.6008936320000000","longitude":"-93.278385989000000","publicwifi":"U","url":null,"broadband_type_id":6}
{"id":null,"anchorname":"SIBLEY VOLUNTEER FIRE DEPARTMENT","address":"117 SOUTHEAST 4TH AVENUE","bldgnbr":"117","predir":"SE","streetname":"4TH","streettype":null,"suffdir":null,"city":"Sibley","state_code":"LA","zip5":"71073","latitude":"32.5345460000000000","longitude":"-93.295204000000000","publicwifi":"U","url":null,"broadband_type_id":5}
{"id":null,"anchorname":"Lakeside Junior-Senior High School","address":"9090 Hwy 371","bldgnbr":"9090","predir":null,"streetname":"371","streettype":"HWY","suffdir":null,"city":"Sibley","state_code":"LA","zip5":"71073","latitude":"32.5169845470000000","longitude":"-93.304093787000000","publicwifi":"N","url":null,"broadband_type_id":6}
{"id":null,"anchorname":"HEFLIN VOLUNTEER FIRE DEPARTMENT","address":"190 MEMORIAL PARK DRIVE","bldgnbr":"190","predir":null,"streetname":"MEMORIAL PARK","streettype":null,"suffdir":null,"city":"Heflin","state_code":"LA","zip5":"71039","latitude":"32.4596250000000000","longitude":"-93.268219000000000","publicwifi":"U","url":null,"broadband_type_id":5}
{"id":null,"anchorname":"HEFLIN  POLICE DEPARTMENT","address":"122 NORTH CHURCH STREET","bldgnbr":"122","predir":"N","streetname":"CHURCH","streettype":null,"suffdir":null,"city":"Heflin","state_code":"LA","zip5":"71039","latitude":"32.4572980000000000","longitude":"-93.265602000000000","publicwifi":"U","url":null,"broadband_type_id":4}
{"id":null,"anchorname":"Dept Of Public Safety","address":"320 Chester Ave Se","bldgnbr":"320","predir":null,"streetname":"Chester","streettype":"Ave","suffdir":"SE","city":"ATLANTA","state_code":"GA","zip5":"30316","latitude":"33.7467021110000000","longitude":"-84.359054062000000","publicwifi":"U","url":null,"broadband_type_id":4}
{"id":null,"anchorname":"Dubberly Group Home","address":"1241 Jack Martin Rd.","bldgnbr":"1241","predir":null,"streetname":"JACK MARTIN","streettype":null,"suffdir":null,"city":"Minden","state_code":"LA","zip5":"71055","latitude":"32.5695000000000000","longitude":"-93.225700000000000","publicwifi":"U","url":null,"broadband_type_id":null}
{"id":null,"anchorname":"Rolling Hills Group Home","address":"571 Crichton Road","bldgnbr":"571","predir":null,"streetname":"CRICHTON","streettype":null,"suffdir":null,"city":"Sibley","state_code":"LA","zip5":"71073","latitude":"32.5558010000000000","longitude":"-93.266602000000000","publicwifi":"U","url":null,"broadband_type_id":null}
{"id":null,"anchorname":"West Baton Rouge Community Center","address":"749 N JEFFERSON AVE, PORT ALLEN, LA, 70767","bldgnbr":"749","predir":"N","streetname":"JEFFERSON AVENUE","streettype":null,"suffdir":null,"city":"Port Allen","state_code":"LA","zip5":"70767","latitude":"30.4587800000000000","longitude":"-91.205872000000000","publicwifi":"U","url":null,"broadband_type_id":6}
{"id":null,"anchorname":"Port City Enterprises","address":"836 North Seventh Street","bldgnbr":"836","predir":"N","streetname":"7TH","streettype":null,"suffdir":null,"city":"Port Allen","state_code":"LA","zip5":"70767","latitude":"30.4598010000000000","longitude":"-91.208397000000000","publicwifi":"Y","url":null,"broadband_type_id":6}
{"id":null,"anchorname":"Kidz Karousel West","address":"12112 Landry Lane","bldgnbr":"12112","predir":null,"streetname":"LANDRY","streettype":null,"suffdir":null,"city":"Port Allen","state_code":"LA","zip5":"70767","latitude":"30.5478990000000000","longitude":"-91.396500000000000","publicwifi":"U","url":null,"broadband_type_id":6}
{"id":null,"anchorname":"Woodlands Group Home","address":"1209 Middle Road","bldgnbr":"1209","predir":null,"streetname":"MIDDLE","streettype":null,"suffdir":null,"city":"Minden","state_code":"LA","zip5":"71055","latitude":"32.6174010000000000","longitude":"-93.219902000000000","publicwifi":"U","url":null,"broadband_type_id":null}
{"id":null,"anchorname":"Cradles To Crayons Academy","address":"1934 West Shore Avenue","bldgnbr":"1934","predir":null,"streetname":"WEST SHORE","streettype":null,"suffdir":null,"city":"Port Allen","state_code":"LA","zip5":"70767","latitude":"30.4235990000000000","longitude":"-91.217003000000000","publicwifi":"U","url":null,"broadband_type_id":6}
{"id":null,"anchorname":"Michigan Group Home","address":"448 Michigan Ave.","bldgnbr":"448","predir":null,"streetname":"MICHIGAN","streettype":null,"suffdir":null,"city":"Port Allen","state_code":"LA","zip5":"70767","latitude":"30.4594000000000000","longitude":"-91.205299000000000","publicwifi":"U","url":null,"broadband_type_id":null}
{"id":null,"anchorname":"Kidz Karousel","address":"1213 Commercial Drive","bldgnbr":"1213","predir":null,"streetname":"COMMERCIAL","streettype":null,"suffdir":null,"city":"Port Allen","state_code":"LA","zip5":"70767","latitude":"30.4449010000000000","longitude":"-91.214203000000000","publicwifi":"U","url":null,"broadband_type_id":null}
{"id":null,"anchorname":"Joanna's Small World, Inc.","address":"4569 South River Road","bldgnbr":"4569","predir":"S","streetname":"RIVER","streettype":null,"suffdir":null,"city":"Port Allen","state_code":"LA","zip5":"70767","latitude":"30.4046990000000000","longitude":"-91.220200000000000","publicwifi":"U","url":null,"broadband_type_id":null}
{"id":null,"anchorname":"DUBBERLY POLICE DEPARTMENT","address":"1748 BRUSHWOOD DRIVE","bldgnbr":"1748","predir":null,"streetname":"BRUSHWOOD","streettype":null,"suffdir":null,"city":"Dubberly","state_code":"LA","zip5":"71024","latitude":"32.5401500000000000","longitude":"-93.234344000000000","publicwifi":"U","url":null,"broadband_type_id":4}
{"id":null,"anchorname":"Central Elementary School","address":"5701 Hwy 531","bldgnbr":"5701","predir":null,"streetname":"531","streettype":"HWY","suffdir":null,"city":"Dubberly","state_code":"LA","zip5":"71024","latitude":"32.4809010890000000","longitude":"-93.236079995000000","publicwifi":"U","url":null,"broadband_type_id":6}
{"id":null,"anchorname":"Port Allen Elementary School","address":"609 Rosedale Street","bldgnbr":"609","predir":null,"streetname":"ROSEDALE","streettype":null,"suffdir":null,"city":"Port Allen","state_code":"LA","zip5":"70767","latitude":"30.4629615800000000","longitude":"-91.207030228000000","publicwifi":"U","url":null,"broadband_type_id":6}
{"id":null,"anchorname":"West Baton Rouge Health Unit","address":"685 Louisiana Ave.","bldgnbr":"685","predir":null,"streetname":"LOUISIANA","streettype":null,"suffdir":null,"city":"Port Allen","state_code":"LA","zip5":"70767","latitude":"30.4607600000000000","longitude":"-91.208305000000000","publicwifi":"U","url":null,"broadband_type_id":3}
{"id":null,"anchorname":"WEST BATON ROUGE PARISH SHERIFF DEPARTMENT","address":"850 8TH STREET","bldgnbr":"850","predir":null,"streetname":"8TH","streettype":null,"suffdir":null,"city":"Port Allen","state_code":"LA","zip5":"70767","latitude":"30.4599860000000000","longitude":"-91.209297000000000","publicwifi":"U","url":null,"broadband_type_id":4}
{"id":null,"anchorname":"PORT ALLEN FIRE DEPARTMENT STATION 1","address":"750 NORTH JEFFERSON AVENUE","bldgnbr":"750","predir":"N","streetname":"JEFFERSON","streettype":null,"suffdir":null,"city":"Port Allen","state_code":"LA","zip5":"70767","latitude":"30.4590300000000000","longitude":"-91.205574000000000","publicwifi":"U","url":null,"broadband_type_id":5}
{"id":null,"anchorname":"PORT ALLEN POLICE DEPARTMENT","address":"750 N. JEFFERSON AVE.","bldgnbr":"750","predir":"N","streetname":"JEFFERSON","streettype":null,"suffdir":null,"city":"Port Allen","state_code":"LA","zip5":"70767","latitude":"30.4587990000000000","longitude":"-91.205444000000000","publicwifi":"U","url":null,"broadband_type_id":4}
{"id":null,"anchorname":"Mary's Total Care","address":"428 Courthouse St","bldgnbr":"428","predir":null,"streetname":"COURTHOUSE","streettype":null,"suffdir":null,"city":"Port Allen","state_code":"LA","zip5":"70767","latitude":"30.4604000000000000","longitude":"-91.204597000000000","publicwifi":"U","url":null,"broadband_type_id":3}
{"id":null,"anchorname":"Holy Family School (C)","address":"335 North Jefferson Avenue","bldgnbr":"335","predir":"N","streetname":"JEFFERSON","streettype":null,"suffdir":null,"city":"Port Allen","state_code":"LA","zip5":"70767","latitude":"30.4549290790000000","longitude":"-91.206506125000000","publicwifi":"U","url":null,"broadband_type_id":6}
{"id":null,"anchorname":"River Road Day Care Center","address":"5521 North River Road","bldgnbr":"5521","predir":"N","streetname":"RIVER","streettype":null,"suffdir":null,"city":"Port Allen","state_code":"LA","zip5":"70767","latitude":"30.5053010000000000","longitude":"-91.240601000000000","publicwifi":"N","url":null,"broadband_type_id":3}
{"id":null,"anchorname":"Port Allen Middle School","address":"610 Rosedale Street","bldgnbr":"610","predir":null,"streetname":"ROSEDALE","streettype":null,"suffdir":null,"city":"Port Allen","state_code":"LA","zip5":"70767","latitude":"30.4640316570000000","longitude":"-91.207320197000000","publicwifi":"Y","url":null,"broadband_type_id":6}
{"id":null,"anchorname":"LOBDELL VOLUNTEER FIRE DEPT.","address":"2937 LAFITON LN.","bldgnbr":"2937","predir":null,"streetname":"LAFITON","streettype":null,"suffdir":null,"city":"Port Allen","state_code":"LA","zip5":"70767","latitude":"30.4770570000000000","longitude":"-91.248779000000000","publicwifi":"U","url":null,"broadband_type_id":5}
{"id":null,"anchorname":"Love-N-Tots Childcare","address":"1515 Rosedale Road","bldgnbr":"1515","predir":null,"streetname":"ROSEDALE","streettype":null,"suffdir":null,"city":"Port Allen","state_code":"LA","zip5":"70767","latitude":"30.4627990000000000","longitude":"-91.219704000000000","publicwifi":"U","url":null,"broadband_type_id":3}
{"id":null,"anchorname":"PORT ALLEN FIRE DEPARTMENT STATION 2","address":"2616 COURT STREET","bldgnbr":"2616","predir":null,"streetname":"COURT","streettype":null,"suffdir":null,"city":"Port Allen","state_code":"LA","zip5":"70767","latitude":"30.4513840000000000","longitude":"-91.239731000000000","publicwifi":"U","url":null,"broadband_type_id":5}
{"id":null,"anchorname":"Cohn Elementary School","address":"805 North 14th Street","bldgnbr":"805","predir":"N","streetname":"14TH","streettype":"ST.","suffdir":null,"city":"Port Allen","state_code":"LA","zip5":"70767","latitude":"30.4589342320000000","longitude":"-91.217995398000000","publicwifi":"Y","url":null,"broadband_type_id":6}
{"id":null,"anchorname":"Port Allen Care Center, L.L.C.","address":"403 15th Street","bldgnbr":"403","predir":null,"streetname":"15TH","streettype":null,"suffdir":null,"city":"Port Allen","state_code":"LA","zip5":"70767","latitude":"30.4542010000000000","longitude":"-91.218102000000000","publicwifi":"U","url":null,"broadband_type_id":3}
{"id":null,"anchorname":"Poplar Grove Baptist Church Daycare and Learning Center","address":"2303 Court Street","bldgnbr":"2303","predir":null,"streetname":"COURT","streettype":null,"suffdir":null,"city":"Port Allen","state_code":"LA","zip5":"70767","latitude":"30.4510990000000000","longitude":"-91.232697000000000","publicwifi":"U","url":null,"broadband_type_id":3}
{"id":null,"anchorname":"PORT ALLEN FIRE DEPARTMENT STATION 3","address":"5080 ROSEDALE ROAD","bldgnbr":"5080","predir":null,"streetname":"ROSEDALE","streettype":null,"suffdir":null,"city":"Port Allen","state_code":"LA","zip5":"70767","latitude":"30.4687770000000000","longitude":"-91.278801000000000","publicwifi":"U","url":null,"broadband_type_id":5}
{"id":null,"anchorname":"Port Allen High School","address":"3553 Rosedale Road","bldgnbr":"3553","predir":null,"streetname":"ROSEDALE","streettype":null,"suffdir":null,"city":"Port Allen","state_code":"LA","zip5":"70767","latitude":"30.4600590650000000","longitude":"-91.256105854000000","publicwifi":"U","url":null,"broadband_type_id":6}
{"id":null,"anchorname":"Devall Middle School","address":"11851 North River Road","bldgnbr":"11851","predir":"N","streetname":"RIVER","streettype":null,"suffdir":null,"city":"Port Allen","state_code":"LA","zip5":"70767","latitude":"30.5407787200000000","longitude":"-91.293418810000000","publicwifi":"U","url":null,"broadband_type_id":6}
{"id":null,"anchorname":"Chamberlin Elementary School","address":"6024 Section Road","bldgnbr":"6024","predir":null,"streetname":"SECTION","streettype":null,"suffdir":null,"city":"Port Allen","state_code":"LA","zip5":"70767","latitude":"30.5353265830000000","longitude":"-91.296370810000000","publicwifi":"U","url":null,"broadband_type_id":6}
{"id":null,"anchorname":"ROSEHILL VOLUNTEER FIRE DEPARTMENT STATION 2","address":"10280 BUECHE ROAD","bldgnbr":"10280","predir":null,"streetname":"BUECHE","streettype":null,"suffdir":null,"city":"Erwinville","state_code":"LA","zip5":"70729","latitude":"30.6004730000000000","longitude":"-91.332634000000000","publicwifi":"U","url":null,"broadband_type_id":5}
{"id":null,"anchorname":"ERWINVILLE VOLUNTEER FIRE DEPARTMENT","address":"4466 POYDRAS BAYOU ROAD","bldgnbr":"4466","predir":null,"streetname":"POYDRAS BAYOU","streettype":null,"suffdir":null,"city":"Port Allen","state_code":"LA","zip5":"70767","latitude":"30.5311450000000000","longitude":"-91.407089000000000","publicwifi":"U","url":null,"broadband_type_id":5}
{"id":null,"anchorname":"Brusly High School","address":"630 Frontage Road","bldgnbr":"630","predir":null,"streetname":"FRONTAGE","streettype":null,"suffdir":null,"city":"Brusly","state_code":"LA","zip5":"70719","latitude":"30.3931107090000000","longitude":"-91.238811158000000","publicwifi":"Y","url":null,"broadband_type_id":6}
{"id":null,"anchorname":"Romper Room Day Care Center","address":"653 East Main Street","bldgnbr":"653","predir":"E","streetname":"MAIN","streettype":null,"suffdir":null,"city":"Brusly","state_code":"LA","zip5":"70719","latitude":"30.3883000000000000","longitude":"-91.237801000000000","publicwifi":"U","url":null,"broadband_type_id":3}
{"id":null,"anchorname":"Brusly Middle School","address":"601 North Kirkland","bldgnbr":"601","predir":"N","streetname":"KIRKLAND","streettype":null,"suffdir":null,"city":"Brusly","state_code":"LA","zip5":"70719","latitude":"30.3904931370000000","longitude":"-91.232955957000000","publicwifi":"U","url":null,"broadband_type_id":6}
{"id":null,"anchorname":"BRUSLY FIRE DEPARTMENT","address":"154 EAST SAINT FRANCIS STREET","bldgnbr":"154","predir":"E","streetname":"SAINT FRANCIS","streettype":null,"suffdir":null,"city":"Brusly","state_code":"LA","zip5":"70719","latitude":"30.3857080000000000","longitude":"-91.243774000000000","publicwifi":"U","url":null,"broadband_type_id":5}
{"id":null,"anchorname":"BRUSLY POLICE DEPARTMENT","address":"150 EAST SAINT FRANCIS STREET","bldgnbr":"150","predir":"E","streetname":"SAINT FRANCIS","streettype":null,"suffdir":null,"city":"Brusly","state_code":"LA","zip5":"70719","latitude":"30.3858340000000000","longitude":"-91.244019000000000","publicwifi":"U","url":null,"broadband_type_id":4}
{"id":null,"anchorname":"Lukeville Upper Elementary School","address":"6123 Highway 1  South","bldgnbr":"6123","predir":null,"streetname":"1","streettype":"HWY","suffdir":null,"city":"Brusly","state_code":"LA","zip5":"70719","latitude":"30.3820504560000000","longitude":"-91.247718391000000","publicwifi":"U","url":null,"broadband_type_id":6}
{"id":null,"anchorname":"Dept Of Public Safety","address":"1 Martin Luther King Jr Dr Sw","bldgnbr":"1","predir":null,"streetname":"Martin Luther King Jr","streettype":"Dr","suffdir":"SW","city":"ATLANTA","state_code":"GA","zip5":"30334","latitude":"33.7487348360000000","longitude":"-84.386250634000000","publicwifi":"U","url":null,"broadband_type_id":4}
{"id":null,"anchorname":"La Bauve Community Home","address":"5051 LaBauve Road","bldgnbr":"5051","predir":null,"streetname":"LABAUVE","streettype":null,"suffdir":null,"city":"Brusly","state_code":"LA","zip5":"70719","latitude":"30.3904000000000000","longitude":"-91.276802000000000","publicwifi":"U","url":null,"broadband_type_id":1}
{"id":null,"anchorname":"City Of Atlanta Dept Of Information Technology","address":"55 Trinity Ave Sw","bldgnbr":"55","predir":null,"streetname":"Trinity","streettype":"Ave","suffdir":"SW","city":"ATLANTA","state_code":"GA","zip5":"30303","latitude":"33.7471217840000000","longitude":"-84.388829987000000","publicwifi":"U","url":null,"broadband_type_id":1}
{"id":null,"anchorname":"ABC Early Childhood Learning and Development Center","address":"3343 Lukeville Lane","bldgnbr":"3343","predir":null,"streetname":"LUKEVILLE","streettype":null,"suffdir":null,"city":"Brusly","state_code":"LA","zip5":"70719","latitude":"30.3815990000000000","longitude":"-91.250298000000000","publicwifi":"U","url":null,"broadband_type_id":6}
{"id":null,"anchorname":"Adventureland","address":"1953 West Shore Ave","bldgnbr":"1953","predir":null,"streetname":"WEST SHORE","streettype":null,"suffdir":null,"city":"Port Allen","state_code":"LA","zip5":"70767","latitude":"30.4167080000000000","longitude":"-91.223885000000000","publicwifi":"U","url":null,"broadband_type_id":null}
{"id":null,"anchorname":"West Carroll Community Home","address":"3541 Cook Road","bldgnbr":"3541","predir":null,"streetname":"COOK","streettype":null,"suffdir":null,"city":"Oak Grove","state_code":"LA","zip5":"71263","latitude":"32.9187010000000000","longitude":"-91.440399000000000","publicwifi":"U","url":null,"broadband_type_id":6}
{"id":null,"anchorname":"W CARROLL PARISH AMB","address":"710 SETTON ST","bldgnbr":"710","predir":null,"streetname":"SETTON","streettype":null,"suffdir":null,"city":"Oak Grove","state_code":"LA","zip5":"71263","latitude":"32.8680990000000000","longitude":"-91.381310000000000","publicwifi":"U","url":null,"broadband_type_id":6}
{"id":null,"anchorname":"First Baptist Weekday Early Education","address":"608 East Main Street","bldgnbr":"608","predir":"E","streetname":"MAIN","streettype":null,"suffdir":null,"city":"Oak Grove","state_code":"LA","zip5":"71263","latitude":"32.8609010000000000","longitude":"-91.385597000000000","publicwifi":"U","url":null,"broadband_type_id":6}
{"id":null,"anchorname":"MCIO Oak Grove","address":"410 Combs Street","bldgnbr":"410","predir":null,"streetname":"COMBS","streettype":null,"suffdir":null,"city":"Oak Grove","state_code":"LA","zip5":"71263","latitude":"32.8689840000000000","longitude":"-91.389122000000000","publicwifi":"U","url":null,"broadband_type_id":null}
{"id":null,"anchorname":"Mary Biggs Day Developmental Training Center","address":"611 West Jefferson Street","bldgnbr":"611","predir":"W","streetname":"JEFFERSON","streettype":null,"suffdir":null,"city":"Oak Grove","state_code":"LA","zip5":"71263","latitude":"32.8610990000000000","longitude":"-91.401901000000000","publicwifi":"U","url":null,"broadband_type_id":null}
{"id":null,"anchorname":"Oak Grove Senior Center","address":"207 W JEFFERSON ST, OAK GROVE, LA, 71263","bldgnbr":"207","predir":"W","streetname":"JEFFERSON SAINT OAK","streettype":null,"suffdir":null,"city":"Oak Grove","state_code":"LA","zip5":"71263","latitude":"32.8619650000000000","longitude":"-91.390854000000000","publicwifi":"U","url":null,"broadband_type_id":null}
{"id":null,"anchorname":"Thomas Jason Lingo Communty Center","address":"10284 STHY 17, OAK GROVE, LA, 71263","bldgnbr":"10284","predir":null,"streetname":"LA 71263","streettype":null,"suffdir":null,"city":"Oak Grove","state_code":"LA","zip5":"71263","latitude":"32.8452300000000000","longitude":"-91.395569000000000","publicwifi":"U","url":null,"broadband_type_id":null}
{"id":null,"anchorname":"Kids Club Child Care and Learning Center, Inc.","address":"7743 Highway 1 South","bldgnbr":"7743","predir":null,"streetname":"1","streettype":"HWY","suffdir":null,"city":"Addis","state_code":"LA","zip5":"70710","latitude":"30.3596000000000000","longitude":"-91.260803000000000","publicwifi":"Y","url":null,"broadband_type_id":3}
{"id":null,"anchorname":"ADDIS POLICE DEPARTMENT","address":"7818 STATE HIGHWAY 1 SOUTH","bldgnbr":"7818","predir":null,"streetname":"1","streettype":"HWY","suffdir":null,"city":"Addis","state_code":"LA","zip5":"70710","latitude":"30.3557260000000000","longitude":"-91.260223000000000","publicwifi":"U","url":null,"broadband_type_id":4}
{"id":null,"anchorname":"Rocking Horse Child Care Center","address":"2253 American Way","bldgnbr":"2253","predir":null,"streetname":"AMERICAN","streettype":null,"suffdir":null,"city":"Port Allen","state_code":"LA","zip5":"70767","latitude":"30.4162010000000000","longitude":"-91.229401000000000","publicwifi":"U","url":null,"broadband_type_id":3}
{"id":null,"anchorname":"Brusly Elementary School","address":"400 South LaBauve Ave.","bldgnbr":"400","predir":"S","streetname":"LABAUVE","streettype":null,"suffdir":null,"city":"Brusly","state_code":"LA","zip5":"70719","latitude":"30.3917433990000000","longitude":"-91.255851960000000","publicwifi":"U","url":null,"broadband_type_id":6}
{"id":null,"anchorname":"KILBOURNE POLICE DEPARTMENT","address":"125 CARNELL STREET","bldgnbr":"125","predir":null,"streetname":"CARNELL","streettype":null,"suffdir":null,"city":"Oak Grove","state_code":"LA","zip5":"71263","latitude":"32.9947010000000000","longitude":"-91.316246000000000","publicwifi":"U","url":null,"broadband_type_id":4}
{"id":null,"anchorname":"Kilbourne High School","address":"229 West La. Avenue","bldgnbr":"229","predir":"W","streetname":"LA","streettype":null,"suffdir":null,"city":"Oak Grove","state_code":"LA","zip5":"71263","latitude":"32.9982853870000000","longitude":"-91.319172393000000","publicwifi":"U","url":null,"broadband_type_id":6}
{"id":null,"anchorname":"KILBOURNE VOLUNTEER FIRE DEPARTMENT","address":"381 KILBOURNE AVENUE","bldgnbr":"381","predir":null,"streetname":"KILBOURNE","streettype":null,"suffdir":null,"city":"Oak Grove","state_code":"LA","zip5":"71263","latitude":"32.9981120000000000","longitude":"-91.314758000000000","publicwifi":"U","url":null,"broadband_type_id":5}
{"id":null,"anchorname":"CONCORD VOLUNTEER FIRE DEPARTMENT CENTRAL STATION","address":"107 COSTELLO ROAD","bldgnbr":"107","predir":null,"streetname":"COSTELLO","streettype":null,"suffdir":null,"city":"Oak Grove","state_code":"LA","zip5":"71263","latitude":"32.9555320000000000","longitude":"-91.425560000000000","publicwifi":"U","url":null,"broadband_type_id":5}
{"id":null,"anchorname":"CONCORD VOLUNTEER FIRE DEPARTMENT MACEDONIA STATION","address":"16505 STATE HIGHWAY 585","bldgnbr":"16505","predir":null,"streetname":"585","streettype":"HWY","suffdir":null,"city":"Oak Grove","state_code":"LA","zip5":"71263","latitude":"32.9814640000000000","longitude":"-91.420036000000000","publicwifi":"U","url":null,"broadband_type_id":5}
{"id":null,"anchorname":"CONCORD VOLUNTEER FIRE DEPARTMENT OAK GROVE STATION","address":"13789 STATE HIGHWAY 17","bldgnbr":"13789","predir":null,"streetname":"17","streettype":"HWY","suffdir":null,"city":"Oak Grove","state_code":"LA","zip5":"71263","latitude":"32.9341550000000000","longitude":"-91.345818000000000","publicwifi":"U","url":null,"broadband_type_id":5}
{"id":null,"anchorname":"FISKE UNION VOLUNTEER FIRE DEPARTMENT NORTH STATION","address":"912 ALLEN ROAD","bldgnbr":"912","predir":null,"streetname":"ALLEN","streettype":null,"suffdir":null,"city":"Oak Grove","state_code":"LA","zip5":"71263","latitude":"32.9299090000000000","longitude":"-91.439285000000000","publicwifi":"U","url":null,"broadband_type_id":5}
{"id":null,"anchorname":"West Carroll Care Center, Inc.","address":"706 Ross Street","bldgnbr":"706","predir":null,"streetname":"ROSS","streettype":null,"suffdir":null,"city":"Oak Grove","state_code":"LA","zip5":"71263","latitude":"32.8674010000000000","longitude":"-91.383102000000000","publicwifi":"U","url":null,"broadband_type_id":3}
{"id":null,"anchorname":"OAK GROVE POLICE DEPARTMENT","address":"407 EAST MAIN STREET","bldgnbr":"407","predir":"E","streetname":"MAIN","streettype":null,"suffdir":null,"city":"Oak Grove","state_code":"LA","zip5":"71263","latitude":"32.8606720000000000","longitude":"-91.386292000000000","publicwifi":"N","url":null,"broadband_type_id":4}
{"id":null,"anchorname":"WEST CARROLL SHERIFF OFFICE","address":"305 EAST MAIN STREET","bldgnbr":"305","predir":"E","streetname":"MAIN","streettype":null,"suffdir":null,"city":"Oak Grove","state_code":"LA","zip5":"71263","latitude":"32.8606570000000000","longitude":"-91.387459000000000","publicwifi":"U","url":null,"broadband_type_id":4}
{"id":null,"anchorname":"West Carroll Health Unit","address":"402 Beale St.","bldgnbr":"402","predir":null,"streetname":"BEALE","streettype":null,"suffdir":null,"city":"Oak Grove","state_code":"LA","zip5":"71263","latitude":"32.8589480000000000","longitude":"-91.386002000000000","publicwifi":"U","url":null,"broadband_type_id":3}
{"id":null,"anchorname":"FOREST FIRE DEPARTMENT SUBSTATION","address":"225 CROWE ROAD","bldgnbr":"225","predir":null,"streetname":"CROWE","streettype":null,"suffdir":null,"city":"Oak Grove","state_code":"LA","zip5":"71263","latitude":"32.8316650000000000","longitude":"-91.379417000000000","publicwifi":"U","url":null,"broadband_type_id":5}
{"id":null,"anchorname":"Forest School","address":"158 Clover Street","bldgnbr":"158","predir":null,"streetname":"CLOVER","streettype":null,"suffdir":null,"city":"Oak Grove","state_code":"LA","zip5":"71263","latitude":"32.7929988610000000","longitude":"-91.410690648000000","publicwifi":"U","url":null,"broadband_type_id":6}
{"id":null,"anchorname":"FOREST FIRE DEPARTMENT CENTRAL STATION","address":"7916 STATE HIGHWAY 17","bldgnbr":"7916","predir":null,"streetname":"17","streettype":"HWY","suffdir":null,"city":"Oak Grove","state_code":"LA","zip5":"71263","latitude":"32.7836040000000000","longitude":"-91.414459000000000","publicwifi":"U","url":null,"broadband_type_id":5}
{"id":null,"anchorname":"Oak Grove Elementary School","address":"206 Tiger Drive","bldgnbr":"206","predir":null,"streetname":"TIGER","streettype":null,"suffdir":null,"city":"Oak Grove","state_code":"LA","zip5":"71263","latitude":"32.8578350190000000","longitude":"-91.395855869000000","publicwifi":"U","url":null,"broadband_type_id":6}
{"id":null,"anchorname":"Oak Grove High School","address":"501 West Main","bldgnbr":"501","predir":"W","streetname":"MAIN","streettype":null,"suffdir":null,"city":"Oak Grove","state_code":"LA","zip5":"71263","latitude":"32.8591580500000000","longitude":"-91.394814505000000","publicwifi":"U","url":null,"broadband_type_id":6}
{"id":null,"anchorname":"FISH UNION VOLUNTEER FIRE DEPARTMENT SOUTH STATION","address":"1263 STATE HIGHWAY 878","bldgnbr":"1263","predir":null,"streetname":"878","streettype":"HWY","suffdir":null,"city":"Oak Grove","state_code":"LA","zip5":"71263","latitude":"32.8416100000000000","longitude":"-91.492271000000000","publicwifi":"U","url":null,"broadband_type_id":5}
{"id":null,"anchorname":"OAK GROVE FIRE DISTRICT","address":"273 INDUSTRIAL BOULEVARD","bldgnbr":"273","predir":null,"streetname":"INDUSTRIAL","streettype":null,"suffdir":null,"city":"Oak Grove","state_code":"LA","zip5":"71263","latitude":"32.8537030000000000","longitude":"-91.398079000000000","publicwifi":"U","url":null,"broadband_type_id":5}
{"id":null,"anchorname":"GOODWILL VOLUNTEER FIRE DEPT.","address":"240 IRBY RD.","bldgnbr":"240","predir":null,"streetname":"IRBY","streettype":null,"suffdir":null,"city":"Oak Grove","state_code":"LA","zip5":"71263","latitude":"32.8020860000000000","longitude":"-91.505966000000000","publicwifi":"U","url":null,"broadband_type_id":5}
{"id":null,"anchorname":"Goodwill Elementary School","address":"1638 Hwy 2","bldgnbr":"1638","predir":null,"streetname":"2","streettype":"HWY","suffdir":null,"city":"Oak Grove","state_code":"LA","zip5":"71263","latitude":"32.7824729940000000","longitude":"-91.548982952000000","publicwifi":"U","url":null,"broadband_type_id":6}
{"id":null,"anchorname":"WARD 2 VOLUNTEER FIRE DEPARTMENT","address":"106 3RD STREET","bldgnbr":"106","predir":null,"streetname":"3RD","streettype":null,"suffdir":null,"city":"Pioneer","state_code":"LA","zip5":"71266","latitude":"32.7380940000000000","longitude":"-91.435440000000000","publicwifi":"U","url":null,"broadband_type_id":5}
{"id":null,"anchorname":"PIONEER POLICE DEPARTMENT","address":"609 CHERRY STREET","bldgnbr":"609","predir":null,"streetname":"CHERRY","streettype":null,"suffdir":null,"city":"Pioneer","state_code":"LA","zip5":"71266","latitude":"32.7376900000000000","longitude":"-91.433693000000000","publicwifi":"U","url":null,"broadband_type_id":4}
{"id":null,"anchorname":"EPPS POLICE DEPARTMENT","address":"120 MAPLE STREET","bldgnbr":"120","predir":null,"streetname":"MAPLE","streettype":null,"suffdir":null,"city":"Epps","state_code":"LA","zip5":"71237","latitude":"32.6030540000000000","longitude":"-91.478195000000000","publicwifi":"U","url":null,"broadband_type_id":4}
{"id":null,"anchorname":"West Feliciana Parish Head Start and Early Head Start","address":"9792 Bains Road","bldgnbr":"9792","predir":null,"streetname":"BAINS","streettype":null,"suffdir":null,"city":"St. Francisville","state_code":"LA","zip5":"70775","latitude":"30.8279000000000000","longitude":"-91.380203000000000","publicwifi":"U","url":null,"broadband_type_id":6}
{"id":null,"anchorname":"Little Sweet Wonders Child Development Center","address":"947 Highway 17","bldgnbr":"947","predir":null,"streetname":"17","streettype":"HWY","suffdir":null,"city":"Epps","state_code":"LA","zip5":"71237","latitude":"32.5966000000000000","longitude":"-91.481201000000000","publicwifi":"U","url":null,"broadband_type_id":null}
{"id":null,"anchorname":"W FELICIANA PARISH HOSP EMS \u0026 AMB","address":"5256 COMMERCE ST","bldgnbr":"5256","predir":null,"streetname":"COMMERCE","streettype":null,"suffdir":null,"city":"St. Francisville","state_code":"LA","zip5":"70775","latitude":"30.7843530000000000","longitude":"-91.365913000000000","publicwifi":"Y","url":null,"broadband_type_id":6}
{"id":null,"anchorname":"First Steps Christian Learning Center","address":"9912 Wilcox Street","bldgnbr":"9912","predir":null,"streetname":"WILCOX","streettype":null,"suffdir":null,"city":"St. Francisville","state_code":"LA","zip5":"70775","latitude":"30.7872010000000000","longitude":"-91.381500000000000","publicwifi":"Y","url":null,"broadband_type_id":6}
{"id":null,"anchorname":"Chase Ministeries","address":"9856 Royal Street","bldgnbr":"9856","predir":null,"streetname":"ROYAL","streettype":null,"suffdir":null,"city":"St. Francisville","state_code":"LA","zip5":"70775","latitude":"30.7747990000000000","longitude":"-91.385498000000000","publicwifi":"U","url":null,"broadband_type_id":6}
{"id":null,"anchorname":"Dipple Community Home","address":"10080 Dipple Drive","bldgnbr":"10080","predir":null,"streetname":"DIPPLE","streettype":null,"suffdir":null,"city":"St. Francisville","state_code":"LA","zip5":"70775","latitude":"30.7957000000000000","longitude":"-91.380302000000000","publicwifi":"U","url":null,"broadband_type_id":1}
{"id":null,"anchorname":"Dodson Community Residence","address":"8804 Hwy. 126","bldgnbr":"8804","predir":null,"streetname":"126","streettype":"HWY","suffdir":null,"city":"Dodson","state_code":"LA","zip5":"71422","latitude":"32.0782010000000000","longitude":"-92.640297000000000","publicwifi":"U","url":null,"broadband_type_id":6}
{"id":null,"anchorname":"Calvin Road Community Residence","address":"618 Joe Frazier Road","bldgnbr":"618","predir":null,"streetname":"JOE FRAZIER","streettype":null,"suffdir":null,"city":"Winnfield","state_code":"LA","zip5":"71483","latitude":"31.9592990000000000","longitude":"-92.709198000000000","publicwifi":"U","url":null,"broadband_type_id":6}
{"id":null,"anchorname":"MED EXPRESS AMBULANCE SVC, INC","address":"100 MAGNOLIA ST","bldgnbr":"100","predir":null,"streetname":"MAGNOLIA","streettype":null,"suffdir":null,"city":"Winnfield","state_code":"LA","zip5":"71483","latitude":"31.9272880000000000","longitude":"-92.647240000000000","publicwifi":"U","url":null,"broadband_type_id":6}
{"id":null,"anchorname":"Winn Association for Retarded Citizens, Inc.","address":"1006 South Jones Street","bldgnbr":"1006","predir":"S","streetname":"JONES","streettype":null,"suffdir":null,"city":"Winnfield","state_code":"LA","zip5":"71483","latitude":"31.9192010000000000","longitude":"-92.639999000000000","publicwifi":"U","url":null,"broadband_type_id":1}
{"id":null,"anchorname":"In The Beginning Child Development Center","address":"12404 LA Highway 10","bldgnbr":"12404","predir":null,"streetname":"LA","streettype":null,"suffdir":null,"city":"St. Francisville","state_code":"LA","zip5":"70775","latitude":"30.7890000000000000","longitude":"-91.375099000000000","publicwifi":"U","url":null,"broadband_type_id":null}
{"id":null,"anchorname":"Calvin Branch","address":"255 Second St","bldgnbr":"255","predir":null,"streetname":"2ND","streettype":null,"suffdir":null,"city":"Winnfield","state_code":"LA","zip5":"71483","latitude":"31.9663540000000000","longitude":"-92.775848000000000","publicwifi":"U","url":null,"broadband_type_id":null}
{"id":null,"anchorname":"Atlanta Branch","address":"110 School Rd","bldgnbr":"110","predir":null,"streetname":"SCHOOL","streettype":null,"suffdir":null,"city":"Atlanta","state_code":"LA","zip5":"71404","latitude":"31.8072620000000000","longitude":"-92.730042000000000","publicwifi":"U","url":null,"broadband_type_id":null}
{"id":null,"anchorname":"Pine Belt Multi-Purpose Agency Head Start- Winn Center","address":"1102 West Boundary Street","bldgnbr":"1102","predir":"W","streetname":"BOUNDARY","streettype":null,"suffdir":null,"city":"Winnfield","state_code":"LA","zip5":"71483","latitude":"31.9192010000000000","longitude":"-92.645103000000000","publicwifi":"U","url":null,"broadband_type_id":null}
{"id":null,"anchorname":"WINNFIELD EMERGENCY OPERATIONS CENTER-ALTERNATE","address":"104 WEST MAIN STREET","bldgnbr":"104","predir":"W","streetname":"MAIN","streettype":null,"suffdir":null,"city":"Winnfield","state_code":"LA","zip5":"71483","latitude":"31.9270000000000000","longitude":"-92.639000000000000","publicwifi":"U","url":null,"broadband_type_id":null}
{"id":null,"anchorname":"Winn Senior Center","address":"211 E MAIN ST, WINNFIELD, LA, 71483","bldgnbr":"211","predir":"E","streetname":"MAIN","streettype":null,"suffdir":null,"city":"Winnfield","state_code":"LA","zip5":"71483","latitude":"31.9268050000000000","longitude":"-92.637589000000000","publicwifi":"U","url":null,"broadband_type_id":null}
{"id":null,"anchorname":"Tunica Elementary School","address":"15311 Tunica Trace","bldgnbr":"15311","predir":null,"streetname":"TUNICA","streettype":null,"suffdir":null,"city":"Tunica","state_code":"LA","zip5":"70782","latitude":"30.9610416300000000","longitude":"-91.526991875000000","publicwifi":"U","url":null,"broadband_type_id":6}
{"id":null,"anchorname":"LOUISIANA STATE PENITENTIARY FIRE DEPARTMENT","address":"18480 TUNICA TRACE","bldgnbr":"18480","predir":null,"streetname":"TUNICA","streettype":null,"suffdir":null,"city":"St. Francisville","state_code":"LA","zip5":"70775","latitude":"30.9579470000000000","longitude":"-91.590950000000000","publicwifi":"U","url":null,"broadband_type_id":5}
{"id":null,"anchorname":"LA ST PENITENTIARY-FIRE \u0026 EMS AMB","address":"17544 LA-66","bldgnbr":"17544","predir":null,"streetname":"LA 66","streettype":null,"suffdir":null,"city":"St. Francisville","state_code":"LA","zip5":"70775","latitude":"30.9578970000000000","longitude":"-91.590927000000000","publicwifi":"N","url":null,"broadband_type_id":5}
{"id":null,"anchorname":"Bains Elementary School","address":"9792 Bains Road","bldgnbr":"9792","predir":null,"streetname":"BAINS","streettype":null,"suffdir":null,"city":"St. Francisville","state_code":"LA","zip5":"70775","latitude":"30.8266141740000000","longitude":"-91.378040115000000","publicwifi":"U","url":null,"broadband_type_id":6}
{"id":null,"anchorname":"Bains Lower Elementary School","address":"9794 Bains Road","bldgnbr":"9794","predir":null,"streetname":"BAINS","streettype":null,"suffdir":null,"city":"St. Francisville","state_code":"LA","zip5":"70775","latitude":"30.8249711480000000","longitude":"-91.377558813000000","publicwifi":"U","url":null,"broadband_type_id":6}
{"id":null,"anchorname":"West Feliciana High School","address":"8604 U.S. Hwy. 61","bldgnbr":"8604","predir":null,"streetname":"61","streettype":"HWY","suffdir":null,"city":"St. Francisville","state_code":"LA","zip5":"70775","latitude":"30.8262782840000000","longitude":"-91.384179722000000","publicwifi":"U","url":null,"broadband_type_id":6}
{"id":null,"anchorname":"West Feliciana Middle School","address":"9559 Bains Road","bldgnbr":"9559","predir":null,"streetname":"BAINS","streettype":null,"suffdir":null,"city":"St. Francisville","state_code":"LA","zip5":"70775","latitude":"30.8290822210000000","longitude":"-91.384037811000000","publicwifi":"U","url":null,"broadband_type_id":6}
{"id":null,"anchorname":"West Feliciana Health Unit","address":"5154 Burnett Rd.","bldgnbr":"5154","predir":null,"streetname":"BURNETT","streettype":null,"suffdir":null,"city":"St. Francisville","state_code":"LA","zip5":"70775","latitude":"30.7851350000000000","longitude":"-91.370255000000000","publicwifi":"U","url":null,"broadband_type_id":3}
{"id":null,"anchorname":"West Feliciana Parish Hospital","address":"5266 COMMERCE STREET","bldgnbr":"5266","predir":null,"streetname":"COMMERCE","streettype":null,"suffdir":null,"city":"St. Francisville","state_code":"LA","zip5":"70775","latitude":"30.7787930000000000","longitude":"-91.371513000000000","publicwifi":"Y","url":null,"broadband_type_id":3}
{"id":null,"anchorname":"CITY OF SAINT FRANCISVILLE VOLUNTEER FIRE DEPARTMENT","address":"11922 FERDINAND STREET","bldgnbr":"11922","predir":null,"streetname":"FERDINAND","streettype":null,"suffdir":null,"city":"St. Francisville","state_code":"LA","zip5":"70775","latitude":"30.7793390000000000","longitude":"-91.377129000000000","publicwifi":"U","url":null,"broadband_type_id":5}
{"id":null,"anchorname":"SAINT FRANCISVILLE POLICE DEPARTMENT","address":"11936 FERDINAND STREET","bldgnbr":"11936","predir":null,"streetname":"FERDINAND","streettype":null,"suffdir":null,"city":"St. Francisville","state_code":"LA","zip5":"70775","latitude":"30.7793750000000000","longitude":"-91.376945000000000","publicwifi":"U","url":null,"broadband_type_id":4}
{"id":null,"anchorname":"West Feliciana Parish Library","address":"11865 Ferdinand St., PO Box 3120","bldgnbr":"11865","predir":null,"streetname":"FERDINAND","streettype":null,"suffdir":null,"city":"St. Francisville","state_code":"LA","zip5":"70775","latitude":"30.7771050000000000","longitude":"-91.383255000000000","publicwifi":"Y","url":null,"broadband_type_id":6}
{"id":null,"anchorname":"All Care Vocational Services","address":"5229 Commerce St., Suite B","bldgnbr":"5229","predir":null,"streetname":"COMMERCE","streettype":null,"suffdir":null,"city":"St. Francisville","state_code":"LA","zip5":"70775","latitude":"30.7785000000000000","longitude":"-91.370499000000000","publicwifi":"U","url":null,"broadband_type_id":3}
{"id":null,"anchorname":"All Care Family Services,Inc.","address":"5229 Commerce Street","bldgnbr":"5229","predir":null,"streetname":"COMMERCE","streettype":null,"suffdir":null,"city":"St. Francisville","state_code":"LA","zip5":"70775","latitude":"30.7785000000000000","longitude":"-91.370499000000000","publicwifi":"U","url":null,"broadband_type_id":3}
{"id":null,"anchorname":"Dodson High School","address":"305 Jones Street","bldgnbr":"305","predir":null,"streetname":"JONES","streettype":null,"suffdir":null,"city":"Dodson","state_code":"LA","zip5":"71422","latitude":"32.0766556170000000","longitude":"-92.657802580000000","publicwifi":"U","url":null,"broadband_type_id":6}
{"id":null,"anchorname":"Calvin High School","address":"223 Second Street","bldgnbr":"223","predir":null,"streetname":"2ND","streettype":null,"suffdir":null,"city":"Winnfield","state_code":"LA","zip5":"71483","latitude":"31.9680706050000000","longitude":"-92.775340613000000","publicwifi":"Y","url":null,"broadband_type_id":6}
{"id":null,"anchorname":"Winnfield Middle School","address":"685 Thomas Mill Road","bldgnbr":"685","predir":null,"streetname":"THOMAS MILL","streettype":null,"suffdir":null,"city":"Winnfield","state_code":"LA","zip5":"71483","latitude":"31.9470813070000000","longitude":"-92.658536632000000","publicwifi":"U","url":null,"broadband_type_id":6}
{"id":null,"anchorname":"Winnfield Senior High School","address":"631 Thomas Mill Road","bldgnbr":"631","predir":null,"streetname":"THOMAS MILL","streettype":null,"suffdir":null,"city":"Winnfield","state_code":"LA","zip5":"71483","latitude":"31.9466625930000000","longitude":"-92.655068083000000","publicwifi":"U","url":null,"broadband_type_id":6}
{"id":null,"anchorname":"WINN PARISH FIRE DISTRICT 3","address":"8920 STATE HIGHWAY 501","bldgnbr":"8920","predir":null,"streetname":"501","streettype":"HWY","suffdir":null,"city":"Winnfield","state_code":"LA","zip5":"71483","latitude":"31.9427800000000000","longitude":"-92.664032000000000","publicwifi":"U","url":null,"broadband_type_id":5}
{"id":null,"anchorname":"Autumn Leaves Nursing \u0026 Rehab Center, LLC","address":"342 Country Club Road","bldgnbr":"342","predir":null,"streetname":"COUNTRY CLUB","streettype":null,"suffdir":null,"city":"Winnfield","state_code":"LA","zip5":"71483","latitude":"31.9143010000000000","longitude":"-92.662003000000000","publicwifi":"U","url":null,"broadband_type_id":3}
{"id":null,"anchorname":"Atlanta School","address":"118 School Road","bldgnbr":"118","predir":null,"streetname":"SCHOOL","streettype":null,"suffdir":null,"city":"Atlanta","state_code":"LA","zip5":"71404","latitude":"31.8064990000000000","longitude":"-92.732803000000000","publicwifi":"Y","url":null,"broadband_type_id":6}
{"id":null,"anchorname":"Winnfield Intermediate School","address":"400 South St. John Street","bldgnbr":"400","predir":"S","streetname":"SAINT JOHN","streettype":null,"suffdir":null,"city":"Winnfield","state_code":"LA","zip5":"71483","latitude":"31.9236230630000000","longitude":"-92.642054622000000","publicwifi":"U","url":null,"broadband_type_id":6}
{"id":null,"anchorname":"Winn Health Unit","address":"301 W. Main St.","bldgnbr":"301","predir":"W","streetname":"MAIN","streettype":null,"suffdir":null,"city":"Winnfield","state_code":"LA","zip5":"71483","latitude":"31.9267730000000000","longitude":"-92.640793000000000","publicwifi":"U","url":null,"broadband_type_id":3}
{"id":null,"anchorname":"Fulton County Marshals Office","address":"160 Pryor Street Sw","bldgnbr":"160","predir":null,"streetname":"Pryor","streettype":"St","suffdir":"SW","city":"ATLANTA","state_code":"GA","zip5":"30303","latitude":"33.7506520000000000","longitude":"-84.391146000000000","publicwifi":"U","url":null,"broadband_type_id":1}
{"id":null,"anchorname":"WINNFIELD EMERGENCY OPERATIONS CENTER","address":"119 WEST MAIN STREET","bldgnbr":"119","predir":"W","streetname":"MAIN","streettype":null,"suffdir":null,"city":"Winnfield","state_code":"LA","zip5":"71483","latitude":"31.9262500000000000","longitude":"-92.639137000000000","publicwifi":"N","url":null,"broadband_type_id":null}
{"id":null,"anchorname":"Dept Of Natural Resources","address":"270 Washington St Sw","bldgnbr":"270","predir":null,"streetname":"Washington","streettype":"St","suffdir":"SW","city":"ATLANTA","state_code":"GA","zip5":"30334","latitude":"33.7489418920000000","longitude":"-84.389268340000000","publicwifi":"U","url":null,"broadband_type_id":6}
{"id":null,"anchorname":"COUNSELING \u0026 PSYCHOTHERAPY CENTER; ONE GREAT FALLS PLAZA-003","address":"1 GREAT FALLS PLZ, AUBURN","bldgnbr":"1","predir":null,"streetname":"GREAT FALLS","streettype":"PLZ","suffdir":null,"city":"AUBURN","state_code":"ME","zip5":"4212","latitude":"44.0975058030000000","longitude":"-70.224644974000000","publicwifi":"U","url":null,"broadband_type_id":3}
{"id":null,"anchorname":"Dept Of Natural Resources","address":"1150 Murphy Ave Sw","bldgnbr":"1150","predir":null,"streetname":"Murphy","streettype":"Ave","suffdir":"SW","city":"ATLANTA","state_code":"GA","zip5":"30310","latitude":"33.7233547690000000","longitude":"-84.421269241000000","publicwifi":"U","url":null,"broadband_type_id":6}
{"id":null,"anchorname":"Heritage Academy Elementary","address":"3500 Villa Cir Se","bldgnbr":"3500","predir":null,"streetname":"Villa","streettype":"Cir","suffdir":"SE","city":"ATLANTA","state_code":"GA","zip5":"30354","latitude":"33.6589400000000000","longitude":"-84.379238000000000","publicwifi":"U","url":null,"broadband_type_id":6}
{"id":null,"anchorname":"Apache Drive Community Residence","address":"2000 Apache Drive","bldgnbr":"2000","predir":null,"streetname":"APACHE","streettype":null,"suffdir":null,"city":"Winnfield","state_code":"LA","zip5":"71483","latitude":"31.9253010000000000","longitude":"-92.619400000000000","publicwifi":"U","url":null,"broadband_type_id":6}
{"id":null,"anchorname":"ANDROSCOGGIN CNTY SUPERIOR COURTHSE","address":"2 TURNER ST AUBURN ME 04210","bldgnbr":"2","predir":null,"streetname":"TURNER","streettype":"ST","suffdir":null,"city":"AUBURN","state_code":"ME","zip5":"04210","latitude":"44.0981400010000000","longitude":"-70.226170000000000","publicwifi":"U","url":null,"broadband_type_id":6}
{"id":null,"anchorname":"WEISS, ROBERT J","address":"2 GREAT FALLS PL AUBURN ME 04210","bldgnbr":"2","predir":null,"streetname":"GREAT FALLS","streettype":"PL","suffdir":null,"city":"AUBURN","state_code":"ME","zip5":"04210","latitude":"44.0974857590000000","longitude":"-70.224794753000000","publicwifi":"U","url":null,"broadband_type_id":6}
{"id":null,"anchorname":"COMMUNITY CONCEPTS INC; AUBURN-001","address":"79 MAIN ST, AUBURN","bldgnbr":"79","predir":null,"streetname":"MAIN","streettype":"ST","suffdir":null,"city":"AUBURN","state_code":"ME","zip5":"4210","latitude":"44.0971588750000000","longitude":"-70.224945614000000","publicwifi":"U","url":null,"broadband_type_id":1}
{"id":null,"anchorname":"Winnfield Kindergarten","address":"1607 Maple Street","bldgnbr":"1607","predir":null,"streetname":"MAPLE","streettype":null,"suffdir":null,"city":"Winnfield","state_code":"LA","zip5":"71483","latitude":"31.9276382300000000","longitude":"-92.625051755000000","publicwifi":"U","url":null,"broadband_type_id":null}
{"id":null,"anchorname":"ANDROSCOGGIN HISTORICAL SOCIETY","address":"2 TURNER ST AUBURN ME 04210","bldgnbr":"2","predir":null,"streetname":"TURNER","streettype":"ST","suffdir":null,"city":"AUBURN","state_code":"ME","zip5":"04210","latitude":"44.0975681430000000","longitude":"-70.226191117000000","publicwifi":"U","url":null,"broadband_type_id":6}
{"id":null,"anchorname":"DEPARTMENT OF CORRECTIONS (ONE GREAT FALLS PLAZA)","address":"1 GREAT FALLS PLZ AUBURN ME 04210","bldgnbr":"1","predir":null,"streetname":"GREAT FALLS","streettype":"PLZ","suffdir":null,"city":"AUBURN","state_code":"ME","zip5":"04210","latitude":"44.0981635800000000","longitude":"-70.224271009000000","publicwifi":"U","url":null,"broadband_type_id":null}
{"id":null,"anchorname":"POST OFFICE-GREAT FALLS PLZ","address":"2 GREAT FALLS PLZ AUBURN ME 04210","bldgnbr":"2","predir":null,"streetname":"GREAT FALLS","streettype":"PLZ","suffdir":null,"city":"AUBURN","state_code":"ME","zip5":"04210","latitude":"44.0990100010000000","longitude":"-70.225970000000000","publicwifi":"U","url":null,"broadband_type_id":null}
{"id":null,"anchorname":"CHRISTINE A MITCHELL, DO","address":"86 MAIN ST AUBURN ME 04210","bldgnbr":"86","predir":null,"streetname":"MAIN","streettype":"ST","suffdir":null,"city":"AUBURN","state_code":"ME","zip5":"04210","latitude":"44.0969731810000000","longitude":"-70.224901189000000","publicwifi":"U","url":null,"broadband_type_id":6}
{"id":null,"anchorname":"NAGLER, DAVID","address":"2 GREAT FALLS PL AUBURN ME 04210","bldgnbr":"2","predir":null,"streetname":"GREAT FALLS","streettype":"PL","suffdir":null,"city":"AUBURN","state_code":"ME","zip5":"04210","latitude":"44.0974857590000000","longitude":"-70.224794753000000","publicwifi":"U","url":null,"broadband_type_id":null}
{"id":null,"anchorname":"CAMPBELL, RONALD R","address":"2 GREAT FALLS PL AUBURN ME 04210","bldgnbr":"2","predir":null,"streetname":"GREAT FALLS","streettype":"PL","suffdir":null,"city":"AUBURN","state_code":"ME","zip5":"04210","latitude":"44.0974857590000000","longitude":"-70.224794753000000","publicwifi":"U","url":null,"broadband_type_id":null}
{"id":null,"anchorname":"AUBURN CITY BUILDING","address":"60 COURT ST AUBURN ME 04210","bldgnbr":"60","predir":null,"streetname":"COURT","streettype":"ST","suffdir":null,"city":"AUBURN","state_code":"ME","zip5":"04210","latitude":"44.0974000010000000","longitude":"-70.225300000000000","publicwifi":"U","url":null,"broadband_type_id":1}
{"id":null,"anchorname":"YMCA","address":"62 TURNER ST AUBURN ME 04210","bldgnbr":"62","predir":null,"streetname":"TURNER","streettype":"ST","suffdir":null,"city":"AUBURN","state_code":"ME","zip5":"04210","latitude":"44.0988095920000000","longitude":"-70.226621260000000","publicwifi":"U","url":null,"broadband_type_id":null}
{"id":null,"anchorname":"CHAPMAN HOUSE; CHAPMAN HOUSE-001","address":"41 PLEASANT ST, AUBURN","bldgnbr":"41","predir":null,"streetname":"PLEASANT","streettype":"ST","suffdir":null,"city":"AUBURN","state_code":"ME","zip5":"4210","latitude":"44.0985148690000000","longitude":"-70.227802420000000","publicwifi":"U","url":null,"broadband_type_id":null}
{"id":null,"anchorname":"DILLINGHAM \u0026 SON MEMORIAL CHAPEL","address":"62 SPRING ST AUBURN ME 04210","bldgnbr":"62","predir":null,"streetname":"SPRING","streettype":"ST","suffdir":null,"city":"AUBURN","state_code":"ME","zip5":"04210","latitude":"44.0975339100000000","longitude":"-70.228933665000000","publicwifi":"U","url":null,"broadband_type_id":null}
{"id":null,"anchorname":"CENTRAL MAINE NEUROLOGY AND PA","address":"10 MINOT AVE AUBURN ME 04210","bldgnbr":"10","predir":null,"streetname":"MINOT","streettype":"AVE","suffdir":null,"city":"AUBURN","state_code":"ME","zip5":"04210","latitude":"44.0974815540000000","longitude":"-70.231225706000000","publicwifi":"U","url":null,"broadband_type_id":null}
{"id":null,"anchorname":"FUNERAL CONSUMERS ALLIANCE","address":"169 PLEASANT ST AUBURN ME 04210","bldgnbr":"169","predir":null,"streetname":"PLEASANT","streettype":"ST","suffdir":null,"city":"AUBURN","state_code":"ME","zip5":"04210","latitude":"44.0939369080000000","longitude":"-70.229328085000000","publicwifi":"U","url":null,"broadband_type_id":null}
{"id":null,"anchorname":"Great Falls Recovery and Counseling- AUBURN","address":"79 Main St AUBURN ME 04210","bldgnbr":"79","predir":null,"streetname":"Main","streettype":"St","suffdir":null,"city":"AUBURN","state_code":"ME","zip5":"04210","latitude":"44.0971588620000000","longitude":"-70.224945609000000","publicwifi":"U","url":null,"broadband_type_id":null}
{"id":null,"anchorname":"AUBURN WIC","address":"79 MAIN ST AUBURN ME 04210","bldgnbr":"79","predir":null,"streetname":"MAIN","streettype":"ST","suffdir":null,"city":"AUBURN","state_code":"ME","zip5":"04210","latitude":"44.0971169340000000","longitude":"-70.224878030000000","publicwifi":"U","url":null,"broadband_type_id":null}
{"id":null,"anchorname":"RAGGAMUFFINS","address":"119 CENTER ST AUBURN ME 04210","bldgnbr":"119","predir":null,"streetname":"CENTER","streettype":"ST","suffdir":null,"city":"AUBURN","state_code":"ME","zip5":"04210","latitude":"44.1056651860000000","longitude":"-70.225747944000000","publicwifi":"U","url":null,"broadband_type_id":null}
{"id":null,"anchorname":"WINN PARISH SHERIFF DEPARTMENT","address":"119 WEST MAIN STREET","bldgnbr":"119","predir":"W","streetname":"MAIN","streettype":null,"suffdir":null,"city":"Winnfield","state_code":"LA","zip5":"71483","latitude":"31.9263650000000000","longitude":"-92.639122000000000","publicwifi":"U","url":null,"broadband_type_id":4}
{"id":null,"anchorname":"WINNFIELD POLICE DEPARTMENT","address":"203 SOUTH JONES STREET","bldgnbr":"203","predir":"S","streetname":"JONES","streettype":null,"suffdir":null,"city":"Winnfield","state_code":"LA","zip5":"71483","latitude":"31.9254280000000000","longitude":"-92.639336000000000","publicwifi":"U","url":null,"broadband_type_id":4}
{"id":null,"anchorname":"LA Technical College-Huey P. Long Campus","address":"304 South Jones Street","bldgnbr":"304","predir":"S","streetname":"JONES","streettype":null,"suffdir":null,"city":"Winnfield","state_code":"LA","zip5":"71483","latitude":"31.9248010000000000","longitude":"-92.639702000000000","publicwifi":"U","url":null,"broadband_type_id":6}
{"id":null,"anchorname":"Winnfield Primary School","address":"401 South St. John Street","bldgnbr":"401","predir":"S","streetname":"SAINT JOHN","streettype":null,"suffdir":null,"city":"Winnfield","state_code":"LA","zip5":"71483","latitude":"31.9237838900000000","longitude":"-92.641294086000000","publicwifi":"U","url":null,"broadband_type_id":6}
{"id":null,"anchorname":"Winnfield Nursing \u0026 Rehab. Ctr., LLC","address":"915 1st Street","bldgnbr":"915","predir":null,"streetname":"1ST","streettype":null,"suffdir":null,"city":"Winnfield","state_code":"LA","zip5":"71483","latitude":"31.9321000000000000","longitude":"-92.631203000000000","publicwifi":"U","url":null,"broadband_type_id":3}
{"id":null,"anchorname":"Future Expectation Community Care Services LLC","address":"600 East Main Street","bldgnbr":"600","predir":"E","streetname":"MAIN","streettype":null,"suffdir":null,"city":"Winnfield","state_code":"LA","zip5":"71483","latitude":"31.9266000000000000","longitude":"-92.634499000000000","publicwifi":"U","url":null,"broadband_type_id":3}
{"id":null,"anchorname":"CENTRAL MAINE MEDICAL CENTER; CENTRAL MAINE HEART ASSOCIATES-053","address":"2 GREAT FALLS PLZ, AUBURN","bldgnbr":"2","predir":null,"streetname":"GREAT FALLS","streettype":"PLZ","suffdir":null,"city":"AUBURN","state_code":"ME","zip5":"4210","latitude":"44.0974858120000000","longitude":"-70.224794728000000","publicwifi":"U","url":null,"broadband_type_id":3}
{"id":null,"anchorname":"ANDROSCOGGIN COUNTY COURT HOUSE LAW LIBRARY","address":"2 TURNER ST AUBURN ME 04210","bldgnbr":"2","predir":null,"streetname":"TURNER","streettype":"ST","suffdir":null,"city":"AUBURN","state_code":"ME","zip5":"04210","latitude":"44.0977330870000000","longitude":"-70.226331492000000","publicwifi":"U","url":null,"broadband_type_id":6}
{"id":null,"anchorname":"ANDROSCOGGIN COUNTY SHERIFF","address":"2 TURNER ST AUBURN ME 04210","bldgnbr":"2","predir":null,"streetname":"TURNER","streettype":"ST","suffdir":null,"city":"AUBURN","state_code":"ME","zip5":"04210","latitude":"44.0980592740000000","longitude":"-70.226571292000000","publicwifi":"U","url":null,"broadband_type_id":4}
{"id":null,"anchorname":"AUBURN PUBLIC LIBRARY","address":"49 SPRING ST AUBURN ME 04210","bldgnbr":"49","predir":null,"streetname":"SPRING","streettype":"ST","suffdir":null,"city":"AUBURN","state_code":"ME","zip5":"04210","latitude":"44.0980800010000000","longitude":"-70.228750000000000","publicwifi":"U","url":null,"broadband_type_id":6}
{"id":null,"anchorname":"HEALTH AFFILIATES MAINE LLC; 158 COURT STREET-002","address":"158 COURT ST, AUBURN","bldgnbr":"158","predir":null,"streetname":"COURT","streettype":"ST","suffdir":null,"city":"AUBURN","state_code":"ME","zip5":"4210","latitude":"44.0976909210000000","longitude":"-70.228842512000000","publicwifi":"U","url":null,"broadband_type_id":3}
{"id":null,"anchorname":"HEALTH AFFILIATES MAINE; 158 COURT ST TCM-080","address":"158 COURT ST, AUBURN","bldgnbr":"158","predir":null,"streetname":"COURT","streettype":"ST","suffdir":null,"city":"AUBURN","state_code":"ME","zip5":"4212","latitude":"44.0976909210000000","longitude":"-70.228842512000000","publicwifi":"U","url":null,"broadband_type_id":3}
{"id":null,"anchorname":"CORNERSTONE BEHAVIORAL HEALTHCARE, LLC; 81 MAIN ST STE 146-082","address":"81 MAIN ST, AUBURN","bldgnbr":"81","predir":null,"streetname":"MAIN","streettype":"ST","suffdir":null,"city":"AUBURN","state_code":"ME","zip5":"4210","latitude":"44.0971169220000000","longitude":"-70.224973799000000","publicwifi":"U","url":null,"broadband_type_id":3}
{"id":null,"anchorname":"SCHOONER RETIREMENT COMMUNITY, INC- 200 STETSON ROAD","address":"200 Stetson Rd AUBURN ME 04210","bldgnbr":"200","predir":null,"streetname":"Stetson","streettype":"Rd","suffdir":null,"city":"AUBURN","state_code":"ME","zip5":"04210","latitude":"44.1273966100000000","longitude":"-70.218710638000000","publicwifi":"U","url":null,"broadband_type_id":1}
{"id":null,"anchorname":"MICHAEL K. CYR, DC, PA- CYR CHIROPRACTIC CENTER PA","address":"155 Center St AUBURN ME 04210","bldgnbr":"155","predir":null,"streetname":"Center","streettype":"St","suffdir":null,"city":"AUBURN","state_code":"ME","zip5":"04210","latitude":"44.1079518090000000","longitude":"-70.225725654000000","publicwifi":"U","url":null,"broadband_type_id":null}
{"id":null,"anchorname":"PROVIDENCE SERVICE CORPORATION OF MAINE; FSD 10005-005","address":"155 CENTER ST, AUBURN","bldgnbr":"155","predir":null,"streetname":"CENTER","streettype":"ST","suffdir":null,"city":"AUBURN","state_code":"ME","zip5":"4210","latitude":"44.1079518170000000","longitude":"-70.225725597000000","publicwifi":"U","url":null,"broadband_type_id":null}
{"id":null,"anchorname":"Georgia Technology Authority","address":"130 Peachtree St Sw","bldgnbr":"130","predir":null,"streetname":"Peachtree","streettype":"St","suffdir":"SW","city":"ATLANTA","state_code":"GA","zip5":"30303","latitude":"33.7510588730000000","longitude":"-84.392843667000000","publicwifi":"U","url":null,"broadband_type_id":1}
{"id":null,"anchorname":"RIVERSIDE EYE CENTER; AUBURN-002","address":"245 CENTER ST, AUBURN","bldgnbr":"245","predir":null,"streetname":"CENTER","streettype":"ST","suffdir":null,"city":"AUBURN","state_code":"ME","zip5":"4210","latitude":"44.1112247740000000","longitude":"-70.224989273000000","publicwifi":"U","url":null,"broadband_type_id":null}
{"id":null,"anchorname":"Finch Elementary","address":"1114 Avon Ave Sw","bldgnbr":"1114","predir":null,"streetname":"Avon","streettype":"Ave","suffdir":"SW","city":"ATLANTA","state_code":"GA","zip5":"30310","latitude":"33.7222380000000000","longitude":"-84.424684000000000","publicwifi":"U","url":null,"broadband_type_id":6}
{"id":null,"anchorname":"THE FORTIN GROUP","address":"217 TURNER ST AUBURN ME 04210","bldgnbr":"217","predir":null,"streetname":"TURNER","streettype":"ST","suffdir":null,"city":"AUBURN","state_code":"ME","zip5":"04210","latitude":"44.1025801580000000","longitude":"-70.226860995000000","publicwifi":"U","url":null,"broadband_type_id":null}
{"id":null,"anchorname":"B \u0026 B DENTAL, LLC; AUBURN-007","address":"730 CENTER ST, AUBURN","bldgnbr":"730","predir":null,"streetname":"CENTER","streettype":"ST","suffdir":null,"city":"AUBURN","state_code":"ME","zip5":"4210","latitude":"44.1242503960000000","longitude":"-70.224962875000000","publicwifi":"U","url":null,"broadband_type_id":null}
{"id":null,"anchorname":"NEW ENGLAND DENTURE CENTER; AUBURN-006","address":"730 CENTER ST, AUBURN","bldgnbr":"730","predir":null,"streetname":"CENTER","streettype":"ST","suffdir":null,"city":"AUBURN","state_code":"ME","zip5":"4210","latitude":"44.1242503960000000","longitude":"-70.224962875000000","publicwifi":"U","url":null,"broadband_type_id":null}
{"id":null,"anchorname":"GOODWILL STORE","address":"939 TURNER AVE AUBURN ME 04210","bldgnbr":"939","predir":null,"streetname":"TURNER","streettype":"AVE","suffdir":null,"city":"AUBURN","state_code":"ME","zip5":"04210","latitude":"44.1237287560000000","longitude":"-70.231444541000000","publicwifi":"U","url":null,"broadband_type_id":null}
{"id":null,"anchorname":"Department Of Public Safety -Letpp Project","address":"935 E Confederate Ave Se","bldgnbr":"935","predir":"E","streetname":"Confederate","streettype":"Ave","suffdir":"SE","city":"ATLANTA","state_code":"GA","zip5":"30316","latitude":"33.7265224970000000","longitude":"-84.356994613000000","publicwifi":"U","url":null,"broadband_type_id":4}
{"id":null,"anchorname":"CTL ME ORAL \u0026 MAXILLOFACIAL","address":"405 CENTER ST AUBURN ME 04210","bldgnbr":"405","predir":null,"streetname":"CENTER","streettype":"ST","suffdir":null,"city":"AUBURN","state_code":"ME","zip5":"04210","latitude":"44.1164927000000000","longitude":"-70.224684498000000","publicwifi":"U","url":null,"broadband_type_id":null}
{"id":null,"anchorname":"Mt Nebo Christian Academy","address":"1025 Mcdonough Blvd Se","bldgnbr":"1025","predir":null,"streetname":"Mcdonough","streettype":"Boulevard","suffdir":"SE","city":"ATLANTA","state_code":"GA","zip5":"30315","latitude":"33.7043484490000000","longitude":"-84.351404528000000","publicwifi":"U","url":null,"broadband_type_id":6}
{"id":null,"anchorname":"LUTHERAN COMMUNITY SERVICES, INC.; PNMI ALKA LUTHERAN COMM SVCS-024","address":"153 LAKE AUBURN AVE, AUBURN","bldgnbr":"153","predir":null,"streetname":"LAKE AUBURN","streettype":"AVE","suffdir":null,"city":"AUBURN","state_code":"ME","zip5":"4210","latitude":"44.1114836010000000","longitude":"-70.226011308000000","publicwifi":"U","url":null,"broadband_type_id":6}
{"id":null,"anchorname":"BEACON HOSPICE INC D/B/A BEACON HOSPICE, AN AMEDISYS COMPAN; LEWISTON-003","address":"245 CENTER ST, AUBURN","bldgnbr":"245","predir":null,"streetname":"CENTER","streettype":"ST","suffdir":null,"city":"AUBURN","state_code":"ME","zip5":"4210","latitude":"44.1112247740000000","longitude":"-70.224989273000000","publicwifi":"U","url":null,"broadband_type_id":6}
{"id":null,"anchorname":"JOHN F MURPHY HOMES, INC.; 283 TURNER ST-005","address":"283 TURNER ST, AUBURN","bldgnbr":"283","predir":null,"streetname":"TURNER","streettype":"ST","suffdir":null,"city":"AUBURN","state_code":"ME","zip5":"4210","latitude":"44.1042612490000000","longitude":"-70.228519962000000","publicwifi":"U","url":null,"broadband_type_id":6}
{"id":null,"anchorname":"DEPARTMENT OF CORRECTIONS","address":"945 CENTER ST AUBURN ME 04210","bldgnbr":"945","predir":null,"streetname":"CENTER","streettype":"ST","suffdir":null,"city":"AUBURN","state_code":"ME","zip5":"04210","latitude":"44.1344558790000000","longitude":"-70.224509826000000","publicwifi":"U","url":null,"broadband_type_id":null}
{"id":null,"anchorname":"OPPORTUNITY ENTERPRISES, INC.; CCM-024","address":"400 CENTER ST, AUBURN","bldgnbr":"400","predir":null,"streetname":"CENTER","streettype":"ST","suffdir":null,"city":"AUBURN","state_code":"ME","zip5":"4210","latitude":"44.1162886870000000","longitude":"-70.224797078000000","publicwifi":"U","url":null,"broadband_type_id":6}
{"id":null,"anchorname":"BUILDING BLOCKS OCCUPATIONAL THERAPY SERVICES, INC.; OFFICE-001","address":"229 CENTER ST, AUBURN","bldgnbr":"229","predir":null,"streetname":"CENTER","streettype":"ST","suffdir":null,"city":"AUBURN","state_code":"ME","zip5":"4210","latitude":"44.1107538460000000","longitude":"-70.225118179000000","publicwifi":"U","url":null,"broadband_type_id":6}
{"id":null,"anchorname":"HARVEST HILLS CHURCH","address":"89 BROADWAY AVE AUBURN ME 04210","bldgnbr":"89","predir":null,"streetname":"BROADWAY","streettype":"AVE","suffdir":null,"city":"AUBURN","state_code":"ME","zip5":"04210","latitude":"44.1134068740000000","longitude":"-70.227209984000000","publicwifi":"U","url":null,"broadband_type_id":6}
{"id":null,"anchorname":"WAL-MART STORES EAST LP; WAL-MART PHARMACY 10-1868-001","address":"100 MOUNT AUBURN AVE, AUBURN","bldgnbr":"100","predir":null,"streetname":"MOUNT AUBURN","streettype":"AVE","suffdir":null,"city":"AUBURN","state_code":"ME","zip5":"4210","latitude":"44.1212525190000000","longitude":"-70.238119567000000","publicwifi":"U","url":null,"broadband_type_id":3}
{"id":null,"anchorname":"FUNCTIONAL SPINE CENTER, PA","address":"2 WILLOW RD AUBURN ME 04210","bldgnbr":"2","predir":null,"streetname":"WILLOW","streettype":"RD","suffdir":null,"city":"AUBURN","state_code":"ME","zip5":"04210","latitude":"44.1202125630000000","longitude":"-70.234757185000000","publicwifi":"U","url":null,"broadband_type_id":null}
{"id":null,"anchorname":"RAYMOND T. BEDETTE, DDS, PA; AUBURN-004","address":"1 WILLOW RUN, AUBURN","bldgnbr":"1","predir":null,"streetname":"WILLOW","streettype":"RUN","suffdir":null,"city":"AUBURN","state_code":"ME","zip5":"4210","latitude":"44.1202395960000000","longitude":"-70.234904834000000","publicwifi":"U","url":null,"broadband_type_id":null}
{"id":null,"anchorname":"MAINE ORAL \u0026 MAXILLOFACIAL SURGERY ASSOCIATES, P.A.; MAINE ORAL \u0026 MAXILLOFACIAL SURGERY ASSOCIATES PA-001","address":"211 MOUNT AUBURN AVE, AUBURN","bldgnbr":"211","predir":null,"streetname":"MOUNT AUBURN","streettype":"AVE","suffdir":null,"city":"AUBURN","state_code":"ME","zip5":"4210","latitude":"44.1228994480000000","longitude":"-70.243121401000000","publicwifi":"U","url":null,"broadband_type_id":6}
{"id":null,"anchorname":"CENTRAL MAINE ENDODONTICS; MT AUBURN AVE-001","address":"219 MOUNT AUBURN AVE, AUBURN","bldgnbr":"219","predir":null,"streetname":"MOUNT AUBURN","streettype":"AVE","suffdir":null,"city":"AUBURN","state_code":"ME","zip5":"4210","latitude":"44.1229439420000000","longitude":"-70.243515335000000","publicwifi":"U","url":null,"broadband_type_id":null}
{"id":null,"anchorname":"THREE RIVERS ORTHOPAEDICS, P.A.; THREE RIVERS ORTHO - AUBURN-005","address":"219 MOUNT AUBURN AVE, AUBURN","bldgnbr":"219","predir":null,"streetname":"MOUNT AUBURN","streettype":"AVE","suffdir":null,"city":"AUBURN","state_code":"ME","zip5":"4210","latitude":"44.1229439420000000","longitude":"-70.243515335000000","publicwifi":"U","url":null,"broadband_type_id":null}
{"id":null,"anchorname":"BECKET ACADEMY OF MAINE; RENAISSANCE HOUSE-BECKET-007","address":"220 TURNER ST, AUBURN","bldgnbr":"220","predir":null,"streetname":"TURNER","streettype":"ST","suffdir":null,"city":"AUBURN","state_code":"ME","zip5":"4210","latitude":"44.1025483820000000","longitude":"-70.227022208000000","publicwifi":"U","url":null,"broadband_type_id":6}
{"id":null,"anchorname":"AUBURN MALL EYECARE; AUBURN MALL EYECARE-001","address":"550 CENTER ST, AUBURN","bldgnbr":"550","predir":null,"streetname":"CENTER","streettype":"ST","suffdir":null,"city":"AUBURN","state_code":"ME","zip5":"4210","latitude":"44.1213826100000000","longitude":"-70.225364847000000","publicwifi":"U","url":null,"broadband_type_id":3}
{"id":null,"anchorname":"CENTRAL MAINE COMMUNITY COLLEGE","address":"1250 TURNER ST AUBURN ME 04210","bldgnbr":"1250","predir":null,"streetname":"TURNER","streettype":"ST","suffdir":null,"city":"AUBURN","state_code":"ME","zip5":"04210","latitude":"44.1323092160000000","longitude":"-70.228061056000000","publicwifi":"U","url":null,"broadband_type_id":6}
{"id":null,"anchorname":"COMMUNITY CLINICAL SERVICES; BEHAV PHYS AMA-044","address":"15 GRACELAWN RD, AUBURN","bldgnbr":"15","predir":null,"streetname":"GRACELAWN","streettype":"RD","suffdir":null,"city":"AUBURN","state_code":"ME","zip5":"4210","latitude":"44.1269023540000000","longitude":"-70.230511379000000","publicwifi":"U","url":null,"broadband_type_id":3}
{"id":null,"anchorname":"ST DOMINIC REGIONAL HIGH SCHOOL","address":"121 GRACELAWN RD AUBURN ME 04210","bldgnbr":"121","predir":null,"streetname":"GRACELAWN","streettype":"RD","suffdir":null,"city":"AUBURN","state_code":"ME","zip5":"04210","latitude":"44.1274722040000000","longitude":"-70.234864964000000","publicwifi":"U","url":null,"broadband_type_id":6}
{"id":null,"anchorname":"EAST AUBURN COMMUNITY SCHOOL","address":"15 ANDREW DR AUBURN ME 04210","bldgnbr":"15","predir":null,"streetname":"ANDREW","streettype":"DR","suffdir":null,"city":"AUBURN","state_code":"ME","zip5":"04210","latitude":"44.1459532480000000","longitude":"-70.224161964000000","publicwifi":"U","url":null,"broadband_type_id":6}
{"id":null,"anchorname":"COMMUNITY CLINICAL SERVICES; BEHAV PHYS LAIM-043","address":"3 WILLOW RUN, AUBURN","bldgnbr":"3","predir":null,"streetname":"WILLOW","streettype":"RUN","suffdir":null,"city":"AUBURN","state_code":"ME","zip5":"4210","latitude":"44.1201382040000000","longitude":"-70.234940579000000","publicwifi":"U","url":null,"broadband_type_id":3}
{"id":null,"anchorname":"ST. MARYS REGIONAL MEDICAL CENTER- HOSP WALMART","address":"100 Mount Auburn Ave AUBURN ME 04210","bldgnbr":"100","predir":null,"streetname":"Mount Auburn","streettype":"Ave","suffdir":null,"city":"AUBURN","state_code":"ME","zip5":"04210","latitude":"44.1212525430000000","longitude":"-70.238119566000000","publicwifi":"U","url":null,"broadband_type_id":3}
{"id":null,"anchorname":"FRANKLIN SCHOOL","address":"22 PINE ST AUBURN ME 04210","bldgnbr":"22","predir":null,"streetname":"PINE","streettype":"ST","suffdir":null,"city":"AUBURN","state_code":"ME","zip5":"04210","latitude":"44.1002500010000000","longitude":"-70.231930000000000","publicwifi":"U","url":null,"broadband_type_id":6}
{"id":null,"anchorname":"WEBSTER INTERMEDIATE SCHOOL","address":"99 HAMPSHIRE ST AUBURN ME 04210","bldgnbr":"99","predir":null,"streetname":"HAMPSHIRE","streettype":"ST","suffdir":null,"city":"AUBURN","state_code":"ME","zip5":"04210","latitude":"44.1010600010000000","longitude":"-70.231559999000000","publicwifi":"U","url":null,"broadband_type_id":6}
{"id":null,"anchorname":"MARGARET MURPHY CTR FOR CHILDREN-AUBURN","address":"27 CHARLES ST AUBURN ME 04210","bldgnbr":"27","predir":null,"streetname":"CHARLES","streettype":"ST","suffdir":null,"city":"AUBURN","state_code":"ME","zip5":"04210","latitude":"44.1016622250000000","longitude":"-70.235086013000000","publicwifi":"U","url":null,"broadband_type_id":null}
{"id":null,"anchorname":"MATTHEWS, MARGARET E","address":"117 GOFF ST AUBURN ME 04210","bldgnbr":"117","predir":null,"streetname":"GOFF","streettype":"ST","suffdir":null,"city":"AUBURN","state_code":"ME","zip5":"04210","latitude":"44.1021776950000000","longitude":"-70.233469879000000","publicwifi":"U","url":null,"broadband_type_id":null}
{"id":null,"anchorname":"OSWALD, KURT M","address":"117 GOFF ST AUBURN ME 04210","bldgnbr":"117","predir":null,"streetname":"GOFF","streettype":"ST","suffdir":null,"city":"AUBURN","state_code":"ME","zip5":"04210","latitude":"44.1021776950000000","longitude":"-70.233469879000000","publicwifi":"U","url":null,"broadband_type_id":null}
{"id":null,"anchorname":"Georgia Technology Authority","address":"130 Peachtree St Sw","bldgnbr":"130","predir":null,"streetname":"Peachtree","streettype":"St","suffdir":"SW","city":"ATLANTA","state_code":"GA","zip5":"30303","latitude":"33.7510588730000000","longitude":"-84.392843667000000","publicwifi":"U","url":null,"broadband_type_id":1}
{"id":null,"anchorname":"CHRISTIAN SCIENCE READING ROOM","address":"79 LAKE ST AUBURN ME 04210","bldgnbr":"79","predir":null,"streetname":"LAKE","streettype":"ST","suffdir":null,"city":"AUBURN","state_code":"ME","zip5":"04210","latitude":"44.1009341720000000","longitude":"-70.239202280000000","publicwifi":"U","url":null,"broadband_type_id":6}
{"id":null,"anchorname":"AUBURN WATER \u0026 SEWERAGE","address":"268 COURT ST AUBURN ME 04210","bldgnbr":"268","predir":null,"streetname":"COURT","streettype":"ST","suffdir":null,"city":"AUBURN","state_code":"ME","zip5":"04210","latitude":"44.0979738860000000","longitude":"-70.232595720000000","publicwifi":"U","url":null,"broadband_type_id":null}
{"id":null,"anchorname":"TWO GOFF STREET ASSOCIATES, P.A.; TWO GOFF STREET ASSOCIATES PA-001","address":"2 GOFF ST, AUBURN","bldgnbr":"2","predir":null,"streetname":"GOFF","streettype":"ST","suffdir":null,"city":"AUBURN","state_code":"ME","zip5":"4210","latitude":"44.0980430010000000","longitude":"-70.232451308000000","publicwifi":"U","url":null,"broadband_type_id":6}
{"id":null,"anchorname":"SEVENTH DAY ADVENTIST CHURCH","address":"310 MINOT AVE AUBURN ME 04210","bldgnbr":"310","predir":null,"streetname":"MINOT","streettype":"AVE","suffdir":null,"city":"AUBURN","state_code":"ME","zip5":"04210","latitude":"44.0870798730000000","longitude":"-70.237330021000000","publicwifi":"U","url":null,"broadband_type_id":6}
