{"id":null,"anchorname":"MONTROSE ELEMENTARY","address":"100 SE 2ND ST. MONTROSE, MN 55363","bldgnbr":"100","predir":null,"streetname":"SE 2ND ST.","streettype":null,"suffdir":null,"city":"MONTROSE","state_code":"MN","zip5":"55363","latitude":"45.0679330000000000","longitude":"-93.908707000000000","publicwifi":"U","url":null,"broadband_type_id":6}
{"id":null,"anchorname":"DELANO H.S. MEDIA CENTER","address":"700 ELM AVE. E. DELANO, MN 55328","bldgnbr":"700","predir":null,"streetname":"ELM AVE. E.","streettype":null,"suffdir":null,"city":"DELANO","state_code":"MN","zip5":"55328","latitude":"45.0429330000000000","longitude":"-93.780392000000000","publicwifi":"U","url":null,"broadband_type_id":null}
{"id":null,"anchorname":"MT. OLIVE LUTHERAN","address":"435 E. BRIDGE AVE. DELANO, MN 55328","bldgnbr":"435","predir":null,"streetname":"E. BRIDGE AVE.","streettype":null,"suffdir":null,"city":"DELANO","state_code":"MN","zip5":"55328","latitude":"45.0419430000000000","longitude":"-93.784386000000000","publicwifi":"U","url":null,"broadband_type_id":null}
{"id":null,"anchorname":"ALBERTVILLE PRIMARY SCHOOL LIBRARY","address":"5386 MAIN AVE. N.E. ALBERTVILLE, MN 55301","bldgnbr":"5386","predir":null,"streetname":"MAIN AVE. N.E.","streettype":null,"suffdir":null,"city":"ALBERTVILLE","state_code":"MN","zip5":"55301","latitude":"45.2297020000000000","longitude":"-93.654062000000000","publicwifi":"U","url":null,"broadband_type_id":6}
{"id":null,"anchorname":"BIG WOODS ELEMENTARY LIBRARY","address":"13470 FRANKFORT PARKWAY NE ST MICHAEL, MN 55376","bldgnbr":"13470","predir":null,"streetname":"FRANKFORT PARKWAY","streettype":null,"suffdir":null,"city":"ST MICHAEL","state_code":"MN","zip5":"55376","latitude":"45.2231300000000000","longitude":"-93.615725000000000","publicwifi":"U","url":null,"broadband_type_id":6}
{"id":null,"anchorname":"ST. MICHAEL-ALBERTVILLE SCHOOL DISTRICT","address":"11343 50TH ST. N.E. ALBERTVILLE, MN 55301","bldgnbr":"11343","predir":null,"streetname":"50TH ST. N.E.","streettype":null,"suffdir":null,"city":"ALBERTVILLE","state_code":"MN","zip5":"55301","latitude":"45.2236470000000000","longitude":"-93.659876000000000","publicwifi":"U","url":null,"broadband_type_id":6}
{"id":null,"anchorname":"ST MICHAEL-ALBERTVILLE MIDDLE WEST LIBRARY","address":"11343 50TH STREET NE ALBERTVILLE, MN 55301","bldgnbr":"11343","predir":null,"streetname":"50TH STREET NE","streettype":null,"suffdir":null,"city":"ALBERTVILLE","state_code":"MN","zip5":"55301","latitude":"45.2244440000000000","longitude":"-93.657505000000000","publicwifi":"U","url":null,"broadband_type_id":6}
{"id":null,"anchorname":"ST. MICHAEL PUBLIC LIBRARY","address":"11800 TOWN CENTER DRIVE NE ST MICHAEL, MN 56479","bldgnbr":"11800","predir":null,"streetname":"TOWN CENTER DRIVE","streettype":null,"suffdir":null,"city":"ST MICHAEL","state_code":"MN","zip5":"56479","latitude":"45.2123030000000000","longitude":"-93.653585000000000","publicwifi":"Y","url":null,"broadband_type_id":6}
{"id":null,"anchorname":"ST. MICHAEL CATHOLIC SCHOOL LIBRARY","address":"14 N. MAIN ST. ST. MICHAEL, MN 55376","bldgnbr":"14","predir":null,"streetname":"N. MAIN ST.","streettype":null,"suffdir":null,"city":"ST. MICHAEL","state_code":"MN","zip5":"55376","latitude":"45.2103280000000000","longitude":"-93.664707000000000","publicwifi":"U","url":null,"broadband_type_id":6}
{"id":null,"anchorname":"SAINT MICHAEL FIRE DEPARTMENT - FRANKFORT STATION","address":"12239 42ND STREET NORTHEAST SAINT MICHAEL, MN 55376-9431","bldgnbr":"12239","predir":null,"streetname":"42ND STREET NORTHEAST","streettype":null,"suffdir":null,"city":"SAINT MICHAEL","state_code":"MN","zip5":"55376","latitude":"45.2107740000000000","longitude":"-93.639371000000000","publicwifi":"U","url":null,"broadband_type_id":5}
{"id":null,"anchorname":"SAINT MICHAEL FIRE DEPARTMENT - CENTRAL FIRE STATION","address":"216 MAIN STREET SOUTH SAINT MICHAEL, MN 55376-9671","bldgnbr":"216","predir":null,"streetname":"MAIN STREET SOUTH","streettype":null,"suffdir":null,"city":"SAINT MICHAEL","state_code":"MN","zip5":"55376","latitude":"45.2060560000000000","longitude":"-93.664394000000000","publicwifi":"U","url":null,"broadband_type_id":5}
{"id":null,"anchorname":"HANOVER FIRE DEPARTMENT","address":"369 LABEAUX AVENUE NORTHEAST HANOVER, MN 55341-4091","bldgnbr":"369","predir":null,"streetname":"LABEAUX AVENUE NORTHEAST","streettype":null,"suffdir":null,"city":"HANOVER","state_code":"MN","zip5":"55341","latitude":"45.1578140000000000","longitude":"-93.665411000000000","publicwifi":"U","url":null,"broadband_type_id":5}
{"id":null,"anchorname":"ROCKFORD VOLUNTEER FIRE AND RESCUE DEPARTMENT","address":"6700 MAIN STREET ROCKFORD, MN 55373-9566","bldgnbr":"6700","predir":null,"streetname":"MAIN STREET","streettype":null,"suffdir":null,"city":"ROCKFORD","state_code":"MN","zip5":"55373","latitude":"45.0959660000000000","longitude":"-93.731700000000000","publicwifi":"U","url":null,"broadband_type_id":5}
{"id":null,"anchorname":"ROCKFORD PUBLIC LIBRARY","address":"8220 CEDAR STREET ROCKFORD, MN 55373-0420","bldgnbr":"8220","predir":null,"streetname":"CEDAR STREET","streettype":null,"suffdir":null,"city":"ROCKFORD","state_code":"MN","zip5":"55373","latitude":"45.0893110000000000","longitude":"-93.732873000000000","publicwifi":"Y","url":null,"broadband_type_id":6}
{"id":null,"anchorname":"ROCKFORD ELEMENTARY LIBRARY","address":"6800 COUNTY ROAD 18 ROCKFORD, MN 55373","bldgnbr":"6800","predir":null,"streetname":"COUNTY ROAD 18","streettype":null,"suffdir":null,"city":"ROCKFORD","state_code":"MN","zip5":"55373","latitude":"45.0988630000000000","longitude":"-93.737782000000000","publicwifi":"U","url":null,"broadband_type_id":6}
{"id":null,"anchorname":"ROCKFORD PUBLIC SCHOOL DISTRICT","address":"6051 ASH ST. ROCKFORD, MN 55373","bldgnbr":"6051","predir":null,"streetname":"ASH ST.","streettype":null,"suffdir":null,"city":"ROCKFORD","state_code":"MN","zip5":"55373","latitude":"45.0902360000000000","longitude":"-93.737405000000000","publicwifi":"U","url":null,"broadband_type_id":6}
{"id":null,"anchorname":"ROCKFORD INTERMEDIATE PUBLIC SCHOOL LIBRARY","address":"6051 ASH STREET ROCKFORD, MN 55373","bldgnbr":"6051","predir":null,"streetname":"ASH STREET","streettype":null,"suffdir":null,"city":"ROCKFORD","state_code":"MN","zip5":"55373","latitude":"45.0894880000000000","longitude":"-93.737277000000000","publicwifi":"U","url":null,"broadband_type_id":6}
{"id":null,"anchorname":"DELANO FIRE DEPARTMENT","address":"245 2ND STREET NORTH DELANO, MN 55328","bldgnbr":"245","predir":null,"streetname":"2ND STREET NORTH","streettype":null,"suffdir":null,"city":"DELANO","state_code":"MN","zip5":"55328","latitude":"45.0426070000000000","longitude":"-93.788229000000000","publicwifi":"U","url":null,"broadband_type_id":5}
{"id":null,"anchorname":"DELANO BRANCH LIBRARY","address":"160 RAILROAD AVENUE E DELANO, MN 55328-0677","bldgnbr":"160","predir":null,"streetname":"RAILROAD AVENUE E","streettype":null,"suffdir":null,"city":"DELANO","state_code":"MN","zip5":"55328","latitude":"45.0407560000000000","longitude":"-93.788428000000000","publicwifi":"Y","url":null,"broadband_type_id":6}
{"id":null,"anchorname":"ST. PETER'S SCHOOL","address":"235 SECOND ST.  P. O. BOX 470 DELANO, MN 55328","bldgnbr":"235","predir":null,"streetname":"SECOND ST.","streettype":null,"suffdir":null,"city":"DELANO","state_code":"MN","zip5":"55328","latitude":"45.0382620000000000","longitude":"-93.788566000000000","publicwifi":"U","url":null,"broadband_type_id":6}
{"id":null,"anchorname":"DELANO PUBLIC SCHOOL DISTRICT","address":"700 ELM AVE. E. DELANO, MN 55328","bldgnbr":"700","predir":null,"streetname":"ELM AVE. E.","streettype":null,"suffdir":null,"city":"DELANO","state_code":"MN","zip5":"55328","latitude":"45.0448690000000000","longitude":"-93.779066000000000","publicwifi":"U","url":null,"broadband_type_id":6}
{"id":null,"anchorname":"DELANO MIDDLE SCHOOL LIBRARY","address":"700 ELM AVE. E. DELANO, MN 55328","bldgnbr":"700","predir":null,"streetname":"ELM AVE. E.","streettype":null,"suffdir":null,"city":"DELANO","state_code":"MN","zip5":"55328","latitude":"45.0429330000000000","longitude":"-93.780392000000000","publicwifi":"U","url":null,"broadband_type_id":6}
{"id":null,"anchorname":"MONTROSE ELEMENTARY SCHOOL LIBRARY","address":"100 2ND ST. S MONTROSE, MN 55363","bldgnbr":"100","predir":null,"streetname":"2ND ST. S","streettype":null,"suffdir":null,"city":"MONTROSE","state_code":"MN","zip5":"55363","latitude":"45.0680740000000000","longitude":"-93.910460000000000","publicwifi":"U","url":null,"broadband_type_id":6}
{"id":null,"anchorname":"Jo Ellen Smith Convalescent Ctr.","address":"4502 General Meyers Avenue","bldgnbr":"4502","predir":null,"streetname":"GENERAL MEYERS","streettype":null,"suffdir":null,"city":"New Orleans","state_code":"LA","zip5":"70131","latitude":"29.9342000000000000","longitude":"-90.008102000000000","publicwifi":"U","url":null,"broadband_type_id":6}
{"id":null,"anchorname":"HOWARD LAKE WAVERLY WINSTED MIDDLE","address":"801 8TH AVE. HOWARD LAKE, MN 55349","bldgnbr":"801","predir":null,"streetname":"8TH AVE.","streettype":null,"suffdir":null,"city":"HOWARD LAKE","state_code":"MN","zip5":"55349","latitude":"45.0582240000000000","longitude":"-94.071207000000000","publicwifi":"U","url":null,"broadband_type_id":6}
{"id":null,"anchorname":"HOWARD LAKE-WAVERLY-WINSTED SEC.","address":"8700 CTY ROAD 6 HOWARD LAKE, MN 55349","bldgnbr":"8700","predir":null,"streetname":"CTY ROAD 6","streettype":null,"suffdir":null,"city":"HOWARD LAKE","state_code":"MN","zip5":"55349","latitude":"45.0292520000000000","longitude":"-94.067843000000000","publicwifi":"U","url":null,"broadband_type_id":null}
{"id":null,"anchorname":"DASSEL-COKATO HIGH","address":"4852 REARDON AVE. SW COKATO, MN 55321","bldgnbr":"4852","predir":null,"streetname":"REARDON AVE. SW.","streettype":null,"suffdir":null,"city":"COKATO","state_code":"MN","zip5":"55321","latitude":"45.0830740000000000","longitude":"-94.233496000000000","publicwifi":"U","url":null,"broadband_type_id":6}
{"id":null,"anchorname":"DASSEL-COKATO MIDDLE","address":"4852 REARDON AVE. SW COKATO, MN 55321","bldgnbr":"4852","predir":null,"streetname":"REARDON AVE. SW.","streettype":null,"suffdir":null,"city":"COKATO","state_code":"MN","zip5":"55321","latitude":"45.0821880000000000","longitude":"-94.233500000000000","publicwifi":"U","url":null,"broadband_type_id":6}
{"id":null,"anchorname":"COKATO ELEMENTARY","address":"200 5TH ST. SW. COKATO, MN 55321","bldgnbr":"200","predir":null,"streetname":"5TH ST. SW.","streettype":null,"suffdir":null,"city":"COKATO","state_code":"MN","zip5":"55321","latitude":"45.0742050000000000","longitude":"-94.193046000000000","publicwifi":"U","url":null,"broadband_type_id":6}
{"id":null,"anchorname":"BERT RANEY ELEMENTARY","address":"555 7TH AVENUE GRANITE FALLS, MN 56241","bldgnbr":"555","predir":null,"streetname":"7TH AVENUE","streettype":null,"suffdir":null,"city":"GRANITE FALLS","state_code":"MN","zip5":"56241","latitude":"44.8120320000000000","longitude":"-95.546573000000000","publicwifi":"U","url":null,"broadband_type_id":6}
{"id":null,"anchorname":"CANBY ELEMENTARY","address":"601 4TH STREET WEST CANBY, MN 56220","bldgnbr":"601","predir":null,"streetname":"4TH STREET WEST","streettype":null,"suffdir":null,"city":"CANBY","state_code":"MN","zip5":"56220","latitude":"44.7153280000000000","longitude":"-96.278690000000000","publicwifi":"U","url":null,"broadband_type_id":6}
{"id":null,"anchorname":"DASSEL-COKATO H.S. MEDIA CENTER","address":"4852 REARDON AVE. SW COKATO, MN 55321","bldgnbr":"4852","predir":null,"streetname":"REARDON AVE. SW","streettype":null,"suffdir":null,"city":"COKATO","state_code":"MN","zip5":"55321","latitude":"45.0822240000000000","longitude":"-94.233811000000000","publicwifi":"U","url":null,"broadband_type_id":null}
{"id":null,"anchorname":"COKATO CHARITABLE TRUST","address":"182 SUNSET AVE. COKATO, MN 55321","bldgnbr":"182","predir":null,"streetname":"SUNSET AVENUE","streettype":null,"suffdir":null,"city":"COKATO","state_code":"MN","zip5":"55321","latitude":"45.0809380000000000","longitude":"-94.198450000000000","publicwifi":"U","url":null,"broadband_type_id":null}
{"id":null,"anchorname":"GRANITE FALLS TECH","address":"1593 11TH AVE. GRANITE FALLS, MN 56241","bldgnbr":"1593","predir":null,"streetname":"11TH AVE.","streettype":null,"suffdir":null,"city":"GRANITE FALLS","state_code":"MN","zip5":"56241","latitude":"44.8079830000000000","longitude":"-95.559746000000000","publicwifi":"U","url":null,"broadband_type_id":null}
{"id":null,"anchorname":"CANBY TECH","address":"1011 1ST ST. CANBY, MN 56220","bldgnbr":"1011","predir":null,"streetname":"1ST ST.","streettype":null,"suffdir":null,"city":"CANBY","state_code":"MN","zip5":"56220","latitude":"44.7161620000000000","longitude":"-96.285376000000000","publicwifi":"U","url":null,"broadband_type_id":null}
{"id":null,"anchorname":"WAVERLY FIRE AND RESCUE","address":"521 ATLANTIC AVENUE WAVERLY, MN 55390","bldgnbr":"521","predir":null,"streetname":"ATLANTIC AVENUE","streettype":null,"suffdir":null,"city":"WAVERLY","state_code":"MN","zip5":"55390","latitude":"45.0666350000000000","longitude":"-93.969333000000000","publicwifi":"U","url":null,"broadband_type_id":5}
{"id":null,"anchorname":"HOWARD LAKE FIRE DEPARTMENT AND AMBULANCE SERVICE","address":"817 7TH STREET HOWARD LAKE, MN 55349-5660","bldgnbr":"817","predir":null,"streetname":"7TH STREET","streettype":null,"suffdir":null,"city":"HOWARD LAKE","state_code":"MN","zip5":"55349","latitude":"45.0600890000000000","longitude":"-94.071613000000000","publicwifi":"U","url":null,"broadband_type_id":5}
{"id":null,"anchorname":"HOWARD LAKE POLICE DEPARTMENT","address":"625 8TH AVENUE HOWARD LAKE, MN 55349-5137","bldgnbr":"625","predir":null,"streetname":"8TH AVENUE","streettype":null,"suffdir":null,"city":"HOWARD LAKE","state_code":"MN","zip5":"55349","latitude":"45.0599570000000000","longitude":"-94.070785000000000","publicwifi":"U","url":null,"broadband_type_id":4}
{"id":null,"anchorname":"HOWARD LAKE-WAVERLY-WINSTED SCHOOL DISTRICT","address":"801 8TH AVE. HOWARD LAKE, MN 55349","bldgnbr":"801","predir":null,"streetname":"8TH AVE.","streettype":null,"suffdir":null,"city":"HOWARD LAKE","state_code":"MN","zip5":"55349","latitude":"45.0589670000000000","longitude":"-94.071232000000000","publicwifi":"U","url":null,"broadband_type_id":6}
{"id":null,"anchorname":"HOWARD LAKE PUBLIC LIBRARY","address":"617 6TH AVE.  P.O. BOX 207 HOWARD LAKE, MN 55349-5500","bldgnbr":"617","predir":null,"streetname":"6TH AVE.","streettype":null,"suffdir":null,"city":"HOWARD LAKE","state_code":"MN","zip5":"55349","latitude":"45.0606600000000000","longitude":"-94.067556000000000","publicwifi":"Y","url":null,"broadband_type_id":6}
{"id":null,"anchorname":"ST. JAMES LUTHERAN SCHOOL","address":"1000 7TH AVE HOWARD LAKE, MN 55349","bldgnbr":"1000","predir":null,"streetname":"7TH AVE","streettype":null,"suffdir":null,"city":"HOWARD LAKE","state_code":"MN","zip5":"55349","latitude":"45.0565200000000000","longitude":"-94.068786000000000","publicwifi":"U","url":null,"broadband_type_id":6}
{"id":null,"anchorname":"DASSEL-COKATO MIDDLE SCHOOL MEDIA","address":"4852 REARDON AVE. SW COKATO, MN 55321-0287","bldgnbr":"4852","predir":null,"streetname":"REARDON AVE. SW","streettype":null,"suffdir":null,"city":"COKATO","state_code":"MN","zip5":"55321","latitude":"45.0822240000000000","longitude":"-94.233811000000000","publicwifi":"U","url":null,"broadband_type_id":6}
{"id":null,"anchorname":"DASSEL-COKATO PUBLIC SCHOOL DISTRICT","address":"4852 REARDON AVE S.W. COKATO, MN 55321","bldgnbr":"4852","predir":null,"streetname":"REARDON AVE S.W.","streettype":null,"suffdir":null,"city":"COKATO","state_code":"MN","zip5":"55321","latitude":"45.0830740000000000","longitude":"-94.233496000000000","publicwifi":"U","url":null,"broadband_type_id":6}
{"id":null,"anchorname":"COKATO ELEMENTARY LIBRARY","address":"200 5TH STREET SW COKATO, MN 55321","bldgnbr":"200","predir":null,"streetname":"5TH STREET SW","streettype":null,"suffdir":null,"city":"COKATO","state_code":"MN","zip5":"55321","latitude":"45.0745620000000000","longitude":"-94.193080000000000","publicwifi":"U","url":null,"broadband_type_id":6}
{"id":null,"anchorname":"COKATO HISTORICAL MUSEUM","address":"175 4TH STREET SOUTHWEST COKATO, MN 55321","bldgnbr":"175","predir":null,"streetname":"4TH STREET SOUTHWEST","streettype":null,"suffdir":null,"city":"COKATO","state_code":"MN","zip5":"55321","latitude":"45.0752370000000000","longitude":"-94.191312000000000","publicwifi":"U","url":null,"broadband_type_id":1}
{"id":null,"anchorname":"COKATO PUBLIC LIBRARY","address":"175 4TH ST. W.  P.O. BOX 686 COKATO, MN 55321-0269","bldgnbr":"175","predir":null,"streetname":"4TH ST. W.","streettype":null,"suffdir":null,"city":"COKATO","state_code":"MN","zip5":"55321","latitude":"45.0752780000000000","longitude":"-94.191393000000000","publicwifi":"Y","url":null,"broadband_type_id":6}
{"id":null,"anchorname":"GRANITE FALLS FIRE DEPARTMENT","address":"501 PRENTICE STREET GRANITE FALLS, MN 56241-1515","bldgnbr":"501","predir":null,"streetname":"PRENTICE STREET","streettype":null,"suffdir":null,"city":"GRANITE FALLS","state_code":"MN","zip5":"56241","latitude":"44.8133260000000000","longitude":"-95.536766000000000","publicwifi":"U","url":null,"broadband_type_id":5}
{"id":null,"anchorname":"YELLOW MEDICINE EAST HIGH","address":"450 9TH AVE. GRANITE FALLS, MN 56241","bldgnbr":"450","predir":null,"streetname":"9TH AVE.","streettype":null,"suffdir":null,"city":"GRANITE FALLS","state_code":"MN","zip5":"56241","latitude":"44.8110480000000000","longitude":"-95.545578000000000","publicwifi":"U","url":null,"broadband_type_id":3}
{"id":null,"anchorname":"YELLOW MEDICINE EAST HIGH SCHOOL LIBRARY","address":"450 9TH AVE. GRANITE FALLS, MN 56241","bldgnbr":"450","predir":null,"streetname":"9TH AVE.","streettype":null,"suffdir":null,"city":"GRANITE FALLS","state_code":"MN","zip5":"56241","latitude":"44.8100620000000000","longitude":"-95.545061000000000","publicwifi":"U","url":null,"broadband_type_id":3}
{"id":null,"anchorname":"MINNESOTA VALLEY COOPERATIVE SCHOOL DISTRICT","address":"450 9TH AVE. GRANITE FALLS, MN 56241","bldgnbr":"450","predir":null,"streetname":"9TH AVE.","streettype":null,"suffdir":null,"city":"GRANITE FALLS","state_code":"MN","zip5":"56241","latitude":"44.8110480000000000","longitude":"-95.545578000000000","publicwifi":"U","url":null,"broadband_type_id":6}
{"id":null,"anchorname":"GRANITE FALLS PUBLIC LIBRARY","address":"155 7TH AVE. GRANITE FALLS, MN 56241-1505","bldgnbr":"155","predir":null,"streetname":"7TH AVE.","streettype":null,"suffdir":null,"city":"GRANITE FALLS","state_code":"MN","zip5":"56241","latitude":"44.8113310000000000","longitude":"-95.539086000000000","publicwifi":"Y","url":null,"broadband_type_id":6}
{"id":null,"anchorname":"GRANITE FALLS MUNICIPAL HOSPITAL AND MANOR","address":"345 10TH AVENUE GRANITE FALLS, MN 56241-1442","bldgnbr":"345","predir":null,"streetname":"10TH AVENUE","streettype":null,"suffdir":null,"city":"GRANITE FALLS","state_code":"MN","zip5":"56241","latitude":"44.8085940000000000","longitude":"-95.543593000000000","publicwifi":"U","url":null,"broadband_type_id":3}
{"id":null,"anchorname":"GRANITE FALLS POLICE DEPARTMENT","address":"930 4TH STREET  SUITE 3 GRANITE FALLS, MN 56241-1462","bldgnbr":"930","predir":null,"streetname":"4TH STREET, SUITE 3","streettype":null,"suffdir":null,"city":"GRANITE FALLS","state_code":"MN","zip5":"56241","latitude":"44.8094410000000000","longitude":"-95.544592000000000","publicwifi":"U","url":null,"broadband_type_id":4}
{"id":null,"anchorname":"YELLOW MEDICINE COUNTY SHERIFF / YELLOW MEDICINE COUNTY JAIL","address":"960 4TH STREET  SUITE 2 GRANITE FALLS, MN 56241-1454","bldgnbr":"960","predir":null,"streetname":"4TH STREET, SUITE 2","streettype":null,"suffdir":null,"city":"GRANITE FALLS","state_code":"MN","zip5":"56241","latitude":"44.8094760000000000","longitude":"-95.544692000000000","publicwifi":"U","url":null,"broadband_type_id":4}
{"id":null,"anchorname":"GRANITE FALLS MUNICIPAL HOSPITAL","address":"345 TENTH AVE. GRANITE FALLS, MN 56241-1499","bldgnbr":"345","predir":null,"streetname":"TENTH AVE.","streettype":null,"suffdir":null,"city":"GRANITE FALLS","state_code":"MN","zip5":"56241","latitude":"44.8088610000000000","longitude":"-95.543580000000000","publicwifi":"U","url":null,"broadband_type_id":3}
{"id":null,"anchorname":"MINNESOTA WEST COMMUNITY AND TECHNICAL COLLEGE - GRANITE FALLS","address":"1593 11TH AVE. GRANITE FALLS, MN 56241","bldgnbr":"1593","predir":null,"streetname":"11TH AVE.","streettype":null,"suffdir":null,"city":"GRANITE FALLS","state_code":"MN","zip5":"56241","latitude":"44.8079820000000000","longitude":"-95.559746000000000","publicwifi":"U","url":null,"broadband_type_id":6}
{"id":null,"anchorname":"UPPER SIOUX TRIBAL COMMUNITY POLICE DEPARTMENT","address":"5722 TRAVERS LANE GRANITE FALLS, MN 56241-5000","bldgnbr":"5722","predir":null,"streetname":"TRAVERS LANE","streettype":null,"suffdir":null,"city":"GRANITE FALLS","state_code":"MN","zip5":"56241","latitude":"44.7474570000000000","longitude":"-95.495934000000000","publicwifi":"U","url":null,"broadband_type_id":4}
{"id":null,"anchorname":"MINNESOTA WEST COMMUNITY AND TECHNICAL COLLEGE - CANBY","address":"1011 1ST ST. W. CANBY, MN 56220","bldgnbr":"1011","predir":null,"streetname":"1ST ST. W.","streettype":null,"suffdir":null,"city":"CANBY","state_code":"MN","zip5":"56220","latitude":"44.7165420000000000","longitude":"-96.284475000000000","publicwifi":"U","url":null,"broadband_type_id":6}
{"id":null,"anchorname":"Children's Palace Learning Academy","address":"9510 Haynes Blvd.","bldgnbr":"9510","predir":null,"streetname":"HAYNES","streettype":null,"suffdir":null,"city":"New Orleans","state_code":"LA","zip5":"70127","latitude":"30.0464990000000000","longitude":"-89.989700000000000","publicwifi":"U","url":null,"broadband_type_id":6}
{"id":null,"anchorname":"DEPARTMENT OF PUBLIC SAFETY - NATCHEZ PD REGION 9","address":"233 DEVEREAUX DR, NATCHEZ, MS 39120","bldgnbr":"233","predir":null,"streetname":"DEVEREAUX","streettype":"DR","suffdir":null,"city":"NATCHEZ","state_code":"MS","zip5":"39120","latitude":"31.5583845300000000","longitude":"-91.372495395000000","publicwifi":"U","url":null,"broadband_type_id":4}
{"id":null,"anchorname":"DEPARTMENT OF PUBLIC SAFETY - DL STATION - NATCHEZ","address":"724 HWY 61 N, NATCHEZ, MS 39120","bldgnbr":"724","predir":null,"streetname":"61","streettype":null,"suffdir":"N","city":"NATCHEZ","state_code":"MS","zip5":"39120","latitude":"31.5724657230000000","longitude":"-91.318728570000000","publicwifi":"U","url":null,"broadband_type_id":4}
{"id":null,"anchorname":"DIVISION OF MEDICAID - DIVISION OF MEDICAID - NATCHEZ","address":"116 S CANAL ST, NATCHEZ, MS 39120","bldgnbr":"116","predir":"S","streetname":"CANAL","streettype":"ST","suffdir":null,"city":"NATCHEZ","state_code":"MS","zip5":"39120","latitude":"31.5605142810000000","longitude":"-91.406414896000000","publicwifi":"U","url":null,"broadband_type_id":6}
{"id":null,"anchorname":"DEPARTMENT OF PUBLIC SAFETY - NATCHEZ D.A.","address":"307 MARKET ST, NATCHEZ, MS 39120","bldgnbr":"307","predir":null,"streetname":"MARKET","streettype":"ST","suffdir":null,"city":"NATCHEZ","state_code":"MS","zip5":"39120","latitude":"31.5603443050000000","longitude":"-91.404735456000000","publicwifi":"U","url":null,"broadband_type_id":4}
{"id":null,"anchorname":"DEPARTMENT OF PUBLIC SAFETY - ADAMS CO. SO. REGION 9","address":"306 STATE ST, NATCHEZ, MS 39120","bldgnbr":"306","predir":null,"streetname":"STATE","streettype":"ST","suffdir":null,"city":"NATCHEZ","state_code":"MS","zip5":"39120","latitude":"31.5597732920000000","longitude":"-91.405256533000000","publicwifi":"U","url":null,"broadband_type_id":4}
{"id":null,"anchorname":"CLARKFIELD CHARTER","address":"301 13TH ST. CLARKFIELD, MN 56223","bldgnbr":"301","predir":null,"streetname":"13TH ST.","streettype":null,"suffdir":null,"city":"CLARKFIELD","state_code":"MN","zip5":"56223","latitude":"44.7831960000000000","longitude":"-95.809125000000000","publicwifi":"U","url":null,"broadband_type_id":null}
{"id":null,"anchorname":"DEPARTMENT OF TRANSPORTATION-WAN - MDOT  NATCHEZ PO","address":"6 OLD COURTHOUSE RD, NATCHEZ, MS 39120","bldgnbr":"6","predir":null,"streetname":"OLD COURTHOUSE","streettype":"RD","suffdir":null,"city":"NATCHEZ","state_code":"MS","zip5":"39120","latitude":"31.5753378170000000","longitude":"-91.294900112000000","publicwifi":"U","url":null,"broadband_type_id":null}
{"id":null,"anchorname":"CANBY HIGH SCHOOL MEDIA CENTER","address":"307 1ST ST. W. CANBY, MN 56220-1400","bldgnbr":"307","predir":null,"streetname":"1ST ST. W.","streettype":null,"suffdir":null,"city":"CANBY","state_code":"MN","zip5":"56220","latitude":"44.7103990000000000","longitude":"-96.278970000000000","publicwifi":"U","url":null,"broadband_type_id":6}
{"id":null,"anchorname":"CANBY COMMUNITY HEALTH SERVICES","address":"112 ST. OALF AVE CANBY, MN 56220","bldgnbr":"112","predir":null,"streetname":"ST. OALF AVE","streettype":null,"suffdir":null,"city":"CANBY","state_code":"MN","zip5":"56220","latitude":"44.7088230000000000","longitude":"-96.276333000000000","publicwifi":"U","url":null,"broadband_type_id":3}
{"id":null,"anchorname":"CANBY FIRE DEPARTMENT","address":"310 1ST STREET EAST CANBY, MN 56220-1347","bldgnbr":"310","predir":null,"streetname":"1ST STREET EAST","streettype":null,"suffdir":null,"city":"CANBY","state_code":"MN","zip5":"56220","latitude":"44.7062640000000000","longitude":"-96.273792000000000","publicwifi":"U","url":null,"broadband_type_id":5}
{"id":null,"anchorname":"CANBY PUBLIC LIBRARY","address":"110 OSCAR AVE. CANBY, MN 56220-1332","bldgnbr":"110","predir":null,"streetname":"OSCAR AVE.","streettype":null,"suffdir":null,"city":"CANBY","state_code":"MN","zip5":"56220","latitude":"44.7079670000000000","longitude":"-96.275177000000000","publicwifi":"Y","url":null,"broadband_type_id":6}
{"id":null,"anchorname":"CANBY POLICE DEPARTMENT","address":"110 OSCAR AVENUE NORTH CANBY, MN 56220-1332","bldgnbr":"110","predir":null,"streetname":"OSCAR AVENUE NORTH","streettype":null,"suffdir":null,"city":"CANBY","state_code":"MN","zip5":"56220","latitude":"44.7085830000000000","longitude":"-96.274646000000000","publicwifi":"U","url":null,"broadband_type_id":4}
{"id":null,"anchorname":"SAINT LEO FIRE DEPARTMENT","address":"100 NORTH WASHINGTON STREET SAINT LEO, MN 56264-9019","bldgnbr":"100","predir":null,"streetname":"NORTH WASHINGTON STREET","streettype":null,"suffdir":null,"city":"SAINT LEO","state_code":"MN","zip5":"56264","latitude":"44.7175780000000000","longitude":"-96.054797000000000","publicwifi":"U","url":null,"broadband_type_id":5}
{"id":null,"anchorname":"PORTER FIRE DEPARTMENT","address":"301 LONE TREE STREET PORTER, MN 56280-9788","bldgnbr":"301","predir":null,"streetname":"LONE TREE STREET","streettype":null,"suffdir":null,"city":"PORTER","state_code":"MN","zip5":"56280","latitude":"44.6346310000000000","longitude":"-96.166836000000000","publicwifi":"U","url":null,"broadband_type_id":5}
{"id":null,"anchorname":"CLARKFIELD FIRE DEPARTMENT / CLARKFIELD AREA AMBULANCE","address":"1250 15TH AVENUE CLARKFIELD, MN 56223-1008","bldgnbr":"1250","predir":null,"streetname":"15TH AVENUE","streettype":null,"suffdir":null,"city":"CLARKFIELD","state_code":"MN","zip5":"56223","latitude":"44.7960650000000000","longitude":"-95.804496000000000","publicwifi":"U","url":null,"broadband_type_id":5}
{"id":null,"anchorname":"YELLOW MEDICINE EAST JUNIOR HIGH SCHOOL LIBRARY","address":"1204 11TH AVE.  PO BOX 338 CLARKFIELD, MN 56223","bldgnbr":"1204","predir":null,"streetname":"11TH AVE.","streettype":null,"suffdir":null,"city":"CLARKFIELD","state_code":"MN","zip5":"56223","latitude":"44.7917240000000000","longitude":"-95.807366000000000","publicwifi":"U","url":null,"broadband_type_id":3}
{"id":null,"anchorname":"CLARKFIELD COMMUNITY LIBRARY","address":"812 10TH AVE.  P.O. BOX 278 CLARKFIELD, MN 56223-0278","bldgnbr":"812","predir":null,"streetname":"10TH AVE.","streettype":null,"suffdir":null,"city":"CLARKFIELD","state_code":"MN","zip5":"56223","latitude":"44.7907390000000000","longitude":"-95.801726000000000","publicwifi":"N","url":null,"broadband_type_id":6}
{"id":null,"anchorname":"CLARKFIELD-BOYD POLICE DEPARTMENT","address":"1029 10TH AVENUE CLARKFIELD, MN 56223-1301","bldgnbr":"1029","predir":null,"streetname":"10TH AVENUE","streettype":null,"suffdir":null,"city":"CLARKFIELD","state_code":"MN","zip5":"56223","latitude":"44.7905500000000000","longitude":"-95.805111000000000","publicwifi":"U","url":null,"broadband_type_id":4}
{"id":null,"anchorname":"HANLEY FALLS VOLUNTEER FIRE DEPARTMENT","address":"105 3RD STREET NORTH HANLEY FALLS, MN 56245","bldgnbr":"105","predir":null,"streetname":"3RD STREET NORTH","streettype":null,"suffdir":null,"city":"HANLEY FALLS","state_code":"MN","zip5":"56245","latitude":"44.6937030000000000","longitude":"-95.621267000000000","publicwifi":"U","url":null,"broadband_type_id":5}
{"id":null,"anchorname":"ST. JOHN'S SCHOOL","address":"130 3RD ST WOOD LAKE, MN 56297-0155","bldgnbr":"130","predir":null,"streetname":"3RD ST","streettype":null,"suffdir":null,"city":"WOOD LAKE","state_code":"MN","zip5":"56297","latitude":"44.6495490000000000","longitude":"-95.538949000000000","publicwifi":"U","url":null,"broadband_type_id":6}
{"id":null,"anchorname":"WOODLAKE FIRE DEPARTMENT","address":"79 3RD AVENUE WEST WOODLAKE, MN 56297-1508","bldgnbr":"79","predir":null,"streetname":"3RD AVENUE WEST","streettype":null,"suffdir":null,"city":"WOODLAKE","state_code":"MN","zip5":"56297","latitude":"44.6525960000000000","longitude":"-95.539905000000000","publicwifi":"U","url":null,"broadband_type_id":5}
{"id":null,"anchorname":"E.C.H.O. CHARTER SCHOOL","address":"101 ROCKET AVE. ECHO, MN 56237","bldgnbr":"101","predir":null,"streetname":"ROCKET AVE.","streettype":null,"suffdir":null,"city":"ECHO","state_code":"MN","zip5":"56237","latitude":"44.6171350000000000","longitude":"-95.408631000000000","publicwifi":"U","url":null,"broadband_type_id":6}
{"id":null,"anchorname":"ECHO CHARTER SCHOOL","address":"101 ROCKET AVENUE ECHO, MN 56237","bldgnbr":"101","predir":null,"streetname":"ROCKET AVENUE","streettype":null,"suffdir":null,"city":"ECHO","state_code":"MN","zip5":"56237","latitude":"44.6173860000000000","longitude":"-95.410080000000000","publicwifi":"U","url":null,"broadband_type_id":6}
{"id":null,"anchorname":"ECHO POLICE DEPARTMENT","address":"342 SECOND AVENUE WEST ECHO, MN 56237","bldgnbr":"342","predir":null,"streetname":"SECOND AVENUE WEST","streettype":null,"suffdir":null,"city":"ECHO","state_code":"MN","zip5":"56237","latitude":"44.6165670000000000","longitude":"-95.416580000000000","publicwifi":"U","url":null,"broadband_type_id":4}
{"id":null,"anchorname":"ECHO VOLUNTEER FIRE DEPARTMENT","address":"413 2ND AVENUE WEST ECHO, MN 56237","bldgnbr":"413","predir":null,"streetname":"2ND AVENUE WEST","streettype":null,"suffdir":null,"city":"ECHO","state_code":"MN","zip5":"56237","latitude":"44.6170920000000000","longitude":"-95.417754000000000","publicwifi":"U","url":null,"broadband_type_id":5}
{"id":null,"anchorname":"NATCHEZ HIGH SCHOOL","address":"ZZ","bldgnbr":"-9999","predir":null,"streetname":"ZZ","streettype":null,"suffdir":null,"city":"NATCHEZ","state_code":"MS","zip5":"-9999","latitude":"31.5110880000000000","longitude":"-91.374058000000000","publicwifi":"U","url":null,"broadband_type_id":6}
{"id":null,"anchorname":"MC LAURIN ELEMENTARY SCHOOL","address":"ZZ","bldgnbr":"-9999","predir":null,"streetname":"ZZ","streettype":null,"suffdir":null,"city":"NATCHEZ","state_code":"MS","zip5":"-9999","latitude":"31.5112700000000000","longitude":"-91.374120000000000","publicwifi":"U","url":null,"broadband_type_id":6}
{"id":null,"anchorname":"JOSEPH L FRAZIER PRIMARY SCHOOL","address":"ZZ","bldgnbr":"-9999","predir":null,"streetname":"ZZ","streettype":null,"suffdir":null,"city":"NATCHEZ","state_code":"MS","zip5":"-9999","latitude":"31.5715560000000000","longitude":"-91.377703000000000","publicwifi":"U","url":null,"broadband_type_id":6}
{"id":null,"anchorname":"CENTRAL SCHOOL","address":"ZZ","bldgnbr":"-9999","predir":null,"streetname":"ZZ","streettype":null,"suffdir":null,"city":"NATCHEZ","state_code":"MS","zip5":"-9999","latitude":"31.5628410000000000","longitude":"-91.369669000000000","publicwifi":"U","url":null,"broadband_type_id":6}
{"id":null,"anchorname":"CENTRAL SCHOOL","address":"ZZ","bldgnbr":"-9999","predir":null,"streetname":"ZZ","streettype":null,"suffdir":null,"city":"WEST POINT","state_code":"MS","zip5":"-9999","latitude":"33.6031820000000000","longitude":"-88.644545000000000","publicwifi":"U","url":null,"broadband_type_id":6}
{"id":null,"anchorname":"ROBERT LEWIS MIDDLE SCHOOL","address":"ZZ","bldgnbr":"-9999","predir":null,"streetname":"ZZ","streettype":null,"suffdir":null,"city":"NATCHEZ","state_code":"MS","zip5":"-9999","latitude":"31.5706770000000000","longitude":"-91.370426000000000","publicwifi":"U","url":null,"broadband_type_id":6}
{"id":null,"anchorname":"MORGANTOWN ELEMENTARY SCHOOL","address":"ZZ","bldgnbr":"-9999","predir":null,"streetname":"ZZ","streettype":null,"suffdir":null,"city":"NATCHEZ","state_code":"MS","zip5":"-9999","latitude":"31.5752140000000000","longitude":"-91.354209000000000","publicwifi":"U","url":null,"broadband_type_id":6}
{"id":null,"anchorname":"FOSTER MOUND VFD","address":"288  FOSTER MOUND RD, NATCHEZ, MS 39120","bldgnbr":"288","predir":null,"streetname":"FOSTER MOUND","streettype":"RD","suffdir":null,"city":"NATCHEZ","state_code":"MS","zip5":"39120","latitude":"31.5956272930000000","longitude":"-91.326022255000000","publicwifi":"U","url":null,"broadband_type_id":5}
{"id":null,"anchorname":"CAREER AND TECHNOLOGY CENTER","address":"ZZ","bldgnbr":"-9999","predir":null,"streetname":"ZZ","streettype":null,"suffdir":null,"city":"NATCHEZ","state_code":"MS","zip5":"-9999","latitude":"31.5520030000000000","longitude":"-91.368040000000000","publicwifi":"U","url":null,"broadband_type_id":3}
{"id":null,"anchorname":"JUDGE GEORGE W ARMSTRONG LIBRARY","address":"220 S COMMERCE ST, NATCHEZ, MS 39120-3502","bldgnbr":"220","predir":"S","streetname":"COMMERCE","streettype":"ST","suffdir":null,"city":"NATCHEZ","state_code":"MS","zip5":"39120","latitude":"31.5584086640000000","longitude":"-91.403572489000000","publicwifi":"U","url":null,"broadband_type_id":6}
{"id":null,"anchorname":"GEORGE ARMSTRONG LIBRARY","address":"220 S COMMERCE ST, NATCHEZ, MS 39120","bldgnbr":"220","predir":"S","streetname":"COMMERCE","streettype":"ST","suffdir":null,"city":"NATCHEZ","state_code":"MS","zip5":"39120","latitude":"31.5584086640000000","longitude":"-91.403572489000000","publicwifi":"U","url":null,"broadband_type_id":6}
{"id":null,"anchorname":"Livingston Elementary","address":"7301 Dwyer Road","bldgnbr":"7301","predir":null,"streetname":"DWYER","streettype":null,"suffdir":null,"city":"New Orleans","state_code":"LA","zip5":"70126","latitude":"30.0224129510000000","longitude":"-90.002731390000000","publicwifi":"U","url":null,"broadband_type_id":6}
{"id":null,"anchorname":"DEPARTMENT OF DEVELOPMENT AUTHORITY - WC NATCHEZ","address":"640 S CANAL ST, NATCHEZ, MS 39120","bldgnbr":"640","predir":"S","streetname":"CANAL","streettype":"ST","suffdir":null,"city":"NATCHEZ","state_code":"MS","zip5":"39120","latitude":"31.5560888820000000","longitude":"-91.410520763000000","publicwifi":"U","url":null,"broadband_type_id":null}
{"id":null,"anchorname":"DEPARTMENT OF HUMAN SERVICES - MDHS CORINTH EA CSE","address":"135 S HARPER RD, CORINTH, MS 38834","bldgnbr":"135","predir":"S","streetname":"HARPER","streettype":"RD","suffdir":null,"city":"CORINTH","state_code":"MS","zip5":"38834","latitude":"34.9295626360000000","longitude":"-88.495229640000000","publicwifi":"U","url":null,"broadband_type_id":6}
{"id":null,"anchorname":"DEPARTMENT OF PUBLIC SAFETY - CORINTH PD REGION 4","address":"300 CHILDS ST, CORINTH, MS 38834","bldgnbr":"300","predir":null,"streetname":"CHILDS","streettype":"ST","suffdir":null,"city":"CORINTH","state_code":"MS","zip5":"38834","latitude":"34.9368611690000000","longitude":"-88.521507886000000","publicwifi":"U","url":null,"broadband_type_id":4}
{"id":null,"anchorname":"DEPARTMENT OF PUBLIC SAFETY - CORINTH DA","address":"510 N FILMORE ST, CORINTH, MS 38834","bldgnbr":"510","predir":"N","streetname":"FILMORE","streettype":"ST","suffdir":null,"city":"CORINTH","state_code":"MS","zip5":"38834","latitude":"34.9351099340000000","longitude":"-88.520307404000000","publicwifi":"U","url":null,"broadband_type_id":4}
{"id":null,"anchorname":"STATE TAX COMMISSION-TITLE NETWORK-TAX ACCESSORS - TTN CORINTH","address":"600 E WALDRON ST, CORINTH, MS 38834","bldgnbr":"600","predir":"E","streetname":"WALDRON","streettype":"ST","suffdir":null,"city":"CORINTH","state_code":"MS","zip5":"38834","latitude":"34.9349156790000000","longitude":"-88.519474367000000","publicwifi":"U","url":null,"broadband_type_id":6}
{"id":null,"anchorname":"DEPARTMENT OF HUMAN SERVICES - MDHS CORINTH  DYS","address":"600 E WALDRON ST, CORINTH, MS 38834","bldgnbr":"600","predir":"E","streetname":"WALDRON","streettype":"ST","suffdir":null,"city":"CORINTH","state_code":"MS","zip5":"38834","latitude":"34.9349156790000000","longitude":"-88.519474367000000","publicwifi":"U","url":null,"broadband_type_id":6}
{"id":null,"anchorname":"DEPARTMENT OF PUBLIC SAFETY - ALCORN CO. SO. REGION 4","address":"305 S FULTON DR, CORINTH, MS 38834","bldgnbr":"305","predir":"S","streetname":"FULTON","streettype":"DR","suffdir":null,"city":"CORINTH","state_code":"MS","zip5":"38834","latitude":"34.9304636040000000","longitude":"-88.525448062000000","publicwifi":"U","url":null,"broadband_type_id":4}
{"id":null,"anchorname":"DEPARTMENT OF PUBLIC SAFETY - DL STATION - CORINTH","address":"305 S FULTON DR, CORINTH, MS 38834","bldgnbr":"305","predir":"S","streetname":"FULTON","streettype":"DR","suffdir":null,"city":"CORINTH","state_code":"MS","zip5":"38834","latitude":"34.9304636040000000","longitude":"-88.525448062000000","publicwifi":"U","url":null,"broadband_type_id":4}
{"id":null,"anchorname":"DIVISION OF MEDICAID - DIVISION OF MEDICAID - CORINTH","address":"2619 S HARPER RD, CORINTH, MS 38834","bldgnbr":"2619","predir":"S","streetname":"HARPER","streettype":"RD","suffdir":null,"city":"CORINTH","state_code":"MS","zip5":"38834","latitude":"34.9089705270000000","longitude":"-88.512471244000000","publicwifi":"U","url":null,"broadband_type_id":6}
{"id":null,"anchorname":"ALCORN COUNTY PROBATION AND PAROLE","address":"2203 HIGHWAY 72 E, CORINTH, MS 38834","bldgnbr":"2203","predir":null,"streetname":"72","streettype":null,"suffdir":"E","city":"CORINTH","state_code":"MS","zip5":"38834","latitude":"34.8900668580000000","longitude":"-88.460019024000000","publicwifi":"U","url":null,"broadband_type_id":1}
{"id":null,"anchorname":"BIGGERSVILLE ELEMENTARY","address":"ZZ","bldgnbr":"-9999","predir":null,"streetname":"ZZ","streettype":null,"suffdir":null,"city":"CORINTH","state_code":"MS","zip5":"-9999","latitude":"34.9257250000000000","longitude":"-88.548472000000000","publicwifi":"U","url":null,"broadband_type_id":6}
{"id":null,"anchorname":"ALCORN COUNTY CWC","address":"2407A NORMAN RD, CORINTH, MS 38834","bldgnbr":"2407","predir":null,"streetname":"NORMAN","streettype":"RD","suffdir":null,"city":"CORINTH","state_code":"MS","zip5":"38834","latitude":"34.9075260350000000","longitude":"-88.558703149000000","publicwifi":"U","url":null,"broadband_type_id":1}
{"id":null,"anchorname":"DEPARTMENT OF DEVELOPMENT AUTHORITY - WC CORINTH","address":"2028 S TATE ST, CORINTH, MS 38834","bldgnbr":"2028","predir":"S","streetname":"TATE","streettype":"ST","suffdir":null,"city":"CORINTH","state_code":"MS","zip5":"38834","latitude":"34.9284487570000000","longitude":"-88.506404641000000","publicwifi":"U","url":null,"broadband_type_id":null}
{"id":null,"anchorname":"DEPARTMENT OF TRANSPORTATION-WAN - MDOT CORINTH","address":"129 WHITMORE LEVEE RD, CORINTH, MS 38834","bldgnbr":"129","predir":null,"streetname":"WHITMORE LEVEE","streettype":"RD","suffdir":null,"city":"CORINTH","state_code":"MS","zip5":"38834","latitude":"34.9011076020000000","longitude":"-88.549889255000000","publicwifi":"U","url":null,"broadband_type_id":null}
{"id":null,"anchorname":"ALCORN CO VOC COMPLEX","address":"ZZ","bldgnbr":"-9999","predir":null,"streetname":"ZZ","streettype":null,"suffdir":null,"city":"CORINTH","state_code":"MS","zip5":"-9999","latitude":"34.9121010000000000","longitude":"-88.557700000000000","publicwifi":"U","url":null,"broadband_type_id":null}
{"id":null,"anchorname":"SUSIE B WEST PRIMARY SCHOOL","address":"ZZ","bldgnbr":"-9999","predir":null,"streetname":"ZZ","streettype":null,"suffdir":null,"city":"NATCHEZ","state_code":"MS","zip5":"-9999","latitude":"31.5308330000000000","longitude":"-91.409307000000000","publicwifi":"U","url":null,"broadband_type_id":6}
{"id":null,"anchorname":"STATE BOARD OF HEALTH - DEPARTMENT OF HEALTH - NATCHEZ HH","address":"317 HIGHLAND BLVD, NATCHEZ, MS 39120","bldgnbr":"317","predir":null,"streetname":"HIGHLAND","streettype":"BLVD","suffdir":null,"city":"NATCHEZ","state_code":"MS","zip5":"39120","latitude":"31.5212325180000000","longitude":"-91.396252653000000","publicwifi":"U","url":null,"broadband_type_id":3}
{"id":null,"anchorname":"ALCORN CENTRAL HIGH SCHOOL","address":"8 RD 254, CORINTH, MS 38846","bldgnbr":"8","predir":null,"streetname":"254","streettype":null,"suffdir":null,"city":"GLEN","state_code":"MS","zip5":"38846","latitude":"34.9024080000000000","longitude":"-88.431680000000000","publicwifi":"U","url":null,"broadband_type_id":6}
{"id":null,"anchorname":"ALCORN CENTRAL ELEMENTARY SCHOOL","address":"ZZ","bldgnbr":"-9999","predir":null,"streetname":"ZZ","streettype":null,"suffdir":null,"city":"GLEN","state_code":"MS","zip5":"-9999","latitude":"34.9031540000000000","longitude":"-88.432326000000000","publicwifi":"U","url":null,"broadband_type_id":6}
{"id":null,"anchorname":"ALCORN CENTRAL MIDDLE SCHOOL","address":"ZZ","bldgnbr":"-9999","predir":null,"streetname":"ZZ","streettype":null,"suffdir":null,"city":"GLEN","state_code":"MS","zip5":"-9999","latitude":"34.9039070000000000","longitude":"-88.433057000000000","publicwifi":"U","url":null,"broadband_type_id":6}
{"id":null,"anchorname":"CORINTH MIDDLE SCHOOL","address":"ZZ","bldgnbr":"-9999","predir":null,"streetname":"ZZ","streettype":null,"suffdir":null,"city":"CORINTH","state_code":"MS","zip5":"-9999","latitude":"34.9489300000000000","longitude":"-88.509270000000000","publicwifi":"U","url":null,"broadband_type_id":6}
{"id":null,"anchorname":"EAST CORINTH ELEMENTARY SCHOOL","address":"1200 MEEKS ST, CORINTH, MS 38834","bldgnbr":"1200","predir":null,"streetname":"MEEKS","streettype":"ST","suffdir":null,"city":"CORINTH","state_code":"MS","zip5":"38834","latitude":"34.9410640000000000","longitude":"-88.504957000000000","publicwifi":"U","url":null,"broadband_type_id":6}
{"id":null,"anchorname":"CORINTH HIGH SCHOOL","address":"ZZ","bldgnbr":"-9999","predir":null,"streetname":"ZZ","streettype":null,"suffdir":null,"city":"CORINTH","state_code":"MS","zip5":"-9999","latitude":"34.9382190000000000","longitude":"-88.494160000000000","publicwifi":"U","url":null,"broadband_type_id":6}
{"id":null,"anchorname":"STATE BOARD OF HEALTH - DEPARTMENT OF HEALTH - WIC CORINTH","address":"501 PINECREST RD, CORINTH, MS 38834","bldgnbr":"501","predir":null,"streetname":"PINECREST","streettype":"RD","suffdir":null,"city":"CORINTH","state_code":"MS","zip5":"38834","latitude":"34.9336251030000000","longitude":"-88.491396873000000","publicwifi":"U","url":null,"broadband_type_id":3}
{"id":null,"anchorname":"WHITEFIELD NURSING HOME","address":"2101 E PROPER ST, CORINTH, MS 38834","bldgnbr":"2101","predir":"E","streetname":"PROPER","streettype":"ST","suffdir":null,"city":"CORINTH","state_code":"MS","zip5":"38834","latitude":"34.9308378230000000","longitude":"-88.500411278000000","publicwifi":"U","url":null,"broadband_type_id":3}
{"id":null,"anchorname":"MS CARE CENTER OF ALCORN COUNTY","address":"3701  JOANNE DR, CORINTH, MS 38834","bldgnbr":"3701","predir":null,"streetname":"JOANNE","streettype":"DR","suffdir":null,"city":"CORINTH","state_code":"MS","zip5":"38834","latitude":"34.9342801470000000","longitude":"-88.558642010000000","publicwifi":"U","url":null,"broadband_type_id":3}
{"id":null,"anchorname":"CORNERSTONE HEALTH \u0026 REHAB OF CORINTH","address":"302  ALCORN DR, CORINTH, MS 38834","bldgnbr":"302","predir":null,"streetname":"ALCORN","streettype":"DR","suffdir":null,"city":"CORINTH","state_code":"MS","zip5":"38834","latitude":"34.9331470410000000","longitude":"-88.558627573000000","publicwifi":"U","url":null,"broadband_type_id":3}
{"id":null,"anchorname":"WEST CORINTH ELEMENTARY SCHOOL","address":"200 WENASOGA RD, CORINTH, MS 38834","bldgnbr":"200","predir":null,"streetname":"WENASOGA","streettype":"RD","suffdir":null,"city":"CORINTH","state_code":"MS","zip5":"38834","latitude":"34.9390600000000000","longitude":"-88.531436000000000","publicwifi":"U","url":null,"broadband_type_id":6}
{"id":null,"anchorname":"NORTHEAST REGIONAL LIBRARY HQ","address":"1023 N FILLMORE ST, CORINTH, MS 38834","bldgnbr":"1023","predir":"N","streetname":"FILLMORE","streettype":"ST","suffdir":null,"city":"CORINTH","state_code":"MS","zip5":"38834","latitude":"34.9387703490000000","longitude":"-88.519063253000000","publicwifi":"U","url":null,"broadband_type_id":6}
{"id":null,"anchorname":"CORINTH FIRE DEPARTMENT","address":"300  CHILDS ST, CORINTH, MS 38834","bldgnbr":"300","predir":null,"streetname":"CHILDS","streettype":"ST","suffdir":null,"city":"CORINTH","state_code":"MS","zip5":"38834","latitude":"34.9368028760000000","longitude":"-88.521556041000000","publicwifi":"U","url":null,"broadband_type_id":5}
{"id":null,"anchorname":"KOSSUTH ELEMENTARY SCHOOL","address":"14 RD 604, KOSSUTH, MS 38834","bldgnbr":"14","predir":null,"streetname":"604","streettype":null,"suffdir":null,"city":"CORINTH","state_code":"MS","zip5":"38834","latitude":"34.8745930000000000","longitude":"-88.640310000000000","publicwifi":"U","url":null,"broadband_type_id":6}
{"id":null,"anchorname":"KOSSUTH HIGH SCHOOL","address":"16 RD 604, KOSSUTH, MS 38834","bldgnbr":"16","predir":null,"streetname":"604","streettype":null,"suffdir":null,"city":"CORINTH","state_code":"MS","zip5":"38834","latitude":"34.8743880000000000","longitude":"-88.641454000000000","publicwifi":"U","url":null,"broadband_type_id":6}
{"id":null,"anchorname":"KOSSUTH MIDDLE SCHOOL","address":"ZZ","bldgnbr":"-9999","predir":null,"streetname":"ZZ","streettype":null,"suffdir":null,"city":"CORINTH","state_code":"MS","zip5":"-9999","latitude":"34.8750720000000000","longitude":"-88.641647000000000","publicwifi":"U","url":null,"broadband_type_id":6}
{"id":null,"anchorname":"SOUTH CORINTH ELEM SCHOOL","address":"ZZ","bldgnbr":"-9999","predir":null,"streetname":"ZZ","streettype":null,"suffdir":null,"city":"CORINTH","state_code":"MS","zip5":"-9999","latitude":"34.9254110000000000","longitude":"-88.515069000000000","publicwifi":"U","url":null,"broadband_type_id":6}
{"id":null,"anchorname":"ALCORN COUNTY SHERIFF'S DEPARTMENT","address":"305 S FULTON DR, CORINTH, MS 38834","bldgnbr":"305","predir":"S","streetname":"FULTON","streettype":"DR","suffdir":null,"city":"CORINTH","state_code":"MS","zip5":"38834","latitude":"34.9304636040000000","longitude":"-88.525448062000000","publicwifi":"U","url":null,"broadband_type_id":4}
{"id":null,"anchorname":"CORINTH ELEMENTARY SCHOOL","address":"ZZ","bldgnbr":"-9999","predir":null,"streetname":"ZZ","streettype":null,"suffdir":null,"city":"CORINTH","state_code":"MS","zip5":"-9999","latitude":"34.9234270000000000","longitude":"-88.502285000000000","publicwifi":"U","url":null,"broadband_type_id":6}
{"id":null,"anchorname":"ALCORN ALTERNATIVE SCHOOL","address":"ZZ","bldgnbr":"-9999","predir":null,"streetname":"ZZ","streettype":null,"suffdir":null,"city":"CORINTH","state_code":"MS","zip5":"-9999","latitude":"34.9120880000000000","longitude":"-88.557718000000000","publicwifi":"U","url":null,"broadband_type_id":6}
{"id":null,"anchorname":"Niki and Adams Kiddie Academy","address":"2560 Jasmine Street","bldgnbr":"2560","predir":null,"streetname":"JASMINE","streettype":null,"suffdir":null,"city":"New Orleans","state_code":"LA","zip5":"70122","latitude":"30.0007000000000000","longitude":"-90.051102000000000","publicwifi":"U","url":null,"broadband_type_id":6}
{"id":null,"anchorname":"St Anna's Residence","address":"1823 Prytania St.","bldgnbr":"1823","predir":null,"streetname":"PRYTANIA","streettype":null,"suffdir":null,"city":"New Orleans","state_code":"LA","zip5":"70130","latitude":"29.9351010000000000","longitude":"-90.076698000000000","publicwifi":"U","url":null,"broadband_type_id":6}
{"id":null,"anchorname":"Poydras Home Activity Services for the Elderly (PHASE)","address":"5354 Magazine Street","bldgnbr":"5354","predir":null,"streetname":"MAGAZINE","streettype":null,"suffdir":null,"city":"New Orleans","state_code":"LA","zip5":"70115","latitude":"29.9207000000000000","longitude":"-90.114197000000000","publicwifi":"U","url":null,"broadband_type_id":6}
{"id":null,"anchorname":"AMITE COUNTY ELEMENTARY","address":"ZZ","bldgnbr":"-9999","predir":null,"streetname":"ZZ","streettype":null,"suffdir":null,"city":"LIBERTY","state_code":"MS","zip5":"-9999","latitude":"31.1463020000000000","longitude":"-90.805590000000000","publicwifi":"U","url":null,"broadband_type_id":6}
{"id":null,"anchorname":"MCADAMS ATTENDANCE CENTER","address":"ZZ","bldgnbr":"-9999","predir":null,"streetname":"ZZ","streettype":null,"suffdir":null,"city":"MCADAMS","state_code":"MS","zip5":"-9999","latitude":"33.0232400000000000","longitude":"-89.689775000000000","publicwifi":"U","url":null,"broadband_type_id":6}
{"id":null,"anchorname":"DEPARTMENT OF HUMAN SERVICES - MDHS KOSCUISKO CSE FCS DYS","address":"717 FAIRGROUND RD, KOSCIUSKO, MS 39090","bldgnbr":"717","predir":null,"streetname":"FAIRGROUND","streettype":"RD","suffdir":null,"city":"KOSCIUSKO","state_code":"MS","zip5":"39090","latitude":"33.0663756840000000","longitude":"-89.575885418000000","publicwifi":"U","url":null,"broadband_type_id":6}
{"id":null,"anchorname":"STATE TAX COMMISSION-TITLE NETWORK-TAX ACCESSORS - TTN KOSCIUSKO","address":"230 W WASHINGTON ST, KOSCIUSKO, MS 39090","bldgnbr":"230","predir":"W","streetname":"WASHINGTON","streettype":"ST","suffdir":null,"city":"KOSCIUSKO","state_code":"MS","zip5":"39090","latitude":"33.0586753060000000","longitude":"-89.591716958000000","publicwifi":"U","url":null,"broadband_type_id":6}
{"id":null,"anchorname":"DEPARTMENT OF TRANSPORTATION-WAN - MDOT-LIBERTY","address":"640 S BROAD ST, LIBERTY, MS 39645","bldgnbr":"640","predir":"S","streetname":"BROAD","streettype":"ST","suffdir":null,"city":"LIBERTY","state_code":"MS","zip5":"39645","latitude":"31.1580909000000000","longitude":"-90.811055935000000","publicwifi":"U","url":null,"broadband_type_id":null}
{"id":null,"anchorname":"DEPARTMENT OF PUBLIC SAFETY - KOSCIUSKO PD REGION 2","address":"209 W ADAMS ST, KOSCIUSKO, MS 39090","bldgnbr":"209","predir":"W","streetname":"ADAMS","streettype":"ST","suffdir":null,"city":"KOSCIUSKO","state_code":"MS","zip5":"39090","latitude":"33.0594741130000000","longitude":"-89.591083477000000","publicwifi":"U","url":null,"broadband_type_id":4}
{"id":null,"anchorname":"KOSCIUSKO MIDDLE","address":"ZZ","bldgnbr":"-9999","predir":null,"streetname":"ZZ","streettype":null,"suffdir":null,"city":"KOSCIUSKO","state_code":"MS","zip5":"-9999","latitude":"33.0545330000000000","longitude":"-89.593381000000000","publicwifi":"U","url":null,"broadband_type_id":6}
{"id":null,"anchorname":"GREENLEE ATTENDANCE CENTER","address":"ZZ","bldgnbr":"-9999","predir":null,"streetname":"ZZ","streettype":null,"suffdir":null,"city":"MCCOOL","state_code":"MS","zip5":"-9999","latitude":"33.1419420000000000","longitude":"-89.451980000000000","publicwifi":"U","url":null,"broadband_type_id":null}
{"id":null,"anchorname":"ETHEL ATTENDANCE CENTER","address":"COLLEGE ST, ETHEL, MS 39067","bldgnbr":"N/A","predir":null,"streetname":"COLLEGE","streettype":"ST","suffdir":null,"city":"ETHEL","state_code":"MS","zip5":"39067","latitude":"33.1229450000000000","longitude":"-89.467999000000000","publicwifi":"U","url":null,"broadband_type_id":null}
{"id":null,"anchorname":"LONG CREEK ATTENDANCE CENTER","address":"ZZ","bldgnbr":"-9999","predir":null,"streetname":"ZZ","streettype":null,"suffdir":null,"city":"SALLIS","state_code":"MS","zip5":"-9999","latitude":"33.0060670000000000","longitude":"-89.765782000000000","publicwifi":"U","url":null,"broadband_type_id":null}
{"id":null,"anchorname":"DEPARTMENT OF HUDSPETH - HUDSPETH-KOSCIUSKO","address":"2048 ATTALA RD, KOSCIUSKO, MS 39090","bldgnbr":"2048","predir":null,"streetname":"ATTALA","streettype":"RD","suffdir":null,"city":"KOSCIUSKO","state_code":"MS","zip5":"39090","latitude":"33.0289551620000000","longitude":"-89.542755748000000","publicwifi":"U","url":null,"broadband_type_id":null}
{"id":null,"anchorname":"DEPARTMENT OF TRANSPORTATION-WAN - MDOT  KOSCIUSKO","address":"2539 ATTALA ROAD, KOSCIUSKO, MS 39090","bldgnbr":"2539","predir":null,"streetname":"ATTALA","streettype":"RD","suffdir":null,"city":"KOSCIUSKO","state_code":"MS","zip5":"39090","latitude":"33.0359197830000000","longitude":"-89.544004454000000","publicwifi":"U","url":null,"broadband_type_id":null}
{"id":null,"anchorname":"DEPARTMENT OF HUDSPETH - HUDSPETH-KOSCIUSKO","address":"138 LOVE RD, KOSCIUSKO, MS 39090","bldgnbr":"138","predir":null,"streetname":"LOVE","streettype":"RD","suffdir":null,"city":"KOSCIUSKO","state_code":"MS","zip5":"39090","latitude":"33.0415548230000000","longitude":"-89.591560440000000","publicwifi":"U","url":null,"broadband_type_id":null}
{"id":null,"anchorname":"KOSCIUSKO ATTALA CO VOC COMPLEX","address":"450 HWY 12 E, KOSCIUSKO, MS 39090","bldgnbr":"450","predir":null,"streetname":"12","streettype":null,"suffdir":null,"city":"KOSCIUSKO","state_code":"MS","zip5":"39090","latitude":"33.0662200000000000","longitude":"-89.580630000000000","publicwifi":"U","url":null,"broadband_type_id":null}
{"id":null,"anchorname":"KOSCIUSKO LOWER ELEM","address":"ZZ","bldgnbr":"-9999","predir":null,"streetname":"ZZ","streettype":null,"suffdir":null,"city":"KOSCIUSKO","state_code":"MS","zip5":"-9999","latitude":"33.0639590000000000","longitude":"-89.577204000000000","publicwifi":"U","url":null,"broadband_type_id":null}
{"id":null,"anchorname":"DIVISION OF MEDICAID - DIVISION OF MEDICAID - KOSCUISKO","address":"340 HWY 12 W, KOSCIUSKO, MS 39090","bldgnbr":"340","predir":null,"streetname":"12","streettype":null,"suffdir":"W","city":"KOSCIUSKO","state_code":"MS","zip5":"39090","latitude":"33.0645745170000000","longitude":"-89.599762256000000","publicwifi":"U","url":null,"broadband_type_id":6}
{"id":null,"anchorname":"DRS - DRS KOSCIUSKO","address":"610 W JEFFERSON ST, KOSCIUSKO, MS 39090","bldgnbr":"610","predir":"W","streetname":"JEFFERSON","streettype":"ST","suffdir":null,"city":"KOSCIUSKO","state_code":"MS","zip5":"39090","latitude":"33.0522613630000000","longitude":"-89.603837662000000","publicwifi":"U","url":null,"broadband_type_id":null}
{"id":null,"anchorname":"MS STATE VETERANS HOME","address":"310  AUTUMN RIDGE DR, KOSCIUSKO, MS 39090","bldgnbr":"310","predir":null,"streetname":"AUTUMN RIDGE","streettype":"DR","suffdir":null,"city":"KOSCIUSKO","state_code":"MS","zip5":"39090","latitude":"33.0653722760000000","longitude":"-89.598901774000000","publicwifi":"U","url":null,"broadband_type_id":6}
{"id":null,"anchorname":"KOSCIUSKO UPPER ELEM","address":"ZZ","bldgnbr":"-9999","predir":null,"streetname":"ZZ","streettype":null,"suffdir":null,"city":"KOSCIUSKO","state_code":"MS","zip5":"-9999","latitude":"33.0691140000000000","longitude":"-89.586350000000000","publicwifi":"U","url":null,"broadband_type_id":null}
{"id":null,"anchorname":"VAB - VAB JACKSON KOSCIUSKO","address":"310 AUTUMN RIDGE DR, KOSCIUSKO, MS 39090","bldgnbr":"310","predir":null,"streetname":"AUTUMN RIDGE","streettype":"DR","suffdir":null,"city":"KOSCIUSKO","state_code":"MS","zip5":"39090","latitude":"33.0667461430000000","longitude":"-89.598932066000000","publicwifi":"U","url":null,"broadband_type_id":null}
{"id":null,"anchorname":"BENTON CO REGIONAL VOCATIONAL CEN","address":"ZZ","bldgnbr":"-9999","predir":null,"streetname":"ZZ","streettype":null,"suffdir":null,"city":"ASHLAND","state_code":"MS","zip5":"-9999","latitude":"34.8476200000000000","longitude":"-89.183722000000000","publicwifi":"U","url":null,"broadband_type_id":null}
{"id":null,"anchorname":"RIENZI PUBLIC LIBRARY","address":"0 SCHOOL ST, RIENZI, MS 38865","bldgnbr":"0","predir":null,"streetname":"SCHOOL","streettype":"ST","suffdir":null,"city":"RIENZI","state_code":"MS","zip5":"38865","latitude":"34.7705222810000000","longitude":"-88.535167999000000","publicwifi":"U","url":null,"broadband_type_id":6}
{"id":null,"anchorname":"RIENZI ELEMENTARY SCHOOL","address":"ZZ","bldgnbr":"-9999","predir":null,"streetname":"ZZ","streettype":null,"suffdir":null,"city":"RIENZI","state_code":"MS","zip5":"-9999","latitude":"34.7681780000000000","longitude":"-88.533493000000000","publicwifi":"U","url":null,"broadband_type_id":6}
{"id":null,"anchorname":"BIGGERSVILLE HIGH SCHOOL","address":"571 HWY 45, CORINTH, MS 38865","bldgnbr":"571","predir":null,"streetname":"45","streettype":null,"suffdir":null,"city":"CORINTH","state_code":"MS","zip5":"38865","latitude":"34.8384250000000000","longitude":"-88.560030000000000","publicwifi":"U","url":null,"broadband_type_id":6}
{"id":null,"anchorname":"MARS HILL VFD","address":"5357 N GREENSBURG RD, SMITHDALE, MS 39664","bldgnbr":"5357","predir":"N","streetname":"GREENSBURG","streettype":"RD","suffdir":null,"city":"SMITHDALE","state_code":"MS","zip5":"39664","latitude":"31.2520622570000000","longitude":"-90.638970940000000","publicwifi":"U","url":null,"broadband_type_id":5}
{"id":null,"anchorname":"LIBERTY PUBLIC LIBRARY","address":"CLINIC DR, LIBERTY, MS 39645-0","bldgnbr":"N/A","predir":null,"streetname":"CLINIC","streettype":"DR","suffdir":null,"city":"LIBERTY","state_code":"MS","zip5":"39645","latitude":"31.1600782390000000","longitude":"-90.806496472000000","publicwifi":"U","url":null,"broadband_type_id":6}
{"id":null,"anchorname":"AMITE COUNTY HIGH SCHOOL","address":"ZZ","bldgnbr":"-9999","predir":null,"streetname":"ZZ","streettype":null,"suffdir":null,"city":"LIBERTY","state_code":"MS","zip5":"-9999","latitude":"31.1548620000000000","longitude":"-90.799278000000000","publicwifi":"U","url":null,"broadband_type_id":6}
{"id":null,"anchorname":"GLOSTER PUBLIC LIBRARY","address":"229 E MAIN ST, GLOSTER, MS 39638-0","bldgnbr":"229","predir":"E","streetname":"MAIN","streettype":"ST","suffdir":null,"city":"GLOSTER","state_code":"MS","zip5":"39638","latitude":"31.1975647350000000","longitude":"-91.019569185000000","publicwifi":"U","url":null,"broadband_type_id":6}
{"id":null,"anchorname":"KOSCIUSKO SENIOR HIGH SCHOOL","address":"ZZ","bldgnbr":"-9999","predir":null,"streetname":"ZZ","streettype":null,"suffdir":null,"city":"KOSCIUSKO","state_code":"MS","zip5":"-9999","latitude":"33.0507890000000000","longitude":"-89.569005000000000","publicwifi":"U","url":null,"broadband_type_id":6}
{"id":null,"anchorname":"KOSCIUSKO POLICE DEPARTMENT","address":"209 W ADAMS ST, KOSCIUSKO, MS 39090","bldgnbr":"209","predir":"W","streetname":"ADAMS","streettype":"ST","suffdir":null,"city":"KOSCIUSKO","state_code":"MS","zip5":"39090","latitude":"33.0594722500000000","longitude":"-89.591077903000000","publicwifi":"U","url":null,"broadband_type_id":4}
{"id":null,"anchorname":"KOSCIUSKO JUNIOR HIGH SCHOOL","address":"ZZ","bldgnbr":"-9999","predir":null,"streetname":"ZZ","streettype":null,"suffdir":null,"city":"KOSCIUSKO","state_code":"MS","zip5":"-9999","latitude":"33.0585690000000000","longitude":"-89.591667000000000","publicwifi":"U","url":null,"broadband_type_id":6}
{"id":null,"anchorname":"STATE BOARD OF HEALTH - DEPARTMENT OF HEALTH - KOSCIUSKO","address":"999 DR MARTIN LUTHER KING JR DR, KOSCIUSKO, MS 39090","bldgnbr":"999","predir":null,"streetname":"DR MARTIN LUTHER KING JR","streettype":"DR","suffdir":null,"city":"KOSCIUSKO","state_code":"MS","zip5":"39090","latitude":"33.0778671750000000","longitude":"-89.593371487000000","publicwifi":"U","url":null,"broadband_type_id":3}
{"id":null,"anchorname":"STATE BOARD OF HEALTH - DEPARTMENT OF HEALTH - WIC KOSCIUSKO","address":"312 N WELLS ST, KOSCIUSKO, MS 39090","bldgnbr":"312","predir":"N","streetname":"WELLS","streettype":"ST","suffdir":null,"city":"KOSCIUSKO","state_code":"MS","zip5":"39090","latitude":"33.0611907560000000","longitude":"-89.593274586000000","publicwifi":"U","url":null,"broadband_type_id":3}
{"id":null,"anchorname":"ASHLAND ELEMENTARY SCHOOL","address":"ZZ","bldgnbr":"-9999","predir":null,"streetname":"ZZ","streettype":null,"suffdir":null,"city":"ASHLAND","state_code":"MS","zip5":"-9999","latitude":"34.8528970000000000","longitude":"-89.200199000000000","publicwifi":"U","url":null,"broadband_type_id":6}
{"id":null,"anchorname":"ASHLAND MIDDLE SCHOOL","address":"ZZ","bldgnbr":"-9999","predir":null,"streetname":"ZZ","streettype":null,"suffdir":null,"city":"ASHLAND","state_code":"MS","zip5":"-9999","latitude":"34.8383000000000000","longitude":"-89.173320000000000","publicwifi":"U","url":null,"broadband_type_id":6}
{"id":null,"anchorname":"ASHLAND HIGH SCHOOL","address":"ZZ","bldgnbr":"-9999","predir":null,"streetname":"ZZ","streettype":null,"suffdir":null,"city":"ASHLAND","state_code":"MS","zip5":"-9999","latitude":"34.8383100000000000","longitude":"-89.173317000000000","publicwifi":"U","url":null,"broadband_type_id":6}
{"id":null,"anchorname":"DEPARTMENT OF TRANSPORTATION-WAN - MDOT  ASHLAND","address":"18530 HWY 5, LAMAR, MS 38603","bldgnbr":"18530","predir":null,"streetname":"5","streettype":null,"suffdir":null,"city":"LAMAR","state_code":"MS","zip5":"38603","latitude":"34.8325359410000000","longitude":"-89.188329379000000","publicwifi":"U","url":null,"broadband_type_id":null}
{"id":null,"anchorname":"Holistic Concepts, Inc.","address":"1836 Bayou Road","bldgnbr":"1836","predir":null,"streetname":"BAYOU","streettype":null,"suffdir":null,"city":"New Orleans","state_code":"LA","zip5":"70116","latitude":"29.9694000000000000","longitude":"-90.070602000000000","publicwifi":"U","url":null,"broadband_type_id":6}
{"id":null,"anchorname":"DEPARTMENT OF HUMAN SERVICES - MDHS ASHLAND CSE FCS","address":"380 RIPLEY AV, ASHLAND, MS 38603","bldgnbr":"380","predir":null,"streetname":"RIPLEY","streettype":"AVE","suffdir":null,"city":"ASHLAND","state_code":"MS","zip5":"38603","latitude":"34.8334566970000000","longitude":"-89.186913212000000","publicwifi":"U","url":null,"broadband_type_id":6}
{"id":null,"anchorname":"DEPARTMENT OF PUBLIC SAFETY - BENTON CO. SO. REGION 4","address":"368 RIPLEY AV, ASHLAND, MS 38603","bldgnbr":"368","predir":null,"streetname":"RIPLEY","streettype":"AVE","suffdir":null,"city":"ASHLAND","state_code":"MS","zip5":"38603","latitude":"34.8334566970000000","longitude":"-89.186913212000000","publicwifi":"U","url":null,"broadband_type_id":4}
{"id":null,"anchorname":"BOLIVAR COUNTY CWC","address":"604 HIGHWAY 8 , ROSEDALE, MS 38769","bldgnbr":"604","predir":null,"streetname":"8","streettype":null,"suffdir":null,"city":"ROSEDALE","state_code":"MS","zip5":"38769","latitude":"33.8381491010000000","longitude":"-90.988893035000000","publicwifi":"U","url":null,"broadband_type_id":1}
{"id":null,"anchorname":"HICKORY FLAT ATTENDANCE CENTER","address":"ZZ","bldgnbr":"-9999","predir":null,"streetname":"ZZ","streettype":null,"suffdir":null,"city":"HICKORY FLAT","state_code":"MS","zip5":"-9999","latitude":"34.6137060000000000","longitude":"-89.191154000000000","publicwifi":"U","url":null,"broadband_type_id":null}
{"id":null,"anchorname":"OAK GROVE RETIREMENT HOME","address":"209  OAK CIR, DUNCAN, MS 38740","bldgnbr":"209","predir":null,"streetname":"OAK","streettype":"CIR","suffdir":null,"city":"DUNCAN","state_code":"MS","zip5":"38740","latitude":"34.0417446030000000","longitude":"-90.743016964000000","publicwifi":"U","url":null,"broadband_type_id":null}
{"id":null,"anchorname":"DEPARTMENT OF HUMAN SERVICES - MDHS ROSEDALE EA FCS","address":"706 BRADFORD ST, ROSEDALE, MS 38769","bldgnbr":"706","predir":null,"streetname":"BRADFORD","streettype":"ST","suffdir":null,"city":"ROSEDALE","state_code":"MS","zip5":"38769","latitude":"33.8551744100000000","longitude":"-91.026559258000000","publicwifi":"U","url":null,"broadband_type_id":6}
{"id":null,"anchorname":"JOE BARNES VOCATIONAL CENTER","address":"ZZ","bldgnbr":"-9999","predir":null,"streetname":"ZZ","streettype":null,"suffdir":null,"city":"ROSEDALE","state_code":"MS","zip5":"-9999","latitude":"33.8537830000000000","longitude":"-91.027051000000000","publicwifi":"U","url":null,"broadband_type_id":6}
{"id":null,"anchorname":"WEST BOLIVAR ELEM","address":"ZZ","bldgnbr":"-9999","predir":null,"streetname":"ZZ","streettype":null,"suffdir":null,"city":"ROSEDALE","state_code":"MS","zip5":"-9999","latitude":"33.8467530000000000","longitude":"-91.027864000000000","publicwifi":"U","url":null,"broadband_type_id":6}
{"id":null,"anchorname":"DEPARTMENT OF PUBLIC SAFETY - MOUND BAYOU PD REGION 2","address":"106 DAVIS AV, MOUND, MS 38762","bldgnbr":"106","predir":null,"streetname":"DAVIS","streettype":"AVE","suffdir":null,"city":"MOUND","state_code":"MS","zip5":"38762","latitude":"33.8808589460000000","longitude":"-90.730325502000000","publicwifi":"U","url":null,"broadband_type_id":4}
{"id":null,"anchorname":"HAYES COOPER CENTER FOR MATH SC TEC","address":"ZZ","bldgnbr":"-9999","predir":null,"streetname":"ZZ","streettype":null,"suffdir":null,"city":"MERIGOLD","state_code":"MS","zip5":"-9999","latitude":"33.8793720000000000","longitude":"-90.725803000000000","publicwifi":"U","url":null,"broadband_type_id":6}
{"id":null,"anchorname":"CLEVELAND VOC TECH COMPLEX","address":"ZZ","bldgnbr":"-9999","predir":null,"streetname":"ZZ","streettype":null,"suffdir":null,"city":"CLEVELAND","state_code":"MS","zip5":"-9999","latitude":"33.7924410000000000","longitude":"-90.859545000000000","publicwifi":"U","url":null,"broadband_type_id":null}
{"id":null,"anchorname":"ROBERT M. BOND MEMORIAL LIBRARY","address":"6 MAIN ST N, ASHLAND, MS 38603-8102","bldgnbr":"6","predir":null,"streetname":"MAIN","streettype":"ST","suffdir":"N","city":"ASHLAND","state_code":"MS","zip5":"38603","latitude":"34.8334559500000000","longitude":"-89.176207505000000","publicwifi":"U","url":null,"broadband_type_id":6}
{"id":null,"anchorname":"HICKORY FLAT PUBLIC LIBRARY","address":"1067 SPRUCE ST, HICKORY, MS 38633","bldgnbr":"1067","predir":null,"streetname":"SPRUCE","streettype":"ST","suffdir":null,"city":"HICKORY","state_code":"MS","zip5":"38633","latitude":"34.6135376660000000","longitude":"-89.187866450000000","publicwifi":"U","url":null,"broadband_type_id":6}
{"id":null,"anchorname":"BROOKS ELEM SCHOOL","address":"ZZ","bldgnbr":"-9999","predir":null,"streetname":"ZZ","streettype":null,"suffdir":null,"city":"DUNCAN","state_code":"MS","zip5":"-9999","latitude":"34.0384340000000000","longitude":"-90.749561000000000","publicwifi":"U","url":null,"broadband_type_id":6}
{"id":null,"anchorname":"DR. ROBERT T. HOLLINGSWORTH LIBRARY","address":", , MS 38774","bldgnbr":"N/A","predir":null,"streetname":"N/A","streettype":null,"suffdir":null,"city":"N/A","state_code":"MS","zip5":"38774","latitude":"33.9642800000000000","longitude":"-90.758780000000000","publicwifi":"U","url":null,"broadband_type_id":6}
{"id":null,"anchorname":"SHELBY SCHOOL","address":"ZZ","bldgnbr":"-9999","predir":null,"streetname":"ZZ","streettype":null,"suffdir":null,"city":"SHELBY","state_code":"MS","zip5":"-9999","latitude":"33.9532370000000000","longitude":"-90.763736000000000","publicwifi":"U","url":null,"broadband_type_id":6}
{"id":null,"anchorname":"BROAD STREET HIGH SCHOOL","address":"ZZ","bldgnbr":"-9999","predir":null,"streetname":"ZZ","streettype":null,"suffdir":null,"city":"SHELBY","state_code":"MS","zip5":"-9999","latitude":"33.9458540000000000","longitude":"-90.762148000000000","publicwifi":"U","url":null,"broadband_type_id":6}
{"id":null,"anchorname":"GUNNISON PUBLIC LIBRARY","address":"MAIN ST, GUNNISON, MS 38746-0","bldgnbr":"N/A","predir":null,"streetname":"MAIN","streettype":"ST","suffdir":null,"city":"GUNNISON","state_code":"MS","zip5":"38746","latitude":"33.9414130190000000","longitude":"-90.942978835000000","publicwifi":"U","url":null,"broadband_type_id":6}
{"id":null,"anchorname":"WEST BOLIVAR DIST HIGH SCHOOL","address":"ZZ","bldgnbr":"-9999","predir":null,"streetname":"ZZ","streettype":null,"suffdir":null,"city":"ROSEDALE","state_code":"MS","zip5":"-9999","latitude":"33.8565000000000000","longitude":"-91.026039000000000","publicwifi":"U","url":null,"broadband_type_id":6}
{"id":null,"anchorname":"ROSEDALE PUBLIC LIBRARY","address":"702 FRONT ST, ROSEDALE, MS 38769","bldgnbr":"702","predir":null,"streetname":"FRONT","streettype":"ST","suffdir":null,"city":"ROSEDALE","state_code":"MS","zip5":"38769","latitude":"33.8546728430000000","longitude":"-91.028730795000000","publicwifi":"U","url":null,"broadband_type_id":6}
{"id":null,"anchorname":"STATE BOARD OF HEALTH - DEPARTMENT OF HEALTH - WIC ROSEDALE","address":"503 BRUCE ST, ROSEDALE, MS 38769","bldgnbr":"503","predir":null,"streetname":"BRUCE","streettype":"ST","suffdir":null,"city":"ROSEDALE","state_code":"MS","zip5":"38769","latitude":"33.8532167360000000","longitude":"-91.026405717000000","publicwifi":"U","url":null,"broadband_type_id":3}
{"id":null,"anchorname":"WEST BOLIVAR DISTRICT MIDDLE SCHOOL","address":"ZZ","bldgnbr":"-9999","predir":null,"streetname":"ZZ","streettype":null,"suffdir":null,"city":"ROSEDALE","state_code":"MS","zip5":"-9999","latitude":"33.8471130000000000","longitude":"-91.026420000000000","publicwifi":"U","url":null,"broadband_type_id":6}
{"id":null,"anchorname":"MOUND BAYOU PUBLIC LIBRARY","address":", , MS 38762","bldgnbr":"N/A","predir":null,"streetname":"N/A","streettype":null,"suffdir":null,"city":"N/A","state_code":"MS","zip5":"38762","latitude":"33.8860200000000000","longitude":"-90.767630000000000","publicwifi":"U","url":null,"broadband_type_id":6}
{"id":null,"anchorname":"MAGEE VFD","address":"301  MAIN AVE N, MAGEE, MS 38762","bldgnbr":"301","predir":null,"streetname":"MAIN","streettype":"AVE","suffdir":"N","city":"MAGEE","state_code":"MS","zip5":"38762","latitude":"33.8814479090000000","longitude":"-90.728995461000000","publicwifi":"U","url":null,"broadband_type_id":5}
{"id":null,"anchorname":"LEAKESVILLE POLICE DEPARTMENT","address":"301  LAFAYETTE AVE, LEAKESVILLE, MS 38762","bldgnbr":"301","predir":null,"streetname":"LAFAYETTE","streettype":"AVE","suffdir":null,"city":"LEAKESVILLE","state_code":"MS","zip5":"38762","latitude":"33.8808332000000000","longitude":"-90.731200041000000","publicwifi":"U","url":null,"broadband_type_id":4}
{"id":null,"anchorname":"JOHN F KENNEDY MEMORIAL HI SCHOOL","address":"ZZ","bldgnbr":"-9999","predir":null,"streetname":"ZZ","streettype":null,"suffdir":null,"city":"MOUND BAYOU","state_code":"MS","zip5":"-9999","latitude":"33.8791540000000000","longitude":"-90.725572000000000","publicwifi":"U","url":null,"broadband_type_id":6}
{"id":null,"anchorname":"I T MONTGOMERY ELEMENTARY SCHOOL","address":"ZZ","bldgnbr":"-9999","predir":null,"streetname":"ZZ","streettype":null,"suffdir":null,"city":"MOUND BAYOU","state_code":"MS","zip5":"-9999","latitude":"33.8792180000000000","longitude":"-90.726347000000000","publicwifi":"U","url":null,"broadband_type_id":6}
{"id":null,"anchorname":"RAYNER PUBLIC LIBRARY","address":"0 MAIN ST, MERIGOLD, MS 38762","bldgnbr":"0","predir":null,"streetname":"MAIN","streettype":"ST","suffdir":null,"city":"MERIGOLD","state_code":"MS","zip5":"38762","latitude":"33.8397710230000000","longitude":"-90.727160229000000","publicwifi":"U","url":null,"broadband_type_id":6}
{"id":null,"anchorname":"BENOIT PUBLIC LIBRARY","address":"1992 HWY 1, BENOIT, MS 38725","bldgnbr":"1992","predir":null,"streetname":"1","streettype":null,"suffdir":null,"city":"BENOIT","state_code":"MS","zip5":"38725","latitude":"33.6268745240000000","longitude":"-91.051914965000000","publicwifi":"U","url":null,"broadband_type_id":6}
{"id":null,"anchorname":"LELAND VFD","address":"104 SE DEER CREEK DR, LELAND, MS 38725","bldgnbr":"104","predir":"SE","streetname":"DEER CREEK","streettype":"DR","suffdir":null,"city":"LELAND","state_code":"MS","zip5":"38725","latitude":"33.5947240270000000","longitude":"-91.076308447000000","publicwifi":"U","url":null,"broadband_type_id":5}
{"id":null,"anchorname":"RAY BROOKS SCHOOL","address":"ZZ","bldgnbr":"-9999","predir":null,"streetname":"ZZ","streettype":null,"suffdir":null,"city":"BENOIT","state_code":"MS","zip5":"-9999","latitude":"33.5931020000000000","longitude":"-91.075549000000000","publicwifi":"U","url":null,"broadband_type_id":6}
{"id":null,"anchorname":"FIELD MEMORIAL LIBRARY","address":"132 E PEELER ST, SHAW, MS 38773","bldgnbr":"132","predir":"E","streetname":"PEELER","streettype":"ST","suffdir":null,"city":"SHAW","state_code":"MS","zip5":"38773","latitude":"33.6032172340000000","longitude":"-90.774505815000000","publicwifi":"U","url":null,"broadband_type_id":6}
{"id":null,"anchorname":"SHAW HIGH SCHOOL","address":"ZZ","bldgnbr":"-9999","predir":null,"streetname":"ZZ","streettype":null,"suffdir":null,"city":"SHAW","state_code":"MS","zip5":"-9999","latitude":"33.5990320000000000","longitude":"-90.771067000000000","publicwifi":"U","url":null,"broadband_type_id":6}
{"id":null,"anchorname":"MCEVANS SCHOOL","address":"1323 HWY 61, SHAW, MS 38773","bldgnbr":"1323","predir":null,"streetname":"61","streettype":null,"suffdir":null,"city":"SHAW","state_code":"MS","zip5":"38773","latitude":"33.5622830000000000","longitude":"-90.795315000000000","publicwifi":"U","url":null,"broadband_type_id":6}
{"id":null,"anchorname":"B \u0026 E PLUMBING \u0026 FIRE PROTECTION","address":"352 N ILLINOIS CENTRAL AVE, BOYLE, MS 38730","bldgnbr":"352","predir":"N","streetname":"ILLINOIS CENTRAL","streettype":"AVE","suffdir":null,"city":"BOYLE","state_code":"MS","zip5":"38730","latitude":"33.7013918910000000","longitude":"-90.727087701000000","publicwifi":"U","url":null,"broadband_type_id":5}
{"id":null,"anchorname":"BELL ELEMENTARY SCHOOL","address":", , MS 38730","bldgnbr":"N/A","predir":null,"streetname":"N/A","streettype":null,"suffdir":null,"city":"BOYLE","state_code":"MS","zip5":"38730","latitude":"33.7004630000000000","longitude":"-90.725814000000000","publicwifi":"U","url":null,"broadband_type_id":6}
{"id":null,"anchorname":"MARGARET GREEN JUNIOR HIGH SCHOOL","address":"ZZ","bldgnbr":"-9999","predir":null,"streetname":"ZZ","streettype":null,"suffdir":null,"city":"CLEVELAND","state_code":"MS","zip5":"-9999","latitude":"33.7490960000000000","longitude":"-90.726666000000000","publicwifi":"U","url":null,"broadband_type_id":6}
{"id":null,"anchorname":"PEARMAN ELEMENTARY SCHOOL","address":"500 FAYETTE DAVIS AV, CLEVELAND, MS 38732","bldgnbr":"500","predir":null,"streetname":"FAYETTE DAVIS","streettype":"AVE","suffdir":null,"city":"CLEVELAND","state_code":"MS","zip5":"38732","latitude":"33.7520380000000000","longitude":"-90.726799000000000","publicwifi":"U","url":null,"broadband_type_id":6}
{"id":null,"anchorname":"CLEVELAND HIGH SCHOOL","address":"ZZ","bldgnbr":"-9999","predir":null,"streetname":"ZZ","streettype":null,"suffdir":null,"city":"CLEVELAND","state_code":"MS","zip5":"-9999","latitude":"33.7486900000000000","longitude":"-90.725414000000000","publicwifi":"U","url":null,"broadband_type_id":6}
{"id":null,"anchorname":"Mid-City Branch","address":"330 N. Carrollton Ave.","bldgnbr":"330","predir":"N","streetname":"CARROLLTON","streettype":null,"suffdir":null,"city":"New Orleans","state_code":"LA","zip5":"70119","latitude":"29.9761910000000000","longitude":"-90.098274000000000","publicwifi":"U","url":null,"broadband_type_id":1}
{"id":null,"anchorname":"DEPARTMENT OF HUMAN SERVICES - MDHS  CLERVELAND  DYS","address":"204 N PEARMAN AV, CLEVELAND, MS 38732","bldgnbr":"204","predir":"N","streetname":"PEARMAN","streettype":"AVE","suffdir":null,"city":"CLEVELAND","state_code":"MS","zip5":"38732","latitude":"33.7453076460000000","longitude":"-90.723817901000000","publicwifi":"U","url":null,"broadband_type_id":6}
{"id":null,"anchorname":"DEPARTMENT OF HUMAN SERVICES - MDHS CLEVELAND  EA","address":"212 N PEARMAN AV, CLEVELAND, MS 38732","bldgnbr":"212","predir":"N","streetname":"PEARMAN","streettype":"AVE","suffdir":null,"city":"CLEVELAND","state_code":"MS","zip5":"38732","latitude":"33.7453353540000000","longitude":"-90.723821965000000","publicwifi":"U","url":null,"broadband_type_id":6}
{"id":null,"anchorname":"DEPARTMENT OF HUMAN SERVICES - MDHS CLEVELAND DFCS","address":"208 N PEARMAN AV, CLEVELAND, MS 38732","bldgnbr":"208","predir":"N","streetname":"PEARMAN","streettype":"AVE","suffdir":null,"city":"CLEVELAND","state_code":"MS","zip5":"38732","latitude":"33.7453215000000000","longitude":"-90.723819932000000","publicwifi":"U","url":null,"broadband_type_id":6}
{"id":null,"anchorname":"DEPARTMENT OF TRANSPORTATION-WAN - MDOT  CLEVELAND","address":"932 N SHARPE AV, CLEVELAND, MS 38732","bldgnbr":"932","predir":"N","streetname":"SHARPE","streettype":"AVE","suffdir":null,"city":"CLEVELAND","state_code":"MS","zip5":"38732","latitude":"33.7600234700000000","longitude":"-90.720671273000000","publicwifi":"U","url":null,"broadband_type_id":null}
{"id":null,"anchorname":"DRS - DRS CLEVELAND","address":"504 N CHRISMAN AV, CLEVELAND, MS 38732","bldgnbr":"504","predir":"N","streetname":"CHRISMAN","streettype":"AVE","suffdir":null,"city":"CLEVELAND","state_code":"MS","zip5":"38732","latitude":"33.7503840170000000","longitude":"-90.718193382000000","publicwifi":"U","url":null,"broadband_type_id":null}
{"id":null,"anchorname":"DEPARTMENT OF HUMAN SERVICES - MDHS CLEVELAND  CSE","address":"606 N MARTIN LUTHER KING JR DR, CLEVELAND, MS 38732","bldgnbr":"606","predir":"N","streetname":"MARTIN LUTHER KING JR","streettype":"DR","suffdir":null,"city":"CLEVELAND","state_code":"MS","zip5":"38732","latitude":"33.7515608600000000","longitude":"-90.710671195000000","publicwifi":"U","url":null,"broadband_type_id":6}
{"id":null,"anchorname":"DEPARTMENT OF PUBLIC SAFETY - DL STATION - CLEVELAND","address":"406 N MARTIN LUTHER KING JR DR, CLEVELAND, MS 38732","bldgnbr":"406","predir":"N","streetname":"MARTIN LUTHER KING JR","streettype":"DR","suffdir":null,"city":"CLEVELAND","state_code":"MS","zip5":"38732","latitude":"33.7489123990000000","longitude":"-90.710777124000000","publicwifi":"U","url":null,"broadband_type_id":4}
{"id":null,"anchorname":"DIVISION OF MEDICAID - DIVISION OF MEDICAID - CLEVELAND","address":"201 E SUNFLOWER RD, CLEVELAND, MS 38732","bldgnbr":"201","predir":"E","streetname":"SUNFLOWER","streettype":"RD","suffdir":null,"city":"CLEVELAND","state_code":"MS","zip5":"38732","latitude":"33.7474797000000000","longitude":"-90.707081400000000","publicwifi":"U","url":null,"broadband_type_id":6}
{"id":null,"anchorname":"MS EMPLOYMENT SECURITY COMMISSION - MDES-CLEVELAND","address":"119 COMMERCE AV, CLEVELAND, MS 38732","bldgnbr":"119","predir":null,"streetname":"COMMERCE","streettype":"AVE","suffdir":null,"city":"CLEVELAND","state_code":"MS","zip5":"38732","latitude":"33.7451214430000000","longitude":"-90.720327836000000","publicwifi":"U","url":null,"broadband_type_id":6}
{"id":null,"anchorname":"BOLIVAR COUNTY PROBATION AND PAROLE","address":"112 NORTH ST, CLEVELAND, MS 38732","bldgnbr":"112","predir":null,"streetname":"NORTH","streettype":"ST","suffdir":null,"city":"CLEVELAND","state_code":"MS","zip5":"38732","latitude":"33.7450548230000000","longitude":"-90.722149492000000","publicwifi":"U","url":null,"broadband_type_id":1}
{"id":null,"anchorname":"DEPARTMENT OF PUBLIC SAFETY - CLEVELAND PD REGION 2","address":"301 S SHARPE AV, CLEVELAND, MS 38732","bldgnbr":"301","predir":"S","streetname":"SHARPE","streettype":"AVE","suffdir":null,"city":"CLEVELAND","state_code":"MS","zip5":"38732","latitude":"33.7428404740000000","longitude":"-90.721898262000000","publicwifi":"U","url":null,"broadband_type_id":4}
{"id":null,"anchorname":"D. M. SMITH MIDDLE","address":"715 S DR MARTIN LUTHER KING JR DR, CLEVELAND, MS 38732","bldgnbr":"715","predir":"S","streetname":"DR MARTIN LUTHER KING JR","streettype":"DR","suffdir":null,"city":"CLEVELAND","state_code":"MS","zip5":"38732","latitude":"33.7395950000000000","longitude":"-90.708961000000000","publicwifi":"U","url":null,"broadband_type_id":6}
{"id":null,"anchorname":"NORTH MISSISSIPPI REGIONAL CENTER - NMRC BRUCE","address":"624 N MCSWEYN PLACE, BRUCE, MS 38915","bldgnbr":"624","predir":"N","streetname":"MCSWEYN","streettype":"PL","suffdir":null,"city":"BRUCE","state_code":"MS","zip5":"38915","latitude":"34.0024738750000000","longitude":"-89.340045324000000","publicwifi":"U","url":null,"broadband_type_id":6}
{"id":null,"anchorname":"STATE TAX COMMISSION-TITLE NETWORK-TAX ACCESSORS - TTN PITTSBORO","address":"106 W MAIN ST, PITTSBORO, MS 38951","bldgnbr":"106","predir":"W","streetname":"MAIN","streettype":"ST","suffdir":null,"city":"PITTSBORO","state_code":"MS","zip5":"38951","latitude":"33.9399267000000000","longitude":"-89.340068600000000","publicwifi":"U","url":null,"broadband_type_id":6}
{"id":null,"anchorname":"DEPARTMENT OF PUBLIC SAFETY - CALHOUN CO. SO. REGION 5","address":"178 S MURPHREE ST, PITTSBORO, MS 38951","bldgnbr":"178","predir":"S","streetname":"MURPHREE","streettype":"ST","suffdir":null,"city":"PITTSBORO","state_code":"MS","zip5":"38951","latitude":"33.9438164940000000","longitude":"-89.342442775000000","publicwifi":"U","url":null,"broadband_type_id":4}
{"id":null,"anchorname":"CALHOUN COUNTY PROBATION AND PAROLE","address":"111 E. MAIN ST, PITTSBORO, MS 38951","bldgnbr":"111","predir":"E","streetname":"MAIN","streettype":"ST","suffdir":null,"city":"PITTSBORO","state_code":"MS","zip5":"38951","latitude":"33.9401550390000000","longitude":"-89.333710267000000","publicwifi":"U","url":null,"broadband_type_id":1}
{"id":null,"anchorname":"CLEVELAND DEPOT LIBRARY","address":"101 N LEFLORE AVE, CLEVELAND, MS 38732-3275","bldgnbr":"101","predir":"N","streetname":"LEFLORE","streettype":"AVE","suffdir":null,"city":"CLEVELAND","state_code":"MS","zip5":"38732","latitude":"33.7441164820000000","longitude":"-90.726357917000000","publicwifi":"U","url":null,"broadband_type_id":6}
{"id":null,"anchorname":"HQ-ROBINSON-CARPENTER LIBRARY","address":"104 S LEFLORE AV, CLEVELAND, MS 38732","bldgnbr":"104","predir":"S","streetname":"LEFLORE","streettype":"AVE","suffdir":null,"city":"CLEVELAND","state_code":"MS","zip5":"38732","latitude":"33.7440175410000000","longitude":"-90.726349593000000","publicwifi":"U","url":null,"broadband_type_id":6}
{"id":null,"anchorname":"CLEVELAND VOLUNTEER FIRE DEPARTMENT","address":"103 S PEARMAN AVE, CLEVELAND, MS 38732","bldgnbr":"103","predir":"S","streetname":"PEARMAN","streettype":"AVE","suffdir":null,"city":"CLEVELAND","state_code":"MS","zip5":"38732","latitude":"33.7441052910000000","longitude":"-90.723780899000000","publicwifi":"U","url":null,"broadband_type_id":5}
{"id":null,"anchorname":"MISSISSIPPI STATE HOSPITAL - MSH - CLEVELAND","address":"714 THIRD ST, CLEVELAND, MS 38732","bldgnbr":"714","predir":null,"streetname":"3RD","streettype":"ST","suffdir":null,"city":"CLEVELAND","state_code":"MS","zip5":"38732","latitude":"33.7513890140000000","longitude":"-90.710387759000000","publicwifi":"U","url":null,"broadband_type_id":3}
{"id":null,"anchorname":"STATE BOARD OF HEALTH - DEPARTMENT OF HEALTH - CLEVELAND","address":"711 THIRD ST, CLEVELAND, MS 38732","bldgnbr":"711","predir":null,"streetname":"3RD","streettype":"ST","suffdir":null,"city":"CLEVELAND","state_code":"MS","zip5":"38732","latitude":"33.7514878030000000","longitude":"-90.710258928000000","publicwifi":"U","url":null,"broadband_type_id":3}
{"id":null,"anchorname":"BOLIVAR MEDICAL CENTER LTC FACILITY","address":"901 E SUNFLOWER RD, CLEVELAND, MS 38732","bldgnbr":"901","predir":"E","streetname":"SUNFLOWER","streettype":"RD","suffdir":null,"city":"CLEVELAND","state_code":"MS","zip5":"38732","latitude":"33.7475419420000000","longitude":"-90.709260693000000","publicwifi":"U","url":null,"broadband_type_id":3}
{"id":null,"anchorname":"Delta State University","address":"Hwy 8 West,  Cleveland, MS 38733","bldgnbr":"N/A","predir":null,"streetname":"N/A","streettype":null,"suffdir":null,"city":"Cleveland","state_code":"MS","zip5":"38733","latitude":"33.7477258750000000","longitude":"-90.721510440000000","publicwifi":"U","url":"www.deltastate.edu","broadband_type_id":6}
{"id":null,"anchorname":"EAST SIDE HIGH SCHOOL","address":"ZZ","bldgnbr":"-9999","predir":null,"streetname":"ZZ","streettype":null,"suffdir":null,"city":"CLEVELAND","state_code":"MS","zip5":"-9999","latitude":"33.7390920000000000","longitude":"-90.712506000000000","publicwifi":"U","url":null,"broadband_type_id":6}
{"id":null,"anchorname":"CYPRESS PARK ELEMENTARY SCHOOL","address":"ZZ","bldgnbr":"-9999","predir":null,"streetname":"ZZ","streettype":null,"suffdir":null,"city":"CLEVELAND","state_code":"MS","zip5":"-9999","latitude":"33.7385630000000000","longitude":"-90.709060000000000","publicwifi":"U","url":null,"broadband_type_id":6}
{"id":null,"anchorname":"CLEVELAND POLICE DEPARTMENT","address":"301 S SHARPE AVE, CLEVELAND, MS 38732","bldgnbr":"301","predir":"S","streetname":"SHARPE","streettype":"AVE","suffdir":null,"city":"CLEVELAND","state_code":"MS","zip5":"38732","latitude":"33.7427986570000000","longitude":"-90.721880424000000","publicwifi":"U","url":null,"broadband_type_id":4}
{"id":null,"anchorname":"NAILOR ELEMENTARY SCHOOL","address":"ZZ","bldgnbr":"-9999","predir":null,"streetname":"ZZ","streettype":null,"suffdir":null,"city":"CLEVELAND","state_code":"MS","zip5":"-9999","latitude":"33.7369670000000000","longitude":"-90.717819000000000","publicwifi":"U","url":null,"broadband_type_id":6}
{"id":null,"anchorname":"BANNER VFD","address":"416  BRUCE W, BRUCE, MS 38915","bldgnbr":"416","predir":null,"streetname":"BRUCE","streettype":null,"suffdir":"W","city":"BRUCE","state_code":"MS","zip5":"38915","latitude":"34.0747402100000000","longitude":"-89.384725320000000","publicwifi":"U","url":null,"broadband_type_id":5}
{"id":null,"anchorname":"BRUCE HIGH SCHOOL","address":"420 E COUNTISS ST, BRUCE, MS 38915","bldgnbr":"420","predir":"E","streetname":"COUNTISS","streettype":"ST","suffdir":null,"city":"BRUCE","state_code":"MS","zip5":"38915","latitude":"33.9932170000000000","longitude":"-89.337922000000000","publicwifi":"U","url":null,"broadband_type_id":6}
{"id":null,"anchorname":"BRUCE UPPER ELEMENTARY SCHOOL","address":"ZZ","bldgnbr":"-9999","predir":null,"streetname":"ZZ","streettype":null,"suffdir":null,"city":"BRUCE","state_code":"MS","zip5":"-9999","latitude":"33.9931420000000000","longitude":"-89.339389000000000","publicwifi":"U","url":null,"broadband_type_id":6}
{"id":null,"anchorname":"JESSE YANCY LIBRARY - BRUCE","address":"314 N NEWBERGER AV, BRUCE, MS 38915","bldgnbr":"314","predir":"N","streetname":"NEWBERGER","streettype":"AVE","suffdir":null,"city":"BRUCE","state_code":"MS","zip5":"38915","latitude":"33.9937177220000000","longitude":"-89.347047168000000","publicwifi":"U","url":null,"broadband_type_id":6}
{"id":null,"anchorname":"CALHOUN COUNTY SHERIFF'S OFFICE","address":"178 S MURPHREE ST, PITTSBORO, MS 38951","bldgnbr":"178","predir":"S","streetname":"MURPHREE","streettype":"ST","suffdir":null,"city":"PITTSBORO","state_code":"MS","zip5":"38951","latitude":"33.9436351900000000","longitude":"-89.342189223000000","publicwifi":"U","url":null,"broadband_type_id":4}
{"id":null,"anchorname":"STATE BOARD OF HEALTH - DEPARTMENT OF HEALTH - WIC CALHOUN CITY","address":"107 E MAIN ST, PITTSBORO, MS 38951","bldgnbr":"107","predir":"E","streetname":"MAIN","streettype":"ST","suffdir":null,"city":"PITTSBORO","state_code":"MS","zip5":"38951","latitude":"33.9401525270000000","longitude":"-89.333623846000000","publicwifi":"U","url":null,"broadband_type_id":3}
{"id":null,"anchorname":"STATE BOARD OF HEALTH - DEPARTMENT OF HEALTH - PITTSBORO","address":"235 S MURPHREE ST, PITTSBORO, MS 38951","bldgnbr":"235","predir":"S","streetname":"MURPHREE","streettype":"ST","suffdir":null,"city":"PITTSBORO","state_code":"MS","zip5":"38951","latitude":"33.9350947000000000","longitude":"-89.335757500000000","publicwifi":"U","url":null,"broadband_type_id":3}
{"id":null,"anchorname":"DEPARTMENT OF TRANSPORTATION-WAN - MDOT  PITTSBORO","address":"132 SHANNON ST, PITTSBORO, MS 38951","bldgnbr":"132","predir":null,"streetname":"SHANNON","streettype":"ST","suffdir":null,"city":"PITTSBORO","state_code":"MS","zip5":"38951","latitude":"33.9357504180000000","longitude":"-89.337725965000000","publicwifi":"U","url":null,"broadband_type_id":null}
{"id":null,"anchorname":"Mary Bethune Elementary Literature/Technology","address":"4040 Eagle Street","bldgnbr":"4040","predir":null,"streetname":"EAGLE","streettype":null,"suffdir":null,"city":"New Orleans","state_code":"LA","zip5":"70118","latitude":"29.9726072460000000","longitude":"-90.114040364000000","publicwifi":"U","url":null,"broadband_type_id":6}
{"id":null,"anchorname":"Jewish Community Center","address":"5342 St. Charles Avenue","bldgnbr":"5342","predir":null,"streetname":"SAINT CHARLES","streettype":null,"suffdir":null,"city":"New Orleans","state_code":"LA","zip5":"70115","latitude":"29.9281010000000000","longitude":"-90.112297000000000","publicwifi":"U","url":null,"broadband_type_id":6}
{"id":null,"anchorname":"Abeona House Child Discovery Center","address":"8630 Oak Street","bldgnbr":"8630","predir":null,"streetname":"OAK","streettype":null,"suffdir":null,"city":"New Orleans","state_code":"LA","zip5":"70118","latitude":"29.9508990000000000","longitude":"-90.134300000000000","publicwifi":"U","url":null,"broadband_type_id":6}
{"id":null,"anchorname":"Cathedral Academy (St. Louis Cathedral)(C)","address":"820 Dauphine Street","bldgnbr":"820","predir":null,"streetname":"DAUPHINE","streettype":null,"suffdir":null,"city":"New Orleans","state_code":"LA","zip5":"70116","latitude":"29.9601990000000000","longitude":"-90.065498000000000","publicwifi":"U","url":null,"broadband_type_id":6}
{"id":null,"anchorname":"MS EMPLOYMENT SECURITY COMMISSION - MDES-HOUSTON","address":"665 N JEFFERSON ST, HOUSTON, MS 38851","bldgnbr":"665","predir":"N","streetname":"JEFFERSON","streettype":"ST","suffdir":null,"city":"HOUSTON","state_code":"MS","zip5":"38851","latitude":"33.9067672950000000","longitude":"-88.999461411000000","publicwifi":"U","url":null,"broadband_type_id":6}
{"id":null,"anchorname":"HOUSTON UPPER ELEMENTARY","address":"507 PITTSBORO ST, HOUSTON, MS 38851","bldgnbr":"507","predir":null,"streetname":"PITTSBORO","streettype":"ST","suffdir":null,"city":"HOUSTON","state_code":"MS","zip5":"38851","latitude":"33.9008660000000000","longitude":"-89.010340000000000","publicwifi":"U","url":null,"broadband_type_id":6}
{"id":null,"anchorname":"HOUSTON LOWER ELEMENTARY","address":"123 S STARKVILLE ST, HOUSTON, MS 38851","bldgnbr":"123","predir":"S","streetname":"STARKVILLE","streettype":"ST","suffdir":null,"city":"HOUSTON","state_code":"MS","zip5":"38851","latitude":"33.8955910000000000","longitude":"-88.996057000000000","publicwifi":"U","url":null,"broadband_type_id":6}
{"id":null,"anchorname":"DEPARTMENT OF HUMAN SERVICES - MDHS OKOLONA EA CSE FCS","address":"751 W CHURCH ST, HOUSTON, MS 38851","bldgnbr":"751","predir":"W","streetname":"CHURCH","streettype":"ST","suffdir":null,"city":"HOUSTON","state_code":"MS","zip5":"38851","latitude":"33.8949076850000000","longitude":"-89.009901930000000","publicwifi":"U","url":null,"broadband_type_id":6}
{"id":null,"anchorname":"OKOLONA VOC COMPLEX","address":"ZZ","bldgnbr":"-9999","predir":null,"streetname":"ZZ","streettype":null,"suffdir":null,"city":"OKOLONA","state_code":"MS","zip5":"-9999","latitude":"34.0151120000000000","longitude":"-88.756483000000000","publicwifi":"U","url":null,"broadband_type_id":null}
{"id":null,"anchorname":"HOULKA ATTENDANCE CENTER","address":"ZZ","bldgnbr":"-9999","predir":null,"streetname":"ZZ","streettype":null,"suffdir":null,"city":"HOULKA","state_code":"MS","zip5":"-9999","latitude":"34.0362940000000000","longitude":"-89.014124000000000","publicwifi":"U","url":null,"broadband_type_id":null}
{"id":null,"anchorname":"DEPARTMENT OF TRANSPORTATION-WAN - MDOT HOUSTON","address":"711 W MADISON ST, HOUSTON, MS 38851","bldgnbr":"711","predir":"W","streetname":"MADISON","streettype":"ST","suffdir":null,"city":"HOUSTON","state_code":"MS","zip5":"38851","latitude":"33.8952261150000000","longitude":"-89.018460670000000","publicwifi":"U","url":null,"broadband_type_id":null}
{"id":null,"anchorname":"HOUSTON VOC CENTER","address":"ZZ","bldgnbr":"-9999","predir":null,"streetname":"ZZ","streettype":null,"suffdir":null,"city":"HOUSTON","state_code":"MS","zip5":"-9999","latitude":"33.8876300000000000","longitude":"-88.993570000000000","publicwifi":"U","url":null,"broadband_type_id":null}
{"id":null,"anchorname":"EDMONDSON LIBRARY - VARDAMAN","address":"109 STOVALL ST, VARDAMAN, MS 38878","bldgnbr":"109","predir":null,"streetname":"STOVALL","streettype":"ST","suffdir":null,"city":"VARDAMAN","state_code":"MS","zip5":"38878","latitude":"33.8775032570000000","longitude":"-89.173360538000000","publicwifi":"U","url":null,"broadband_type_id":6}
{"id":null,"anchorname":"VARDAMAN ELEMENTARY SCHOOL","address":"ZZ","bldgnbr":"-9999","predir":null,"streetname":"ZZ","streettype":null,"suffdir":null,"city":"VARDAMAN","state_code":"MS","zip5":"-9999","latitude":"33.8771620000000000","longitude":"-89.171806000000000","publicwifi":"U","url":null,"broadband_type_id":6}
{"id":null,"anchorname":"CALHOUN CITY ELEMENTARY SCHOOL","address":", , MS 38916","bldgnbr":"N/A","predir":null,"streetname":"N/A","streettype":null,"suffdir":null,"city":"CALHOUN CITY","state_code":"MS","zip5":"38916","latitude":"33.8593940000000000","longitude":"-89.306013000000000","publicwifi":"U","url":null,"broadband_type_id":6}
{"id":null,"anchorname":"CALHOUN CITY LIBRARY","address":"113 E BURKITT ST, CALHOUN CITY, MS 38916-0","bldgnbr":"113","predir":"E","streetname":"BURKITT","streettype":"ST","suffdir":null,"city":"CALHOUN CITY","state_code":"MS","zip5":"38916","latitude":"33.8574291560000000","longitude":"-89.311107342000000","publicwifi":"U","url":null,"broadband_type_id":6}
{"id":null,"anchorname":"CALHOUN CITY HIGH SCHOOL","address":"201 N BEADLE ST, CALHOUN, MS 38916","bldgnbr":"201","predir":"N","streetname":"BEADLE","streettype":"ST","suffdir":null,"city":"CALHOUN CITY","state_code":"MS","zip5":"38916","latitude":"33.8568910000000000","longitude":"-89.315490000000000","publicwifi":"U","url":null,"broadband_type_id":6}
{"id":null,"anchorname":"CALHOUN CITY MIDDLE SCHOOL","address":"ZZ","bldgnbr":"-9999","predir":null,"streetname":"ZZ","streettype":null,"suffdir":null,"city":"CALHOUN CITY","state_code":"MS","zip5":"-9999","latitude":"33.8552850000000000","longitude":"-89.314056000000000","publicwifi":"U","url":null,"broadband_type_id":6}
{"id":null,"anchorname":"J Z GEORGE HIGH SCHOOL","address":"900 GEORGE ST, N CARROLLTON, MS 38917","bldgnbr":"900","predir":null,"streetname":"GEORGE","streettype":"ST","suffdir":null,"city":"NORTH CARROLLTON","state_code":"MS","zip5":"38917","latitude":"33.5205560000000000","longitude":"-89.920705000000000","publicwifi":"U","url":null,"broadband_type_id":6}
{"id":null,"anchorname":"GEORGE MIDDLE SCHOOL","address":"ZZ","bldgnbr":"-9999","predir":null,"streetname":"ZZ","streettype":null,"suffdir":null,"city":"NORTH CARROLLTON","state_code":"MS","zip5":"-9999","latitude":"33.5191910000000000","longitude":"-89.920089000000000","publicwifi":"U","url":null,"broadband_type_id":6}
{"id":null,"anchorname":"NORTH CARROLLTON LIBRARY","address":"1102 LEXINGTON ST, CARROLLTON, MS 38917","bldgnbr":"1102","predir":null,"streetname":"LEXINGTON","streettype":"ST","suffdir":null,"city":"CARROLLTON","state_code":"MS","zip5":"38917","latitude":"33.5099712000000000","longitude":"-89.919569400000000","publicwifi":"U","url":null,"broadband_type_id":6}
{"id":null,"anchorname":"VAIDEN PUBLIC LIBRARY","address":"508 LEE ST, VAIDEN, MS 39176-0","bldgnbr":"508","predir":null,"streetname":"LEE","streettype":"ST","suffdir":null,"city":"VAIDEN","state_code":"MS","zip5":"39176","latitude":"33.3351147160000000","longitude":"-89.742478571000000","publicwifi":"U","url":null,"broadband_type_id":6}
{"id":null,"anchorname":"SHEARER RICHARDSON MEMORIAL NURSING HOME","address":"512  ROCKWELL DR, OKOLONA, MS 38860","bldgnbr":"512","predir":null,"streetname":"ROCKWELL","streettype":"DR","suffdir":null,"city":"OKOLONA","state_code":"MS","zip5":"38860","latitude":"34.0028514480000000","longitude":"-88.755650147000000","publicwifi":"U","url":null,"broadband_type_id":3}
{"id":null,"anchorname":"OKOLONA HIGH SCHOOL","address":"ZZ","bldgnbr":"-9999","predir":null,"streetname":"ZZ","streettype":null,"suffdir":null,"city":"OKOLONA","state_code":"MS","zip5":"-9999","latitude":"34.0131510000000000","longitude":"-88.753244000000000","publicwifi":"U","url":null,"broadband_type_id":6}
{"id":null,"anchorname":"OKOLONA ELEMENTARY SCHOOL","address":"ZZ","bldgnbr":"-9999","predir":null,"streetname":"ZZ","streettype":null,"suffdir":null,"city":"OKOLONA","state_code":"MS","zip5":"-9999","latitude":"34.0037670000000000","longitude":"-88.754837000000000","publicwifi":"U","url":null,"broadband_type_id":6}
{"id":null,"anchorname":"OKALONA CARNEGIE LIBRARY","address":"321 W MAIN ST, OKOLONA, MS 38860","bldgnbr":"321","predir":"W","streetname":"MAIN","streettype":"ST","suffdir":null,"city":"OKOLONA","state_code":"MS","zip5":"38860","latitude":"34.0046396260000000","longitude":"-88.750152277000000","publicwifi":"U","url":null,"broadband_type_id":6}
{"id":null,"anchorname":"STATE BOARD OF HEALTH - DEPARTMENT OF HEALTH - OKOLONA","address":"323 W MAIN ST, OKOLONA, MS 38860","bldgnbr":"323","predir":"W","streetname":"MAIN","streettype":"ST","suffdir":null,"city":"OKOLONA","state_code":"MS","zip5":"38860","latitude":"34.0046991600000000","longitude":"-88.750609744000000","publicwifi":"U","url":null,"broadband_type_id":3}
{"id":null,"anchorname":"HOULKA PUBLIC LIBRARY","address":"113 3RD AV, HOULKA, MS 38850","bldgnbr":"113","predir":null,"streetname":"3RD","streettype":"AVE","suffdir":null,"city":"HOULKA","state_code":"MS","zip5":"38850","latitude":"34.0382117740000000","longitude":"-89.021598617000000","publicwifi":"U","url":null,"broadband_type_id":6}
{"id":null,"anchorname":"STATE BOARD OF HEALTH - DEPARTMENT OF HEALTH - HOUSTON","address":"332 N JEFFERSON ST, HOUSTON, MS 38851","bldgnbr":"332","predir":"N","streetname":"JEFFERSON","streettype":"ST","suffdir":null,"city":"HOUSTON","state_code":"MS","zip5":"38851","latitude":"33.8993634290000000","longitude":"-88.999014563000000","publicwifi":"U","url":null,"broadband_type_id":3}
{"id":null,"anchorname":"JEFFERSON COUNTY SHERIFF'S OFFICE","address":"279  FAYETTE, FAYETTE, MS 38851","bldgnbr":"279","predir":null,"streetname":"FAYETTE","streettype":null,"suffdir":null,"city":"FAYETTE","state_code":"MS","zip5":"38851","latitude":"33.9609540690000000","longitude":"-89.073776029000000","publicwifi":"U","url":null,"broadband_type_id":4}
{"id":null,"anchorname":"STATE BOARD OF HEALTH - DEPARTMENT OF HEALTH - WIC HOUSTON","address":"202 INDUSTRIAL DR, HOUSTON, MS 38851","bldgnbr":"202","predir":null,"streetname":"INDUSTRIAL","streettype":"DR","suffdir":null,"city":"HOUSTON","state_code":"MS","zip5":"38851","latitude":"33.9182100100000000","longitude":"-89.016912034000000","publicwifi":"U","url":null,"broadband_type_id":3}
