{"id":null,"anchorname":"ROSA C BENITEZ","address":"CALLE WINDSOR, 1RA SECCION URB. VILLA DEL REY CAGUAS PR 00725 , PR","bldgnbr":"N/A","predir":null,"streetname":"N/A","streettype":null,"suffdir":null,"city":"N/A","state_code":"PR","zip5":"N/A","latitude":"18.2135720000000000","longitude":"-66.044224000000000","publicwifi":"U","url":null,"broadband_type_id":null}
{"id":null,"anchorname":"JOHN F KENNEDY","address":"CALLE KINGSTON, 2DA. SECC. URB. VILLA DEL REY CAGUAS PR 00725 , PR","bldgnbr":"N/A","predir":null,"streetname":"N/A","streettype":null,"suffdir":null,"city":"N/A","state_code":"PR","zip5":"N/A","latitude":"18.2146200000000000","longitude":"-66.047043000000000","publicwifi":"U","url":null,"broadband_type_id":null}
{"id":null,"anchorname":"MYRNA M FUENTES","address":"CALLE 33 URB. BONNEVILLE CAGUAS PR 00725 , PR","bldgnbr":"N/A","predir":null,"streetname":"N/A","streettype":null,"suffdir":null,"city":"N/A","state_code":"PR","zip5":"N/A","latitude":"18.2295330000000000","longitude":"-66.047331000000000","publicwifi":"U","url":null,"broadband_type_id":6}
{"id":null,"anchorname":"HAYDEE CABALLERO","address":"CALLE 12 A URB. VILLA DEL REY CAGUAS PR 00725 , PR","bldgnbr":"N/A","predir":null,"streetname":"N/A","streettype":null,"suffdir":null,"city":"N/A","state_code":"PR","zip5":"N/A","latitude":"18.2148810000000000","longitude":"-66.053299000000000","publicwifi":"U","url":null,"broadband_type_id":null}
{"id":null,"anchorname":"CONCEPCION MENDEZ CANO","address":"CALLE 25 URB. TURABO GARDENS CAGUAS PR 00725 , PR","bldgnbr":"N/A","predir":null,"streetname":"N/A","streettype":null,"suffdir":null,"city":"N/A","state_code":"PR","zip5":"N/A","latitude":"18.2191460000000000","longitude":"-66.053837000000000","publicwifi":"U","url":null,"broadband_type_id":null}
{"id":null,"anchorname":"BUNKER","address":"CARR. 784, KM. 1, HM. 1 BO. CANABONCITO CAGUAS PR 00725 , PR","bldgnbr":"N/A","predir":null,"streetname":"N/A","streettype":null,"suffdir":null,"city":"N/A","state_code":"PR","zip5":"N/A","latitude":"18.2269010000000000","longitude":"-66.056080000000000","publicwifi":"U","url":null,"broadband_type_id":null}
{"id":null,"anchorname":"JARDINES DE CAGUAS","address":"CALLE 6 URB. JARDINES DE CAGUAS CAGUAS PR 00725 , PR","bldgnbr":"N/A","predir":null,"streetname":"N/A","streettype":null,"suffdir":null,"city":"N/A","state_code":"PR","zip5":"N/A","latitude":"18.2294670000000000","longitude":"-66.046030000000000","publicwifi":"U","url":null,"broadband_type_id":6}
{"id":null,"anchorname":"SALVADOR RODRIGUEZ","address":"CARR. 7754, KM. 4, HM. 4 BO. CANABONCITO ARRIBA CAGUAS PR 00725 , PR","bldgnbr":"N/A","predir":null,"streetname":"N/A","streettype":null,"suffdir":null,"city":"N/A","state_code":"PR","zip5":"N/A","latitude":"18.2009900000000000","longitude":"-66.081671000000000","publicwifi":"U","url":null,"broadband_type_id":null}
{"id":null,"anchorname":"RAMON SANTIAGO","address":"CARR. 785, KM. 3, HM. 8 BO. CANABONCITO CAGUAS PR 00703 , PR","bldgnbr":"N/A","predir":null,"streetname":"N/A","streettype":null,"suffdir":null,"city":"N/A","state_code":"PR","zip5":"N/A","latitude":"18.2264100000000000","longitude":"-66.090958000000000","publicwifi":"U","url":null,"broadband_type_id":null}
{"id":null,"anchorname":"CAPILLA SAN PATRICIO","address":"PR-785, CAGUAS, PR 00727 , PR","bldgnbr":"N/A","predir":null,"streetname":"N/A","streettype":null,"suffdir":null,"city":"N/A","state_code":"PR","zip5":"N/A","latitude":"18.2188020000000000","longitude":"-66.079498000000000","publicwifi":"U","url":null,"broadband_type_id":null}
{"id":null,"anchorname":"JUAN NAVARRO","address":"CARR. 172, KM. 6, SECTOR LA SIERRA, BO. CANABONCITO CAGUAS PR 00725 , PR","bldgnbr":"N/A","predir":null,"streetname":"N/A","streettype":null,"suffdir":null,"city":"N/A","state_code":"PR","zip5":"N/A","latitude":"18.2049960000000000","longitude":"-66.106532000000000","publicwifi":"U","url":null,"broadband_type_id":null}
{"id":null,"anchorname":"CAPILLA DE LA VIRGEN INMACULADA","address":"PR-172, CAGUAS, PR 00727 , PR","bldgnbr":"N/A","predir":null,"streetname":"N/A","streettype":null,"suffdir":null,"city":"N/A","state_code":"PR","zip5":"N/A","latitude":"18.1988050000000000","longitude":"-66.082549000000000","publicwifi":"U","url":null,"broadband_type_id":null}
{"id":null,"anchorname":"RAMON BRUGUERAS","address":"CALLE VIRTUD BDA. VILLA ESPERANZA CAGUAS PR 00725 , PR","bldgnbr":"N/A","predir":null,"streetname":"N/A","streettype":null,"suffdir":null,"city":"N/A","state_code":"PR","zip5":"N/A","latitude":"18.2066470000000000","longitude":"-66.049390000000000","publicwifi":"U","url":null,"broadband_type_id":null}
{"id":null,"anchorname":"MECH-TECH COLLEGE LLC","address":"NUM 39-40 B ST W INDUSTRIAL PK, CAGUAS, PUERTO RICO, 725 CAGUAS, PR 00725","bldgnbr":"39","predir":null,"streetname":"B ST W INDUSTRIAL PK","streettype":null,"suffdir":null,"city":"CAGUAS","state_code":"PR","zip5":"00725","latitude":"18.2191050000000000","longitude":"-66.031479000000000","publicwifi":"U","url":null,"broadband_type_id":6}
{"id":null,"anchorname":"CAGUAS, HOSPITAL SAN JUAN BAUTISTA - CENTRO MEDICAID","address":"EDIF. PLAZA GAUTIER BENÍTEZ LOCAL 4-B, CAGUAS, PR 00725, CARR. 172-, SALIDA HACIA CIDRA, PISO 1 , PR","bldgnbr":"N/A","predir":null,"streetname":"N/A","streettype":null,"suffdir":null,"city":"N/A","state_code":"PR","zip5":"N/A","latitude":"18.2202990000000000","longitude":"-66.050026000000000","publicwifi":"U","url":null,"broadband_type_id":3}
{"id":null,"anchorname":"TURABO COMMUNITY COLLEGE","address":"CARR. 172 KM. 6.1 BO. CANABONCITO CAGUAS PR 00725 , PR","bldgnbr":"N/A","predir":null,"streetname":"N/A","streettype":null,"suffdir":null,"city":"N/A","state_code":"PR","zip5":"N/A","latitude":"18.2110210000000000","longitude":"-66.069255000000000","publicwifi":"U","url":null,"broadband_type_id":6}
{"id":null,"anchorname":"GERARDO SELLES SOLA","address":"AVE. JOSE MERCADO URB. EL VERDE CAGUAS PR 00725 , PR","bldgnbr":"N/A","predir":null,"streetname":"N/A","streettype":null,"suffdir":null,"city":"N/A","state_code":"PR","zip5":"N/A","latitude":"18.2268390000000000","longitude":"-66.035748000000000","publicwifi":"U","url":null,"broadband_type_id":6}
{"id":null,"anchorname":"LUIS RAMOS GONZALEZ","address":"CALLE GAUTIER BENITEZ CAGUAS PR 00725 , PR","bldgnbr":"N/A","predir":null,"streetname":"N/A","streettype":null,"suffdir":null,"city":"N/A","state_code":"PR","zip5":"N/A","latitude":"18.2271340000000000","longitude":"-66.036637000000000","publicwifi":"U","url":null,"broadband_type_id":6}
{"id":null,"anchorname":"BIBLIOTECA ELECTRONICA - JARDINES DE SAN CARLOS","address":"CARR. #1, KM. 378, AVE. GAUTIER BENITEZ, CAGUAS , PR","bldgnbr":"N/A","predir":null,"streetname":"N/A","streettype":null,"suffdir":null,"city":"N/A","state_code":"PR","zip5":"N/A","latitude":"18.2102810000000000","longitude":"-66.045780000000000","publicwifi":"U","url":null,"broadband_type_id":6}
{"id":null,"anchorname":"CHARLES E MINER","address":"CALLE 25 URB. VILLA NUEVA CAGUAS PR 00725 , PR","bldgnbr":"N/A","predir":null,"streetname":"N/A","streettype":null,"suffdir":null,"city":"N/A","state_code":"PR","zip5":"N/A","latitude":"18.2085260000000000","longitude":"-66.055721000000000","publicwifi":"U","url":null,"broadband_type_id":6}
{"id":null,"anchorname":"ANDRES GONZALEZ","address":"CARR. 784, KM. 4, HM. 0 BO. CANABONCITO CAGUAS PR 00725 , PR","bldgnbr":"N/A","predir":null,"streetname":"N/A","streettype":null,"suffdir":null,"city":"N/A","state_code":"PR","zip5":"N/A","latitude":"18.2116330000000000","longitude":"-66.077274000000000","publicwifi":"U","url":null,"broadband_type_id":6}
{"id":null,"anchorname":"BAYAMON ( BRISAS DEL MONTE )","address":"CIDRA MUNICIPIO, CANABONCITO/BAYAMON BARRIO, PR , PR","bldgnbr":"N/A","predir":null,"streetname":"N/A","streettype":null,"suffdir":null,"city":"N/A","state_code":"PR","zip5":"N/A","latitude":"18.2057710000000000","longitude":"-66.112711000000000","publicwifi":"U","url":null,"broadband_type_id":6}
{"id":null,"anchorname":"DR JUAN JOSE OSUNA","address":"CALLE 4, URB. VILLA CARMEN CAGUAS PR 00725 , PR","bldgnbr":"N/A","predir":null,"streetname":"N/A","streettype":null,"suffdir":null,"city":"N/A","state_code":"PR","zip5":"N/A","latitude":"18.2038200000000000","longitude":"-66.052555000000000","publicwifi":"U","url":null,"broadband_type_id":null}
{"id":null,"anchorname":"JOSE MERCADO","address":"CALLE W. WILSON URB. JOSE MERCADO CAGUAS PR 00725 , PR","bldgnbr":"N/A","predir":null,"streetname":"N/A","streettype":null,"suffdir":null,"city":"N/A","state_code":"PR","zip5":"N/A","latitude":"18.2186110000000000","longitude":"-66.015732000000000","publicwifi":"U","url":null,"broadband_type_id":null}
{"id":null,"anchorname":"SU SANDALIO MARCANO","address":"CARR. 788, KM. 6, HM. 6 BO. TOMAS DE CASTRO #1 CAGUAS PR 00725 , PR","bldgnbr":"N/A","predir":null,"streetname":"N/A","streettype":null,"suffdir":null,"city":"N/A","state_code":"PR","zip5":"N/A","latitude":"18.1838510000000000","longitude":"-66.019568000000000","publicwifi":"U","url":null,"broadband_type_id":null}
{"id":null,"anchorname":"CORNELIO AYALA","address":"CARR. 763, KM. 3, HM. 8 BO. BORINQUEN CAGUAS PR 00725 , PR","bldgnbr":"N/A","predir":null,"streetname":"N/A","streettype":null,"suffdir":null,"city":"N/A","state_code":"PR","zip5":"N/A","latitude":"18.1583080000000000","longitude":"-66.052804000000000","publicwifi":"U","url":null,"broadband_type_id":null}
{"id":null,"anchorname":"BORINQUEN, PARCELAS VIEJAS","address":"CAGUAS MUNICIPIO, BORINQUEN BARRIO, PR , PR","bldgnbr":"N/A","predir":null,"streetname":"N/A","streettype":null,"suffdir":null,"city":"N/A","state_code":"PR","zip5":"N/A","latitude":"18.1738610000000000","longitude":"-66.040764000000000","publicwifi":"U","url":null,"broadband_type_id":null}
{"id":null,"anchorname":"CIPRIANO MANRIQUE","address":"CARR. 765, KM. 3, HM. 1 BO. BORINQUEN CAGUAS PR 00725 , PR","bldgnbr":"N/A","predir":null,"streetname":"N/A","streettype":null,"suffdir":null,"city":"N/A","state_code":"PR","zip5":"N/A","latitude":"18.1747940000000000","longitude":"-66.041614000000000","publicwifi":"U","url":null,"broadband_type_id":null}
{"id":null,"anchorname":"LAJITAS","address":"CAGUAS MUNICIPIO, BORINQUEN BARRIO, PR , PR","bldgnbr":"N/A","predir":null,"streetname":"N/A","streettype":null,"suffdir":null,"city":"N/A","state_code":"PR","zip5":"N/A","latitude":"18.1624040000000000","longitude":"-66.030439000000000","publicwifi":"U","url":null,"broadband_type_id":null}
{"id":null,"anchorname":"CAPILLA DE SAN ALFONSO","address":"PR-765, CAGUAS, PR 00727 , PR","bldgnbr":"N/A","predir":null,"streetname":"N/A","streettype":null,"suffdir":null,"city":"N/A","state_code":"PR","zip5":"N/A","latitude":"18.1493590000000000","longitude":"-66.038390000000000","publicwifi":"U","url":null,"broadband_type_id":null}
{"id":null,"anchorname":"CAPILLA DEL SAGRADO CORAZON","address":"PR-1, CAGUAS, PR 00727 , PR","bldgnbr":"N/A","predir":null,"streetname":"N/A","streettype":null,"suffdir":null,"city":"N/A","state_code":"PR","zip5":"N/A","latitude":"18.1826960000000000","longitude":"-66.085334000000000","publicwifi":"U","url":null,"broadband_type_id":null}
{"id":null,"anchorname":"PABLO AVILA GONZALEZ","address":"CALLE AMADOR BO. PUEBLO CAMUY PR 00627 , PR","bldgnbr":"N/A","predir":null,"streetname":"N/A","streettype":null,"suffdir":null,"city":"N/A","state_code":"PR","zip5":"N/A","latitude":"18.4872430000000000","longitude":"-66.846180000000000","publicwifi":"U","url":null,"broadband_type_id":null}
{"id":null,"anchorname":"PUEBLO NORTE","address":"CAMUY MUNICIPIO, PUEBLO BARRIO, PR , PR","bldgnbr":"N/A","predir":null,"streetname":"N/A","streettype":null,"suffdir":null,"city":"N/A","state_code":"PR","zip5":"N/A","latitude":"18.4865820000000000","longitude":"-66.844525000000000","publicwifi":"U","url":null,"broadband_type_id":null}
{"id":null,"anchorname":"CAMUY - CENTRO MEDICAID","address":"CALLE SAN JOSÉ #5 (FRENTE AL TERMINAL CARROS PÚBLICOS), CAMUY, PR , PR","bldgnbr":"N/A","predir":null,"streetname":"N/A","streettype":null,"suffdir":null,"city":"N/A","state_code":"PR","zip5":"N/A","latitude":"18.4833130000000000","longitude":"-66.844987000000000","publicwifi":"U","url":null,"broadband_type_id":null}
{"id":null,"anchorname":"EISENHOWER EL SCH","address":"100 WARWICK DR","bldgnbr":"100","predir":null,"streetname":"WARWICK","streettype":"DR","suffdir":null,"city":"PITTSBURGH","state_code":"PA","zip5":"15241","latitude":"40.3493939050000000","longitude":"-80.062620545000000","publicwifi":"U","url":null,"broadband_type_id":6}
{"id":null,"anchorname":"SU MERCEDES PALMA","address":"CARR. 765, KM. 8, HM. 4 BO. SAN SALVADOR CAGUAS PR 00725 , PR","bldgnbr":"N/A","predir":null,"streetname":"N/A","streettype":null,"suffdir":null,"city":"N/A","state_code":"PR","zip5":"N/A","latitude":"18.1387680000000000","longitude":"-66.038849000000000","publicwifi":"U","url":null,"broadband_type_id":6}
{"id":null,"anchorname":"PUENTE PENA","address":"CAMUY MUNICIPIO, PUENTE BARRIO, PR , PR","bldgnbr":"N/A","predir":null,"streetname":"N/A","streettype":null,"suffdir":null,"city":"N/A","state_code":"PR","zip5":"N/A","latitude":"18.4834870000000000","longitude":"-66.853644000000000","publicwifi":"U","url":null,"broadband_type_id":null}
{"id":null,"anchorname":"PEDRO AMADOR","address":"CARR. 485, KM. 2, HM BO. YEGUADA CAMUY PR 00627 , PR","bldgnbr":"N/A","predir":null,"streetname":"N/A","streettype":null,"suffdir":null,"city":"N/A","state_code":"PR","zip5":"N/A","latitude":"18.4835850000000000","longitude":"-66.884988000000000","publicwifi":"U","url":null,"broadband_type_id":null}
{"id":null,"anchorname":"PUENTE PICA","address":"CAMUY MUNICIPIO, PUENTE BARRIO, PR , PR","bldgnbr":"N/A","predir":null,"streetname":"N/A","streettype":null,"suffdir":null,"city":"N/A","state_code":"PR","zip5":"N/A","latitude":"18.4642560000000000","longitude":"-66.860224000000000","publicwifi":"U","url":null,"broadband_type_id":null}
{"id":null,"anchorname":"ROMAN BALDORIOTY DE CASTRO","address":"CARR. 119, KM. 13, H BO. PIEDRA GORDA CAMUY PR 00627 , PR","bldgnbr":"N/A","predir":null,"streetname":"N/A","streettype":null,"suffdir":null,"city":"N/A","state_code":"PR","zip5":"N/A","latitude":"18.4224140000000000","longitude":"-66.888318000000000","publicwifi":"U","url":null,"broadband_type_id":null}
{"id":null,"anchorname":"JOSE D. HERNANDEZ","address":"CARR. 119, KM. 10, H BO. PARCELAS DE CAMU CAMUY PR 00627 , PR","bldgnbr":"N/A","predir":null,"streetname":"N/A","streettype":null,"suffdir":null,"city":"N/A","state_code":"PR","zip5":"N/A","latitude":"18.4373790000000000","longitude":"-66.881497000000000","publicwifi":"U","url":null,"broadband_type_id":null}
{"id":null,"anchorname":"RALPH W EMERSON","address":"CARR. 2, KM. 94, HM. BO. MEMBRILLO CAMUY PR 00627 , PR","bldgnbr":"N/A","predir":null,"streetname":"N/A","streettype":null,"suffdir":null,"city":"N/A","state_code":"PR","zip5":"N/A","latitude":"18.4720840000000000","longitude":"-66.873297000000000","publicwifi":"U","url":null,"broadband_type_id":null}
{"id":null,"anchorname":"DR. FELIPE GARCIA FARIA","address":"CARR. 119, SECTOR ZARZA BO. PUENTE CAMUY PR 00627 , PR","bldgnbr":"N/A","predir":null,"streetname":"N/A","streettype":null,"suffdir":null,"city":"N/A","state_code":"PR","zip5":"N/A","latitude":"18.4705400000000000","longitude":"-66.844774000000000","publicwifi":"U","url":null,"broadband_type_id":null}
{"id":null,"anchorname":"AMALIA LOPEZ DE AVILA","address":"SECT LA ZARZA BO PUENTE CARR 119 KM 5.6 INT CAMUY PR 00627 , PR","bldgnbr":"N/A","predir":null,"streetname":"N/A","streettype":null,"suffdir":null,"city":"N/A","state_code":"PR","zip5":"N/A","latitude":"18.4678480000000000","longitude":"-66.844328000000000","publicwifi":"U","url":null,"broadband_type_id":null}
{"id":null,"anchorname":"JOSE M HERNANDEZ","address":"CARR 486 BO. ABRA HONDA CAMUY PR 00627 , PR","bldgnbr":"N/A","predir":null,"streetname":"N/A","streettype":null,"suffdir":null,"city":"N/A","state_code":"PR","zip5":"N/A","latitude":"18.4333120000000000","longitude":"-66.852533000000000","publicwifi":"U","url":null,"broadband_type_id":null}
{"id":null,"anchorname":"PUEBLO NUEVO","address":"CAMUY MUNICIPIO, ZANJA BARRIO, PR , PR","bldgnbr":"N/A","predir":null,"streetname":"N/A","streettype":null,"suffdir":null,"city":"N/A","state_code":"PR","zip5":"N/A","latitude":"18.4607890000000000","longitude":"-66.855087000000000","publicwifi":"U","url":null,"broadband_type_id":null}
{"id":null,"anchorname":"SU SANTIAGO R PALMER","address":"CARR. 486, KM. 1, HM BO. QUEBRADA CAMUY PR 00627 , PR","bldgnbr":"N/A","predir":null,"streetname":"N/A","streettype":null,"suffdir":null,"city":"N/A","state_code":"PR","zip5":"N/A","latitude":"18.3677340000000000","longitude":"-66.833568000000000","publicwifi":"U","url":null,"broadband_type_id":null}
{"id":null,"anchorname":"PUERTO","address":"CAMUY MUNICIPIO, PUERTOS BARRIO, PR , PR","bldgnbr":"N/A","predir":null,"streetname":"N/A","streettype":null,"suffdir":null,"city":"N/A","state_code":"PR","zip5":"N/A","latitude":"18.3913400000000000","longitude":"-66.890474000000000","publicwifi":"U","url":null,"broadband_type_id":null}
{"id":null,"anchorname":"QUEBRADAS","address":"CAMUY MUNICIPIO, QUEBRADA BARRIO, PR , PR","bldgnbr":"N/A","predir":null,"streetname":"N/A","streettype":null,"suffdir":null,"city":"N/A","state_code":"PR","zip5":"N/A","latitude":"18.3591780000000000","longitude":"-66.835365000000000","publicwifi":"U","url":null,"broadband_type_id":null}
{"id":null,"anchorname":"VOCACIONAL AGRICOLA SOLLER","address":"CARR. 456, KM. 5, HM SECTOR SOLLER, BO. CIBAO CAMUY PR 00627 , PR","bldgnbr":"N/A","predir":null,"streetname":"N/A","streettype":null,"suffdir":null,"city":"N/A","state_code":"PR","zip5":"N/A","latitude":"18.3723040000000000","longitude":"-66.895152000000000","publicwifi":"U","url":null,"broadband_type_id":null}
{"id":null,"anchorname":"SU JOAQUIN VAZQUEZ CRUZ","address":"CARR 456 BO. CIBAO CAMUY PR 00627 , PR","bldgnbr":"N/A","predir":null,"streetname":"N/A","streettype":null,"suffdir":null,"city":"N/A","state_code":"PR","zip5":"N/A","latitude":"18.3756890000000000","longitude":"-66.879540000000000","publicwifi":"U","url":null,"broadband_type_id":null}
{"id":null,"anchorname":"PARCELAS VIEJAS","address":"CANOVANAS MUNICIPIO, SAN ISIDRO BARRIO, PR , PR","bldgnbr":"N/A","predir":null,"streetname":"N/A","streettype":null,"suffdir":null,"city":"N/A","state_code":"PR","zip5":"N/A","latitude":"18.3957500000000000","longitude":"-65.884622000000000","publicwifi":"U","url":null,"broadband_type_id":null}
{"id":null,"anchorname":"CAMUY HEALTH CENTER, INC.","address":"PO BOX 660, CAMUY, PR 00627 , PR","bldgnbr":"N/A","predir":null,"streetname":"N/A","streettype":null,"suffdir":null,"city":"N/A","state_code":"PR","zip5":"N/A","latitude":"18.4842420000000000","longitude":"-66.847499000000000","publicwifi":"U","url":null,"broadband_type_id":3}
{"id":null,"anchorname":"LOS PANES","address":"CAGUAS MUNICIPIO, BEATRIZ BARRIO, PR , PR","bldgnbr":"N/A","predir":null,"streetname":"N/A","streettype":null,"suffdir":null,"city":"N/A","state_code":"PR","zip5":"N/A","latitude":"18.1872330000000000","longitude":"-66.076308000000000","publicwifi":"U","url":null,"broadband_type_id":6}
{"id":null,"anchorname":"TRIBUNAL DE DISTRITO CAMUY 14","address":"CARR #485 KM 0.2 CAMUY PR 00627 , PR","bldgnbr":"N/A","predir":null,"streetname":"N/A","streettype":null,"suffdir":null,"city":"N/A","state_code":"PR","zip5":"N/A","latitude":"18.4869240000000000","longitude":"-66.847087000000000","publicwifi":"U","url":null,"broadband_type_id":6}
{"id":null,"anchorname":"REGISTRO DEMOGRÁFICO CAMUY","address":"P O BOX  660, CAMUY, PR 00627 , PR","bldgnbr":"N/A","predir":null,"streetname":"N/A","streettype":null,"suffdir":null,"city":"N/A","state_code":"PR","zip5":"N/A","latitude":"18.4836150000000000","longitude":"-66.844924000000000","publicwifi":"U","url":null,"broadband_type_id":6}
{"id":null,"anchorname":"LAURENTINO ESTRELLA COLON","address":"AVE. LUIS MUNOZ RIVERA CAMUY PR 00627 , PR","bldgnbr":"N/A","predir":null,"streetname":"N/A","streettype":null,"suffdir":null,"city":"N/A","state_code":"PR","zip5":"N/A","latitude":"18.4854150000000000","longitude":"-66.847526000000000","publicwifi":"U","url":null,"broadband_type_id":6}
{"id":null,"anchorname":"LUIS F. RODRIGUEZ (PIEDRA GORDA)","address":"CARR. 483 KM. 13 HM 4 BO. PIEDRA GORDA CAMUY PR 00627 , PR","bldgnbr":"N/A","predir":null,"streetname":"N/A","streettype":null,"suffdir":null,"city":"N/A","state_code":"PR","zip5":"N/A","latitude":"18.4325440000000000","longitude":"-66.891578000000000","publicwifi":"U","url":null,"broadband_type_id":6}
{"id":null,"anchorname":"LUIS F. CRESPO","address":"CARR 486 KM 3 BO PUENTE CAMUY PR 00627 , PR","bldgnbr":"N/A","predir":null,"streetname":"N/A","streettype":null,"suffdir":null,"city":"N/A","state_code":"PR","zip5":"N/A","latitude":"18.4653460000000000","longitude":"-66.852071000000000","publicwifi":"U","url":null,"broadband_type_id":6}
{"id":null,"anchorname":"IGLESIA ERNESTO MEMORIAL","address":"CAM QUEBRADA HONDA, PR 00627 , PR","bldgnbr":"N/A","predir":null,"streetname":"N/A","streettype":null,"suffdir":null,"city":"N/A","state_code":"PR","zip5":"N/A","latitude":"18.4312830000000000","longitude":"-66.853678000000000","publicwifi":"U","url":null,"broadband_type_id":6}
{"id":null,"anchorname":"IGLESIA EL CALVARIO","address":"PR-483, QUEBRADILLAS, PR 00678 , PR","bldgnbr":"N/A","predir":null,"streetname":"N/A","streettype":null,"suffdir":null,"city":"N/A","state_code":"PR","zip5":"N/A","latitude":"18.4318320000000000","longitude":"-66.894802000000000","publicwifi":"U","url":null,"broadband_type_id":6}
{"id":null,"anchorname":"LUIS MUNOZ MARIN","address":"CALLE 10, JARDINES DE PALMAREJO, BO. SAN ISIDRO CANOVANAS PR 00729 , PR","bldgnbr":"N/A","predir":null,"streetname":"N/A","streettype":null,"suffdir":null,"city":"N/A","state_code":"PR","zip5":"N/A","latitude":"18.3891090000000000","longitude":"-65.880355000000000","publicwifi":"U","url":null,"broadband_type_id":6}
{"id":null,"anchorname":"DR PEDRO ALBIZU CAMPOS","address":"CARR. 188, HM. 3 BO. SAN ISIDRO CANOVANAS PR 00729 , PR","bldgnbr":"N/A","predir":null,"streetname":"N/A","streettype":null,"suffdir":null,"city":"N/A","state_code":"PR","zip5":"N/A","latitude":"18.3934100000000000","longitude":"-65.887258000000000","publicwifi":"U","url":null,"broadband_type_id":null}
{"id":null,"anchorname":"PARCELAS NUEVAS","address":"CANOVANAS MUNICIPIO, SAN ISIDRO BARRIO, PR , PR","bldgnbr":"N/A","predir":null,"streetname":"N/A","streettype":null,"suffdir":null,"city":"N/A","state_code":"PR","zip5":"N/A","latitude":"18.3909490000000000","longitude":"-65.885370000000000","publicwifi":"U","url":null,"broadband_type_id":null}
{"id":null,"anchorname":"VILLA HUGO II","address":"CANOVANAS MUNICIPIO, CANOVANAS BARRIO, PR , PR","bldgnbr":"N/A","predir":null,"streetname":"N/A","streettype":null,"suffdir":null,"city":"N/A","state_code":"PR","zip5":"N/A","latitude":"18.4007630000000000","longitude":"-65.890780000000000","publicwifi":"U","url":null,"broadband_type_id":null}
{"id":null,"anchorname":"SECTOR VALLE HILL","address":"CANOVANAS MUNICIPIO, CANOVANAS BARRIO, PR , PR","bldgnbr":"N/A","predir":null,"streetname":"N/A","streettype":null,"suffdir":null,"city":"N/A","state_code":"PR","zip5":"N/A","latitude":"18.3971360000000000","longitude":"-65.894095000000000","publicwifi":"U","url":null,"broadband_type_id":null}
{"id":null,"anchorname":"SECTOR VILLA DELICIAS","address":"CANOVANAS MUNICIPIO, CANOVANAS BARRIO, PR , PR","bldgnbr":"N/A","predir":null,"streetname":"N/A","streettype":null,"suffdir":null,"city":"N/A","state_code":"PR","zip5":"N/A","latitude":"18.3918660000000000","longitude":"-65.889091000000000","publicwifi":"U","url":null,"broadband_type_id":null}
{"id":null,"anchorname":"HC CANOVANAS","address":"CALLE ESPIRITU SANTO, CANOVANAS, PR 00729 , PR","bldgnbr":"N/A","predir":null,"streetname":"N/A","streettype":null,"suffdir":null,"city":"N/A","state_code":"PR","zip5":"N/A","latitude":"18.3997160000000000","longitude":"-65.889563000000000","publicwifi":"U","url":null,"broadband_type_id":null}
{"id":null,"anchorname":"VILLA HUGO I","address":"CANOVANAS MUNICIPIO, CANOVANAS BARRIO, PR , PR","bldgnbr":"N/A","predir":null,"streetname":"N/A","streettype":null,"suffdir":null,"city":"N/A","state_code":"PR","zip5":"N/A","latitude":"18.3983580000000000","longitude":"-65.889923000000000","publicwifi":"U","url":null,"broadband_type_id":null}
{"id":null,"anchorname":"SECTOR MONTE VERDE","address":"CANOVANAS MUNICIPIO, CANOVANAS BARRIO, PR , PR","bldgnbr":"N/A","predir":null,"streetname":"N/A","streettype":null,"suffdir":null,"city":"N/A","state_code":"PR","zip5":"N/A","latitude":"18.3922580000000000","longitude":"-65.893737000000000","publicwifi":"U","url":null,"broadband_type_id":null}
{"id":null,"anchorname":"ANTONIO R BARCELO","address":"CALLE PALMER CANOVANAS PR 00729 , PR","bldgnbr":"N/A","predir":null,"streetname":"N/A","streettype":null,"suffdir":null,"city":"N/A","state_code":"PR","zip5":"N/A","latitude":"18.3786720000000000","longitude":"-65.903637000000000","publicwifi":"U","url":null,"broadband_type_id":null}
{"id":null,"anchorname":"CANÓVANAS - CENTRO MEDICAID","address":"CALLE CORCHADO FRENTE CUARTEL DE LA POLICÍA, CANÓVANAS, PR 00729 , PR","bldgnbr":"N/A","predir":null,"streetname":"N/A","streettype":null,"suffdir":null,"city":"N/A","state_code":"PR","zip5":"N/A","latitude":"18.3794440000000000","longitude":"-65.899602000000000","publicwifi":"U","url":null,"broadband_type_id":null}
{"id":null,"anchorname":"CANOVANAS BIBLIOTECA MUNICIPAL SAN ISIDRO","address":"CALLE 17 BARRIO SAN ISIDRO CANOVANAS, PR 00729 , PR","bldgnbr":"N/A","predir":null,"streetname":"N/A","streettype":null,"suffdir":null,"city":"N/A","state_code":"PR","zip5":"N/A","latitude":"18.3932860000000000","longitude":"-65.883396000000000","publicwifi":"U","url":null,"broadband_type_id":6}
{"id":null,"anchorname":"CENTRO DE SALUD FAMILIAR","address":"CALLE CORCHADO # 105 CANOVANAS PR 00729 , PR","bldgnbr":"N/A","predir":null,"streetname":"N/A","streettype":null,"suffdir":null,"city":"N/A","state_code":"PR","zip5":"N/A","latitude":"18.3782750000000000","longitude":"-65.898975000000000","publicwifi":"U","url":null,"broadband_type_id":null}
{"id":null,"anchorname":"LA CENTRAL, SECTOR VILLA BORINQUEN","address":"CANOVANAS MUNICIPIO, TORRECILLA ALTA BARRIO, PR , PR","bldgnbr":"N/A","predir":null,"streetname":"N/A","streettype":null,"suffdir":null,"city":"N/A","state_code":"PR","zip5":"N/A","latitude":"18.3903470000000000","longitude":"-65.923077000000000","publicwifi":"U","url":null,"broadband_type_id":null}
{"id":null,"anchorname":"JULIA DE BURGOS","address":"CARR. 874 BO. TORRECILLA ALTA CANOVANAS PR 00729 , PR","bldgnbr":"N/A","predir":null,"streetname":"N/A","streettype":null,"suffdir":null,"city":"N/A","state_code":"PR","zip5":"N/A","latitude":"18.3900220000000000","longitude":"-65.915825000000000","publicwifi":"U","url":null,"broadband_type_id":null}
{"id":null,"anchorname":"PUEBLO INDIO","address":"CANOVANAS MUNICIPIO, TORRECILLA ALTA BARRIO, PR , PR","bldgnbr":"N/A","predir":null,"streetname":"N/A","streettype":null,"suffdir":null,"city":"N/A","state_code":"PR","zip5":"N/A","latitude":"18.3993530000000000","longitude":"-65.913872000000000","publicwifi":"U","url":null,"broadband_type_id":null}
{"id":null,"anchorname":"JUANA RODRIGUEZ MUNDO","address":"CALLE ADONIS 16 URB. LOIZA VALLEY CANOVANAS PR 00729 , PR","bldgnbr":"N/A","predir":null,"streetname":"N/A","streettype":null,"suffdir":null,"city":"N/A","state_code":"PR","zip5":"N/A","latitude":"18.3727010000000000","longitude":"-65.913829000000000","publicwifi":"U","url":null,"broadband_type_id":null}
{"id":null,"anchorname":"CAMBALACHE","address":"CANOVANAS MUNICIPIO, CANOVANAS BARRIO, PR , PR","bldgnbr":"N/A","predir":null,"streetname":"N/A","streettype":null,"suffdir":null,"city":"N/A","state_code":"PR","zip5":"N/A","latitude":"18.3561610000000000","longitude":"-65.882546000000000","publicwifi":"U","url":null,"broadband_type_id":null}
{"id":null,"anchorname":"LOS NAVARRO","address":"CANOVANAS MUNICIPIO, HATO PUERCO BARRIO, PR , PR","bldgnbr":"N/A","predir":null,"streetname":"N/A","streettype":null,"suffdir":null,"city":"N/A","state_code":"PR","zip5":"N/A","latitude":"18.3353510000000000","longitude":"-65.887533000000000","publicwifi":"U","url":null,"broadband_type_id":null}
{"id":null,"anchorname":"PALMASOLA","address":"CANOVANAS MUNICIPIO, HATO PUERCO BARRIO, PR , PR","bldgnbr":"N/A","predir":null,"streetname":"N/A","streettype":null,"suffdir":null,"city":"N/A","state_code":"PR","zip5":"N/A","latitude":"18.3243620000000000","longitude":"-65.872356000000000","publicwifi":"U","url":null,"broadband_type_id":null}
{"id":null,"anchorname":"EDUARDO GARCIA CARILLO","address":"CARR.186 KM 7 HM 5 BO CAMPO RICO CANOVANAS PR 00729 , PR","bldgnbr":"N/A","predir":null,"streetname":"N/A","streettype":null,"suffdir":null,"city":"N/A","state_code":"PR","zip5":"N/A","latitude":"18.3263000000000000","longitude":"-65.889847000000000","publicwifi":"U","url":null,"broadband_type_id":null}
{"id":null,"anchorname":"SECTOR ALTURAS DE CAMPO RICO","address":"CANOVANAS MUNICIPIO, HATO PUERCO BARRIO, PR , PR","bldgnbr":"N/A","predir":null,"streetname":"N/A","streettype":null,"suffdir":null,"city":"N/A","state_code":"PR","zip5":"N/A","latitude":"18.3340760000000000","longitude":"-65.895962000000000","publicwifi":"U","url":null,"broadband_type_id":null}
{"id":null,"anchorname":"JOSE CALZADA FERRER","address":"CARR. 185, KM. 5, HM. 6 BO. CAMPO RICO CANOVANAS PR 00729 , PR","bldgnbr":"N/A","predir":null,"streetname":"N/A","streettype":null,"suffdir":null,"city":"N/A","state_code":"PR","zip5":"N/A","latitude":"18.3361200000000000","longitude":"-65.889343000000000","publicwifi":"U","url":null,"broadband_type_id":null}
{"id":null,"anchorname":"LAS 400","address":"CANOVANAS MUNICIPIO, LOMAS BARRIO, PR , PR","bldgnbr":"N/A","predir":null,"streetname":"N/A","streettype":null,"suffdir":null,"city":"N/A","state_code":"PR","zip5":"N/A","latitude":"18.2685970000000000","longitude":"-65.909538000000000","publicwifi":"U","url":null,"broadband_type_id":null}
{"id":null,"anchorname":"PEDRO GUTIERREZ","address":"CARR. 186, KM. 7, HM. 2 BO. CUBUY CANOVANAS PR 00729 , PR","bldgnbr":"N/A","predir":null,"streetname":"N/A","streettype":null,"suffdir":null,"city":"N/A","state_code":"PR","zip5":"N/A","latitude":"18.2712290000000000","longitude":"-65.879021000000000","publicwifi":"U","url":null,"broadband_type_id":null}
{"id":null,"anchorname":"VILLA SIN MIEDO","address":"CANOVANAS MUNICIPIO, CUBUY BARRIO, PR , PR","bldgnbr":"N/A","predir":null,"streetname":"N/A","streettype":null,"suffdir":null,"city":"N/A","state_code":"PR","zip5":"N/A","latitude":"18.2560310000000000","longitude":"-65.872808000000000","publicwifi":"U","url":null,"broadband_type_id":null}
{"id":null,"anchorname":"MANUEL AGOSTO LEBRON","address":"CARR. 186, KM. 4, HM. 4 BO. LOMAS CANOVANAS PR 00729 , PR","bldgnbr":"N/A","predir":null,"streetname":"N/A","streettype":null,"suffdir":null,"city":"N/A","state_code":"PR","zip5":"N/A","latitude":"18.2831680000000000","longitude":"-65.885706000000000","publicwifi":"U","url":null,"broadband_type_id":null}
{"id":null,"anchorname":"LOMAS","address":"CANOVANAS MUNICIPIO, LOMAS BARRIO, PR , PR","bldgnbr":"N/A","predir":null,"streetname":"N/A","streettype":null,"suffdir":null,"city":"N/A","state_code":"PR","zip5":"N/A","latitude":"18.2852640000000000","longitude":"-65.893266000000000","publicwifi":"U","url":null,"broadband_type_id":null}
{"id":null,"anchorname":"PRECINTO 132 GUAYNABO","address":"C ARBOLOTES 2 , PR","bldgnbr":"N/A","predir":null,"streetname":"N/A","streettype":null,"suffdir":null,"city":"N/A","state_code":"PR","zip5":"N/A","latitude":"18.3620860000000000","longitude":"-66.111772000000000","publicwifi":"U","url":null,"broadband_type_id":null}
{"id":null,"anchorname":"VILLA CONQUISTADOR II","address":"CANOVANAS MUNICIPIO, CANOVANAS BARRIO, PR , PR","bldgnbr":"N/A","predir":null,"streetname":"N/A","streettype":null,"suffdir":null,"city":"N/A","state_code":"PR","zip5":"N/A","latitude":"18.3877960000000000","longitude":"-65.885631000000000","publicwifi":"U","url":null,"broadband_type_id":6}
{"id":null,"anchorname":"JOSE SANTOS QUIÑONES","address":"CALLE 21, JARDINES DE PALMAREJO, BO. ISIDRO CANOVANAS PR 00729 , PR","bldgnbr":"N/A","predir":null,"streetname":"N/A","streettype":null,"suffdir":null,"city":"N/A","state_code":"PR","zip5":"N/A","latitude":"18.3876000000000000","longitude":"-65.884255000000000","publicwifi":"U","url":null,"broadband_type_id":6}
{"id":null,"anchorname":"CANOVANAS BIBLIOTECA MUNICIPAL NESTOR CORAVEGA","address":"CASA ALCALDIA CALLE MUNOZ RIVERA CANOVANAS, PR 00729 , PR","bldgnbr":"N/A","predir":null,"streetname":"N/A","streettype":null,"suffdir":null,"city":"N/A","state_code":"PR","zip5":"N/A","latitude":"18.3787450000000000","longitude":"-65.900823000000000","publicwifi":"U","url":null,"broadband_type_id":6}
{"id":null,"anchorname":"LUIS HERNAIZ VERONNE","address":"CALLE AUTONOMIA CANOVANAS PR 00729 , PR","bldgnbr":"N/A","predir":null,"streetname":"N/A","streettype":null,"suffdir":null,"city":"N/A","state_code":"PR","zip5":"N/A","latitude":"18.3763870000000000","longitude":"-65.901081000000000","publicwifi":"U","url":null,"broadband_type_id":6}
{"id":null,"anchorname":"ACADEMIA BAUTISTA SOTERA SANCHEZ","address":"CALLE MARIA CASADO  A-18  URB. LAS VEGAS, APARTADO 434, CANOVANAS, PR 729 , PR","bldgnbr":"N/A","predir":null,"streetname":"N/A","streettype":null,"suffdir":null,"city":"N/A","state_code":"PR","zip5":"N/A","latitude":"18.3770380000000000","longitude":"-65.898359000000000","publicwifi":"U","url":null,"broadband_type_id":6}
{"id":null,"anchorname":"DISTRITO 015 CANOVANAS","address":"CALLE CORCHADO 104 FINAL CANOVANAS PR , PR","bldgnbr":"N/A","predir":null,"streetname":"N/A","streettype":null,"suffdir":null,"city":"N/A","state_code":"PR","zip5":"N/A","latitude":"18.3778960000000000","longitude":"-65.899067000000000","publicwifi":"U","url":null,"broadband_type_id":6}
{"id":null,"anchorname":"LA CENTRAL, SECTOR SIERRA MAESTRA","address":"CANOVANAS MUNICIPIO, TORRECILLA ALTA BARRIO, PR , PR","bldgnbr":"N/A","predir":null,"streetname":"N/A","streettype":null,"suffdir":null,"city":"N/A","state_code":"PR","zip5":"N/A","latitude":"18.3945950000000000","longitude":"-65.917825000000000","publicwifi":"U","url":null,"broadband_type_id":6}
{"id":null,"anchorname":"DOMINGO NIEVES ORTIZ (PALMA SOLA)","address":"CARR. 957, KM. 7 BO. PALMA SOLA CANOVANAS PR 00729 , PR","bldgnbr":"N/A","predir":null,"streetname":"N/A","streettype":null,"suffdir":null,"city":"N/A","state_code":"PR","zip5":"N/A","latitude":"18.3203150000000000","longitude":"-65.870974000000000","publicwifi":"U","url":null,"broadband_type_id":6}
{"id":null,"anchorname":"FRANCISCO PACO DAVILA","address":"CARR 185 KM 15.8 PARCELAS LAS 400 CANOVANAS PR 00987 , PR","bldgnbr":"N/A","predir":null,"streetname":"N/A","streettype":null,"suffdir":null,"city":"N/A","state_code":"PR","zip5":"N/A","latitude":"18.2708910000000000","longitude":"-65.913011000000000","publicwifi":"U","url":null,"broadband_type_id":6}
{"id":null,"anchorname":"ESTEBAN PABON GARCIA (LAS 400)","address":"CARR. 185, KM. 15 PARCELAS LAS 400, BO. LOMAS CANOVANAS PR 00987 , PR","bldgnbr":"N/A","predir":null,"streetname":"N/A","streettype":null,"suffdir":null,"city":"N/A","state_code":"PR","zip5":"N/A","latitude":"18.2693540000000000","longitude":"-65.914480000000000","publicwifi":"U","url":null,"broadband_type_id":6}
{"id":null,"anchorname":"CANOVANAS BIBLIOTECA MUNICIPAL LA CENTRAL","address":"CALLE 12 URB. SIERRA MAESTRA BARRIO LA CENTRAL CANOVANAS, PR 00729 , PR","bldgnbr":"N/A","predir":null,"streetname":"N/A","streettype":null,"suffdir":null,"city":"N/A","state_code":"PR","zip5":"N/A","latitude":"18.3960170000000000","longitude":"-65.916840000000000","publicwifi":"U","url":null,"broadband_type_id":1}
{"id":null,"anchorname":"GEORGINA BAQUERO","address":"CARR. 186, KM. 7, HM. 5 BO. CUBUY CANOVANAS PR 00729 , PR","bldgnbr":"N/A","predir":null,"streetname":"N/A","streettype":null,"suffdir":null,"city":"N/A","state_code":"PR","zip5":"N/A","latitude":"18.2663750000000000","longitude":"-65.873919000000000","publicwifi":"U","url":null,"broadband_type_id":null}
{"id":null,"anchorname":"JULIA DE BURGOS","address":"CALLE ORQUIDEA URB. LOS ANGELES CAROLINA PR 00979 , PR","bldgnbr":"N/A","predir":null,"streetname":"N/A","streettype":null,"suffdir":null,"city":"N/A","state_code":"PR","zip5":"N/A","latitude":"18.4287420000000000","longitude":"-66.010963000000000","publicwifi":"U","url":null,"broadband_type_id":null}
{"id":null,"anchorname":"MARIA LOPEZ PONCE","address":"CALLE 17 FINAL URB. JARDINES DE COUNTRY CLUB CAROLINA PR 00983 , PR","bldgnbr":"N/A","predir":null,"streetname":"N/A","streettype":null,"suffdir":null,"city":"N/A","state_code":"PR","zip5":"N/A","latitude":"18.4289260000000000","longitude":"-65.973060000000000","publicwifi":"U","url":null,"broadband_type_id":null}
{"id":null,"anchorname":"DR RAMON MELLADO PARSONS","address":"CALLE 5 URB. SABANA GARDENS CAROLINA PR 00983 , PR","bldgnbr":"N/A","predir":null,"streetname":"N/A","streettype":null,"suffdir":null,"city":"N/A","state_code":"PR","zip5":"N/A","latitude":"18.4166150000000000","longitude":"-65.974988000000000","publicwifi":"U","url":null,"broadband_type_id":null}
{"id":null,"anchorname":"PASCASIO P SANCERRIT","address":"CALLE GRANADA URB. VISTAMAR CAROLINA PR 00983 , PR","bldgnbr":"N/A","predir":null,"streetname":"N/A","streettype":null,"suffdir":null,"city":"N/A","state_code":"PR","zip5":"N/A","latitude":"18.4246550000000000","longitude":"-65.985046000000000","publicwifi":"U","url":null,"broadband_type_id":null}
{"id":null,"anchorname":"PRECINTO 416 CAROLINA NORTE","address":"CONDOMINIO GOLDEN TOWER CAROLINA PR , PR","bldgnbr":"N/A","predir":null,"streetname":"N/A","streettype":null,"suffdir":null,"city":"N/A","state_code":"PR","zip5":"N/A","latitude":"18.4245180000000000","longitude":"-65.988423000000000","publicwifi":"U","url":null,"broadband_type_id":null}
{"id":null,"anchorname":"LA CERAMICA, EDUARDO J. SALDANA","address":"CAROLINA MUNICIPIO, SABANA ABAJO BARRIO, PR , PR","bldgnbr":"N/A","predir":null,"streetname":"N/A","streettype":null,"suffdir":null,"city":"N/A","state_code":"PR","zip5":"N/A","latitude":"18.4232620000000000","longitude":"-65.984440000000000","publicwifi":"U","url":null,"broadband_type_id":null}
{"id":null,"anchorname":"SABANA ABAJO NORTE","address":"CAROLINA MUNICIPIO, SABANA ABAJO BARRIO, PR , PR","bldgnbr":"N/A","predir":null,"streetname":"N/A","streettype":null,"suffdir":null,"city":"N/A","state_code":"PR","zip5":"N/A","latitude":"18.4094200000000000","longitude":"-65.981356000000000","publicwifi":"U","url":null,"broadband_type_id":null}
{"id":null,"anchorname":"EDUARDO J SALDANA","address":"CALLE RODRIGUEZ EMMA URB. EDUARDO J. SALDANA CAROLINA PR 00983 , PR","bldgnbr":"N/A","predir":null,"streetname":"N/A","streettype":null,"suffdir":null,"city":"N/A","state_code":"PR","zip5":"N/A","latitude":"18.4227770000000000","longitude":"-65.984303000000000","publicwifi":"U","url":null,"broadband_type_id":null}
{"id":null,"anchorname":"DANIELS MIDDLE","address":"2816 OBERLIN RD, RALEIGH, NC 27608","bldgnbr":"2816","predir":null,"streetname":"OBERLIN","streettype":"RD","suffdir":null,"city":"RALEIGH","state_code":"NC","zip5":"27608","latitude":"35.8129760000000000","longitude":"-78.658044000000000","publicwifi":"U","url":"http://danielsms.wcpss.net/","broadband_type_id":6}
{"id":null,"anchorname":"GILBERTO CONCEPCION DE GRACIA","address":"AVE. SANCHEZ OSORIO URB. VILLA FONTANA CAROLINA PR 00983 , PR","bldgnbr":"N/A","predir":null,"streetname":"N/A","streettype":null,"suffdir":null,"city":"N/A","state_code":"PR","zip5":"N/A","latitude":"18.4004640000000000","longitude":"-65.977187000000000","publicwifi":"U","url":null,"broadband_type_id":null}
{"id":null,"anchorname":"SABANA ABAJO SUR","address":"CAROLINA MUNICIPIO, SABANA ABAJO BARRIO, PR , PR","bldgnbr":"N/A","predir":null,"streetname":"N/A","streettype":null,"suffdir":null,"city":"N/A","state_code":"PR","zip5":"N/A","latitude":"18.3971870000000000","longitude":"-65.981578000000000","publicwifi":"U","url":null,"broadband_type_id":null}
{"id":null,"anchorname":"PEDRO MOCZO BANIET","address":"AVE. SAN FERNANDO URB. EL COMANDANTE CAROLINA PR 00982 , PR","bldgnbr":"N/A","predir":null,"streetname":"N/A","streettype":null,"suffdir":null,"city":"N/A","state_code":"PR","zip5":"N/A","latitude":"18.4019610000000000","longitude":"-65.989873000000000","publicwifi":"U","url":null,"broadband_type_id":null}
{"id":null,"anchorname":"DR JOSE M LAZARO","address":"AVE. EL COMANDANTE URB. COUNTRY CLUB CAROLINA PR 00982 , PR","bldgnbr":"N/A","predir":null,"streetname":"N/A","streettype":null,"suffdir":null,"city":"N/A","state_code":"PR","zip5":"N/A","latitude":"18.4160590000000000","longitude":"-65.993822000000000","publicwifi":"U","url":null,"broadband_type_id":null}
{"id":null,"anchorname":"BIBLIOTECA ELECTRONICA - SABANA ABAJO","address":"AVE. MONSERRATE , CAROLINA , PR","bldgnbr":"N/A","predir":null,"streetname":"N/A","streettype":null,"suffdir":null,"city":"N/A","state_code":"PR","zip5":"N/A","latitude":"18.4074410000000000","longitude":"-65.985644000000000","publicwifi":"U","url":null,"broadband_type_id":null}
{"id":null,"anchorname":"BARRIO COLO","address":"CAROLINA MUNICIPIO, SAN ANTON BARRIO, PR , PR","bldgnbr":"N/A","predir":null,"streetname":"N/A","streettype":null,"suffdir":null,"city":"N/A","state_code":"PR","zip5":"N/A","latitude":"18.3964370000000000","longitude":"-65.993400000000000","publicwifi":"U","url":null,"broadband_type_id":null}
{"id":null,"anchorname":"SAN ANTON","address":"CAROLINA MUNICIPIO, SAN ANTON BARRIO, PR , PR","bldgnbr":"N/A","predir":null,"streetname":"N/A","streettype":null,"suffdir":null,"city":"N/A","state_code":"PR","zip5":"N/A","latitude":"18.3947960000000000","longitude":"-65.986793000000000","publicwifi":"U","url":null,"broadband_type_id":null}
{"id":null,"anchorname":"DR CLEMENTE FERNANDEZ","address":"CARR. 887 BO. SAN ANTON CAROLINA PR 00982 , PR","bldgnbr":"N/A","predir":null,"streetname":"N/A","streettype":null,"suffdir":null,"city":"N/A","state_code":"PR","zip5":"N/A","latitude":"18.3967280000000000","longitude":"-65.988527000000000","publicwifi":"U","url":null,"broadband_type_id":null}
{"id":null,"anchorname":"PETRA ROMAN VIGO","address":"CARR. 887, HM. 3 BO. SAN ANTON CAROLINA PR 00982 , PR","bldgnbr":"N/A","predir":null,"streetname":"N/A","streettype":null,"suffdir":null,"city":"N/A","state_code":"PR","zip5":"N/A","latitude":"18.3966340000000000","longitude":"-65.988093000000000","publicwifi":"U","url":null,"broadband_type_id":null}
{"id":null,"anchorname":"SAINT JUST","address":"CAROLINA MUNICIPIO, SAN ANTON BARRIO, PR , PR","bldgnbr":"N/A","predir":null,"streetname":"N/A","streettype":null,"suffdir":null,"city":"N/A","state_code":"PR","zip5":"N/A","latitude":"18.3806430000000000","longitude":"-65.995642000000000","publicwifi":"U","url":null,"broadband_type_id":null}
{"id":null,"anchorname":"ASPIRA DE PUERTO RICO","address":"ROAD 8887 KM 11.9 SAN ANTON WARD, CAROLINA, PUERTO RICO, 987 CAROLINA, PR 00987","bldgnbr":"N/A","predir":null,"streetname":"ROAD 8887 KM 11.9 SAN ANTON WARD","streettype":null,"suffdir":null,"city":"CAROLINA","state_code":"PR","zip5":"00987","latitude":"18.3926280000000000","longitude":"-65.981370000000000","publicwifi":"U","url":null,"broadband_type_id":null}
{"id":null,"anchorname":"ROBERTO CLEMENTE","address":"CALLE PER· 15 URB. ROLLING HILLS CAROLINA PR 00987 , PR","bldgnbr":"N/A","predir":null,"streetname":"N/A","streettype":null,"suffdir":null,"city":"N/A","state_code":"PR","zip5":"N/A","latitude":"18.3816150000000000","longitude":"-65.980203000000000","publicwifi":"U","url":null,"broadband_type_id":null}
{"id":null,"anchorname":"BIBLIOTECA ELECTRONICA - LOS MIRTOS","address":"CALLE URUGUAY FINAL, BARRIO MARTIN GONZALEZ, VEGA ALTA , PR","bldgnbr":"N/A","predir":null,"streetname":"N/A","streettype":null,"suffdir":null,"city":"N/A","state_code":"PR","zip5":"N/A","latitude":"18.3803850000000000","longitude":"-65.985322000000000","publicwifi":"U","url":null,"broadband_type_id":null}
{"id":null,"anchorname":"JUANA A MENDEZ","address":"CALLE 1 URB. METROPOLIS CAROLINA PR 00987 , PR","bldgnbr":"N/A","predir":null,"streetname":"N/A","streettype":null,"suffdir":null,"city":"N/A","state_code":"PR","zip5":"N/A","latitude":"18.3696450000000000","longitude":"-65.985750000000000","publicwifi":"U","url":null,"broadband_type_id":null}
{"id":null,"anchorname":"HC MARTIN GONZALEZ","address":"CALLE A I, CAROLINA, PR 00987 , PR","bldgnbr":"N/A","predir":null,"streetname":"N/A","streettype":null,"suffdir":null,"city":"N/A","state_code":"PR","zip5":"N/A","latitude":"18.3678350000000000","longitude":"-65.978030000000000","publicwifi":"U","url":null,"broadband_type_id":null}
{"id":null,"anchorname":"BIBLIOTECA ELECTRONICA - ROBERTO CLEMENTE","address":"CARR. 860 KM. 2 KM. 1, BO. MARTIN GONZALEZ, CAROLINA , PR","bldgnbr":"N/A","predir":null,"streetname":"N/A","streettype":null,"suffdir":null,"city":"N/A","state_code":"PR","zip5":"N/A","latitude":"18.3685590000000000","longitude":"-65.978472000000000","publicwifi":"U","url":null,"broadband_type_id":null}
{"id":null,"anchorname":"BIBLIOTECA ELECTRONICA - TORRES DE SABANA","address":"AVE. SÁNCHEZ OSORIO, ESQ CAMPO RICO, CAROLINA , PR","bldgnbr":"N/A","predir":null,"streetname":"N/A","streettype":null,"suffdir":null,"city":"N/A","state_code":"PR","zip5":"N/A","latitude":"18.4171350000000000","longitude":"-65.977196000000000","publicwifi":"U","url":null,"broadband_type_id":6}
{"id":null,"anchorname":"UNIVERSIDAD DEL ESTE CENTRO UNIVERSITARIO DE CAROLINA SISTEMA UNIVERSITARIO ANA G MENDEZ BIBLIOTECA","address":"CARR. 190 ESQUINA AV. PRINCIPAL SABANA BARRIO SABANA ABAJO, CAROLINA, PR 00983 , PR","bldgnbr":"N/A","predir":null,"streetname":"N/A","streettype":null,"suffdir":null,"city":"N/A","state_code":"PR","zip5":"N/A","latitude":"18.4132130000000000","longitude":"-65.984238000000000","publicwifi":"U","url":null,"broadband_type_id":6}
{"id":null,"anchorname":"FRANCISCO MATIAS LUGO","address":"CALLE ALMENDRO URB. VALLE ARRIBA HEIGHTS CAROLINA PR 00983 , PR","bldgnbr":"N/A","predir":null,"streetname":"N/A","streettype":null,"suffdir":null,"city":"N/A","state_code":"PR","zip5":"N/A","latitude":"18.4101840000000000","longitude":"-65.973853000000000","publicwifi":"U","url":null,"broadband_type_id":6}
{"id":null,"anchorname":"RENE MARQUES","address":"CALLE 116 FINAL URB. JARDINES DE COUNTRY CLUB CAROLINA PR 00983 , PR","bldgnbr":"N/A","predir":null,"streetname":"N/A","streettype":null,"suffdir":null,"city":"N/A","state_code":"PR","zip5":"N/A","latitude":"18.4229350000000000","longitude":"-65.975111000000000","publicwifi":"U","url":null,"broadband_type_id":6}
{"id":null,"anchorname":"MANUEL FEBRES GONZALEZ","address":"CALLE 5, ESQ. VIA 26 URB. VILLA FONTANA CAROLINA PR 00983 , PR","bldgnbr":"N/A","predir":null,"streetname":"N/A","streettype":null,"suffdir":null,"city":"N/A","state_code":"PR","zip5":"N/A","latitude":"18.4009120000000000","longitude":"-65.976076000000000","publicwifi":"U","url":null,"broadband_type_id":6}
{"id":null,"anchorname":"MARIA TERESA SERRANO","address":"VIA 8 FINAL URB. VILLA FONTANA CAROLINA PR 00983 , PR","bldgnbr":"N/A","predir":null,"streetname":"N/A","streettype":null,"suffdir":null,"city":"N/A","state_code":"PR","zip5":"N/A","latitude":"18.4036830000000000","longitude":"-65.975399000000000","publicwifi":"U","url":null,"broadband_type_id":6}
{"id":null,"anchorname":"CDT DR LUIS BRUSI ALVARADO","address":"C/ FERNANDO VAZQUEZ ESQ FDR BOX 196 HATILLO PR 00659-1969 , PR","bldgnbr":"N/A","predir":null,"streetname":"N/A","streettype":null,"suffdir":null,"city":"N/A","state_code":"PR","zip5":"N/A","latitude":"18.4056560000000000","longitude":"-65.989895000000000","publicwifi":"U","url":null,"broadband_type_id":6}
{"id":null,"anchorname":"LUIS MUNOZ MARIN","address":"AVE. MONSERRATE, KM. 2, HM. 6 BO. SABANA ABAJO CAROLINA PR 00982 , PR","bldgnbr":"N/A","predir":null,"streetname":"N/A","streettype":null,"suffdir":null,"city":"N/A","state_code":"PR","zip5":"N/A","latitude":"18.4071340000000000","longitude":"-65.986099000000000","publicwifi":"U","url":null,"broadband_type_id":6}
{"id":null,"anchorname":"CUESTA QUILES","address":"CAROLINA MUNICIPIO, SAN ANTON BARRIO, PR , PR","bldgnbr":"N/A","predir":null,"streetname":"N/A","streettype":null,"suffdir":null,"city":"N/A","state_code":"PR","zip5":"N/A","latitude":"18.3884720000000000","longitude":"-65.982351000000000","publicwifi":"U","url":null,"broadband_type_id":6}
{"id":null,"anchorname":"DIVISION TRANSITO PEAJE RUTA 66","address":"EXPRESO SANCHEZ VILELLA RUTA 66 , PR","bldgnbr":"N/A","predir":null,"streetname":"N/A","streettype":null,"suffdir":null,"city":"N/A","state_code":"PR","zip5":"N/A","latitude":"18.3707160000000000","longitude":"-65.971675000000000","publicwifi":"U","url":null,"broadband_type_id":6}
{"id":null,"anchorname":"MARTIN GONZALEZ, SECTOR CAMPECHE","address":"CAROLINA MUNICIPIO, MARTIN GONZALEZ BARRIO, PR , PR","bldgnbr":"N/A","predir":null,"streetname":"N/A","streettype":null,"suffdir":null,"city":"N/A","state_code":"PR","zip5":"N/A","latitude":"18.3673370000000000","longitude":"-65.972709000000000","publicwifi":"U","url":null,"broadband_type_id":null}
{"id":null,"anchorname":"NC Employment Security Commission","address":"3351 CARL SANDBURG COURT Raleigh, NC 27610-2047","bldgnbr":"3351","predir":null,"streetname":"Carl Sandburg","streettype":"Court","suffdir":null,"city":"Raleigh","state_code":"NC","zip5":"27610","latitude":"35.7810261560000000","longitude":"-78.580695257000000","publicwifi":"U","url":null,"broadband_type_id":6}
{"id":null,"anchorname":"LORENZO VIZCARRONDO","address":"CALLE QUINONES #8 URB. SEVERO QUINONES CAROLINA PR 00985 , PR","bldgnbr":"N/A","predir":null,"streetname":"N/A","streettype":null,"suffdir":null,"city":"N/A","state_code":"PR","zip5":"N/A","latitude":"18.3845350000000000","longitude":"-65.960829000000000","publicwifi":"U","url":null,"broadband_type_id":null}
{"id":null,"anchorname":"QUEST ACADEMY","address":"9650 STRICKLAND RD, RALEIGH, NC 27615","bldgnbr":"9650","predir":null,"streetname":"STRICKLAND","streettype":"RD","suffdir":null,"city":"RALEIGH","state_code":"NC","zip5":"27615","latitude":"35.9016820000000000","longitude":"-78.655607000000000","publicwifi":"U","url":null,"broadband_type_id":6}
{"id":null,"anchorname":"CAROLINA II - CENTRO MEDICAID","address":"HOSP. UPR AVE. 65 INFANTERÍA,, CAROLINA PR 00985 , PR","bldgnbr":"N/A","predir":null,"streetname":"N/A","streettype":null,"suffdir":null,"city":"N/A","state_code":"PR","zip5":"N/A","latitude":"18.3818080000000000","longitude":"-65.964519000000000","publicwifi":"U","url":null,"broadband_type_id":null}
{"id":null,"anchorname":"CALLE ANDRES AR·S, SECTOR ENSANCHE","address":"CAROLINA MUNICIPIO, MARTIN GONZALEZ / PUEBLO BARRIO, PR , PR","bldgnbr":"N/A","predir":null,"streetname":"N/A","streettype":null,"suffdir":null,"city":"N/A","state_code":"PR","zip5":"N/A","latitude":"18.3836030000000000","longitude":"-65.957290000000000","publicwifi":"U","url":null,"broadband_type_id":6}
{"id":null,"anchorname":"JESUS MARIA SANROMA","address":"CALLE 46, ESQ. CENTRAL BLVD. URB. VILLA CAROLINA CAROLINA PR 00985 , PR","bldgnbr":"N/A","predir":null,"streetname":"N/A","streettype":null,"suffdir":null,"city":"N/A","state_code":"PR","zip5":"N/A","latitude":"18.3956440000000000","longitude":"-65.953803000000000","publicwifi":"U","url":null,"broadband_type_id":6}
{"id":null,"anchorname":"CENTRO DE TRATAMIENTO AMBULATORIO CAROLINA - METADONE TREATMENT CENTER","address":"4 TO PISO, ALTOS DE LA FARMACIA MI BOTICA, CAROLINA, PR  00985 , PR","bldgnbr":"4","predir":null,"streetname":"N/A","streettype":null,"suffdir":null,"city":"N/A","state_code":"PR","zip5":"N/A","latitude":"18.3806070000000000","longitude":"-65.959617000000000","publicwifi":"U","url":null,"broadband_type_id":null}
{"id":null,"anchorname":"COMANDANCIA DE ?REA DE LA POLICIA","address":"AVE 65 INFANTERIA INTERSECCION CALLE IGNACIO ARZUAGA CAROLINA PR 00987 , PR","bldgnbr":"N/A","predir":null,"streetname":"N/A","streettype":null,"suffdir":null,"city":"N/A","state_code":"PR","zip5":"N/A","latitude":"18.3798410000000000","longitude":"-65.960939000000000","publicwifi":"U","url":null,"broadband_type_id":null}
{"id":null,"anchorname":"BIBLIOTECA ELECTRONICA - LAGOS DE BLASINA","address":"AVE. ROBERTO CLEMENTE, ESQ SANCHEZ CASTAÑO, CAROLINA , PR","bldgnbr":"N/A","predir":null,"streetname":"N/A","streettype":null,"suffdir":null,"city":"N/A","state_code":"PR","zip5":"N/A","latitude":"18.3906910000000000","longitude":"-65.963978000000000","publicwifi":"U","url":null,"broadband_type_id":null}
{"id":null,"anchorname":"CARLOS F DANIELS (VOC. DE AREA)","address":"CALLE JOSE SEVERO QUINONES URB. SEVERO QUINONES CAROLINA PR 00985 , PR","bldgnbr":"N/A","predir":null,"streetname":"N/A","streettype":null,"suffdir":null,"city":"N/A","state_code":"PR","zip5":"N/A","latitude":"18.3856140000000000","longitude":"-65.956592000000000","publicwifi":"U","url":null,"broadband_type_id":null}
{"id":null,"anchorname":"MODERN HAIRSTYLING INSTITUTE","address":"VISTA AZUL SHOPPING CENTER #2 KM.30.0, ARECIBO, PUERTO RICO, 612 ARECIBO, PR 00612","bldgnbr":"N/A","predir":null,"streetname":"VISTA AZUL SHOPPING CENTER #2 KM.30.0","streettype":null,"suffdir":null,"city":"ARECIBO","state_code":"PR","zip5":"00612","latitude":"18.3955730000000000","longitude":"-65.951768000000000","publicwifi":"U","url":null,"broadband_type_id":null}
{"id":null,"anchorname":"RVDO FELIX CASTRO RODRIGUEZ","address":"AVE. CAMPO RICO FINAL, 6TA SECCION URB. VILLA CAROLINA CAROLINA PR 00985 , PR","bldgnbr":"N/A","predir":null,"streetname":"N/A","streettype":null,"suffdir":null,"city":"N/A","state_code":"PR","zip5":"N/A","latitude":"18.4193120000000000","longitude":"-65.959636000000000","publicwifi":"U","url":null,"broadband_type_id":null}
{"id":null,"anchorname":"BIBLIOTECA ELECTRONICA - EL CORAL","address":"AVE. CENTRAL BOULEVARD, ESQ AVE. CALDERON, CAROLINA , PR","bldgnbr":"N/A","predir":null,"streetname":"N/A","streettype":null,"suffdir":null,"city":"N/A","state_code":"PR","zip5":"N/A","latitude":"18.3965770000000000","longitude":"-65.955031000000000","publicwifi":"U","url":null,"broadband_type_id":null}
{"id":null,"anchorname":"LUZ AMERICA CALDERON","address":"AVE. CENTRAL BLVD #18 3ERA SECCION URB. VILLA CAROLINA CAROLINA PR 00985 , PR","bldgnbr":"N/A","predir":null,"streetname":"N/A","streettype":null,"suffdir":null,"city":"N/A","state_code":"PR","zip5":"N/A","latitude":"18.3974870000000000","longitude":"-65.961294000000000","publicwifi":"U","url":null,"broadband_type_id":null}
{"id":null,"anchorname":"AGUSTIN CABRERA","address":"AVE. CENTRAL BLVD. URB. VILLA CAROLINA CAROLINA PR 00985 , PR","bldgnbr":"N/A","predir":null,"streetname":"N/A","streettype":null,"suffdir":null,"city":"N/A","state_code":"PR","zip5":"N/A","latitude":"18.3954920000000000","longitude":"-65.960689000000000","publicwifi":"U","url":null,"broadband_type_id":null}
{"id":null,"anchorname":"CAROLINA CENTRO CIBERNETICO RED I","address":"AV. ROBERTO CLEMENTE FASE # 2 PARQUE JULIA DE BURGOS CAROLINA, PR 00985 , PR","bldgnbr":"N/A","predir":null,"streetname":"N/A","streettype":null,"suffdir":null,"city":"N/A","state_code":"PR","zip5":"N/A","latitude":"18.4090310000000000","longitude":"-65.965540000000000","publicwifi":"U","url":null,"broadband_type_id":null}
{"id":null,"anchorname":"JESUS RIVERA BULTRON","address":"CALLE 90, 3RA SECC. URB. VILLA CAROLINA CAROLINA PR 00985 , PR","bldgnbr":"N/A","predir":null,"streetname":"N/A","streettype":null,"suffdir":null,"city":"N/A","state_code":"PR","zip5":"N/A","latitude":"18.4041920000000000","longitude":"-65.963523000000000","publicwifi":"U","url":null,"broadband_type_id":6}
{"id":null,"anchorname":"AMALIA EXPOSITO","address":"CALLE GRANADA, ESQ. CALLE ROSALES, BO. BUENA VISTA CAROLINA PR 00985 , PR","bldgnbr":"N/A","predir":null,"streetname":"N/A","streettype":null,"suffdir":null,"city":"N/A","state_code":"PR","zip5":"N/A","latitude":"18.3999600000000000","longitude":"-65.952580000000000","publicwifi":"U","url":null,"broadband_type_id":null}
{"id":null,"anchorname":"BUENA VISTA","address":"CAROLINA MUNICIPIO, HOYOMULAS BARRIO, PR , PR","bldgnbr":"N/A","predir":null,"streetname":"N/A","streettype":null,"suffdir":null,"city":"N/A","state_code":"PR","zip5":"N/A","latitude":"18.3983120000000000","longitude":"-65.952639000000000","publicwifi":"U","url":null,"broadband_type_id":6}
{"id":null,"anchorname":"VILLA CARIDAD","address":"CAROLINA MUNICIPIO, HOYOMULAS BARRIO, PR , PR","bldgnbr":"N/A","predir":null,"streetname":"N/A","streettype":null,"suffdir":null,"city":"N/A","state_code":"PR","zip5":"N/A","latitude":"18.3800240000000000","longitude":"-65.954281000000000","publicwifi":"U","url":null,"broadband_type_id":null}
{"id":null,"anchorname":"VILLA JUSTICIA","address":"CAROLINA MUNICIPIO, HOYOMULAS BARRIO, PR , PR","bldgnbr":"N/A","predir":null,"streetname":"N/A","streettype":null,"suffdir":null,"city":"N/A","state_code":"PR","zip5":"N/A","latitude":"18.3892030000000000","longitude":"-65.951533000000000","publicwifi":"U","url":null,"broadband_type_id":null}
{"id":null,"anchorname":"SALVADOR BRAU (INTERMEDIA)","address":"CARR. 853, KM. 6, HM. 2 BO. CACAO CAROLINA PR 00987 , PR","bldgnbr":"N/A","predir":null,"streetname":"N/A","streettype":null,"suffdir":null,"city":"N/A","state_code":"PR","zip5":"N/A","latitude":"18.3339930000000000","longitude":"-65.951215000000000","publicwifi":"U","url":null,"broadband_type_id":null}
{"id":null,"anchorname":"TRIBUNAL GENERAL DE JUSTICIA CENTRO JUDICIAL DE CAROLINA","address":"AV. 65 DE INFANTERIA FRENTE AL PARQUE ROBERTO CLEMENTE CAROLINA, PR 00987 , PR","bldgnbr":"N/A","predir":null,"streetname":"N/A","streettype":null,"suffdir":null,"city":"N/A","state_code":"PR","zip5":"N/A","latitude":"18.3745990000000000","longitude":"-65.946841000000000","publicwifi":"U","url":null,"broadband_type_id":null}
{"id":null,"anchorname":"BUENAVENTURA","address":"CAROLINA MUNICIPIO, TRUJILLO BAJO BARRIO, PR , PR","bldgnbr":"N/A","predir":null,"streetname":"N/A","streettype":null,"suffdir":null,"city":"N/A","state_code":"PR","zip5":"N/A","latitude":"18.3728470000000000","longitude":"-65.937135000000000","publicwifi":"U","url":null,"broadband_type_id":null}
{"id":null,"anchorname":"ACADEMIA DEL CARMEN","address":"URB. LOMAS DE CAROLINA, CALLE MONTE BRITTON ESQ. MONTE MEMBRILLO, P.O. BOX 299, CAROLINA, PR 987 , PR","bldgnbr":"N/A","predir":null,"streetname":"N/A","streettype":null,"suffdir":null,"city":"N/A","state_code":"PR","zip5":"N/A","latitude":"18.3695740000000000","longitude":"-65.944639000000000","publicwifi":"U","url":null,"broadband_type_id":null}
{"id":null,"anchorname":"TOKIO","address":"LAJAS MUNICIPIO, LAJAS BARRIO, PR , PR","bldgnbr":"N/A","predir":null,"streetname":"N/A","streettype":null,"suffdir":null,"city":"N/A","state_code":"PR","zip5":"N/A","latitude":"18.0546490000000000","longitude":"-67.056128000000000","publicwifi":"U","url":null,"broadband_type_id":null}
{"id":null,"anchorname":"ASOCIACIÓN PUERTORRIQUEÑA DE PARKINSON","address":"109 CALLE IGNACIO ARZUAGA EDIF. RVDO. FÉLIX CASTRO, PO BOX 7579, CAROLINA, PR 00986-7579 , PR","bldgnbr":"109","predir":null,"streetname":"N/A","streettype":null,"suffdir":null,"city":"N/A","state_code":"PR","zip5":"N/A","latitude":"18.3806310000000000","longitude":"-65.959594000000000","publicwifi":"U","url":null,"broadband_type_id":2}
{"id":null,"anchorname":"CARIBBEAN UNIVERSITY CAROLINA BIBLIOTECA","address":"CARR. 3 KM.10.6 CALLE IGNACIO ARZUAGA 106 CAROLINA, PR 00984 , PR","bldgnbr":"N/A","predir":null,"streetname":"N/A","streettype":null,"suffdir":null,"city":"N/A","state_code":"PR","zip5":"N/A","latitude":"18.3801590000000000","longitude":"-65.960105000000000","publicwifi":"U","url":null,"broadband_type_id":6}
{"id":null,"anchorname":"CAROLINA FIRE DEPT","address":"AVE. ROBERTO CLEMENTE 3ER. EXTENSION VILLA CAROLINA, CAROLINA, P.R. , PR","bldgnbr":"N/A","predir":null,"streetname":"N/A","streettype":null,"suffdir":null,"city":"N/A","state_code":"PR","zip5":"N/A","latitude":"18.3984140000000000","longitude":"-65.965994000000000","publicwifi":"U","url":null,"broadband_type_id":5}
{"id":null,"anchorname":"CAROLINA ELECTRONIC LIBRARY (DR. CARLOS HERNANDEZ)","address":"874 FERNANDEZ JUNCOS AVE., CAROLINA, PR 00986 CAROLINA, PR 00986","bldgnbr":"874","predir":null,"streetname":"FERNANDEZ JUNCOS AVENUE","streettype":null,"suffdir":null,"city":"CAROLINA","state_code":"PR","zip5":"00986","latitude":"18.3846810000000000","longitude":"-65.953555000000000","publicwifi":"U","url":null,"broadband_type_id":6}
{"id":null,"anchorname":"LUIS MUNOZ RIVERA","address":"CALLE LUIS MUÑOZ RIVERA 13 CAROLINA PR 00985 , PR","bldgnbr":"N/A","predir":null,"streetname":"N/A","streettype":null,"suffdir":null,"city":"N/A","state_code":"PR","zip5":"N/A","latitude":"18.3785970000000000","longitude":"-65.955879000000000","publicwifi":"U","url":null,"broadband_type_id":6}
{"id":null,"anchorname":"VILLA ESPERANZA","address":"CAROLINA MUNICIPIO, HOYOMULAS BARRIO, PR , PR","bldgnbr":"N/A","predir":null,"streetname":"N/A","streettype":null,"suffdir":null,"city":"N/A","state_code":"PR","zip5":"N/A","latitude":"18.3964100000000000","longitude":"-65.950452000000000","publicwifi":"U","url":null,"broadband_type_id":6}
{"id":null,"anchorname":"ARRAYANES","address":"TRUJILLO ALTO MUNICIPIO, QUEBRADA GRANDE BARRIO, PR , PR","bldgnbr":"N/A","predir":null,"streetname":"N/A","streettype":null,"suffdir":null,"city":"N/A","state_code":"PR","zip5":"N/A","latitude":"18.3214160000000000","longitude":"-65.958329000000000","publicwifi":"U","url":null,"broadband_type_id":6}
{"id":null,"anchorname":"CRUZ SALGUERO TORRES","address":"CALLE ORQUIDEA BO. BUENA VENTURA CAROLINA PR 00987 , PR","bldgnbr":"N/A","predir":null,"streetname":"N/A","streettype":null,"suffdir":null,"city":"N/A","state_code":"PR","zip5":"N/A","latitude":"18.3733440000000000","longitude":"-65.937210000000000","publicwifi":"U","url":null,"broadband_type_id":6}
{"id":null,"anchorname":"CAROLINA CENTRO CIBERNETICO RED II","address":"CARR. 859 KM.11.4 CENTRO DE SERVICIOS MULTIPLES BARRIO BARRAZA CAROLINA, PR 00985 , PR","bldgnbr":"N/A","predir":null,"streetname":"N/A","streettype":null,"suffdir":null,"city":"N/A","state_code":"PR","zip5":"N/A","latitude":"18.3009100000000000","longitude":"-65.939093000000000","publicwifi":"U","url":null,"broadband_type_id":null}
{"id":null,"anchorname":"AGUSTIN RODRIGUEZ HERNANDEZ","address":"CARR. 185, KM. 14, HM. 5 BO. CEDROS CAROLINA PR 00987 , PR","bldgnbr":"N/A","predir":null,"streetname":"N/A","streettype":null,"suffdir":null,"city":"N/A","state_code":"PR","zip5":"N/A","latitude":"18.2881520000000000","longitude":"-65.915363000000000","publicwifi":"U","url":null,"broadband_type_id":null}
{"id":null,"anchorname":"ANGEL P MILLAN ROHENA (INT NUEVO ENFOQUE)","address":"CARR. 857 KM. 0, HM. 9 BO. CANOVANILLAS CAROLINA PR 00987 , PR","bldgnbr":"N/A","predir":null,"streetname":"N/A","streettype":null,"suffdir":null,"city":"N/A","state_code":"PR","zip5":"N/A","latitude":"18.3692080000000000","longitude":"-65.930542000000000","publicwifi":"U","url":null,"broadband_type_id":null}
{"id":null,"anchorname":"PEDRO J RODRIGUEZ","address":"CARR. 859, KM. 2, HM. 6 BO. SANTA CRUZ CAROLINA PR 00987 , PR","bldgnbr":"N/A","predir":null,"streetname":"N/A","streettype":null,"suffdir":null,"city":"N/A","state_code":"PR","zip5":"N/A","latitude":"18.3531130000000000","longitude":"-65.935237000000000","publicwifi":"U","url":null,"broadband_type_id":null}
{"id":null,"anchorname":"HC CAROLINA","address":"PR-874, CAROLINA, PR 00987 , PR","bldgnbr":"N/A","predir":null,"streetname":"N/A","streettype":null,"suffdir":null,"city":"N/A","state_code":"PR","zip5":"N/A","latitude":"18.3794990000000000","longitude":"-65.921920000000000","publicwifi":"U","url":null,"broadband_type_id":null}
{"id":null,"anchorname":"HORACE MANN","address":"CALLE BARBOSA 190 CATANO PR 00962 , PR","bldgnbr":"N/A","predir":null,"streetname":"N/A","streettype":null,"suffdir":null,"city":"N/A","state_code":"PR","zip5":"N/A","latitude":"18.4401360000000000","longitude":"-66.121459000000000","publicwifi":"U","url":null,"broadband_type_id":null}
{"id":null,"anchorname":"CENTRO DE SALUD FAMILIAR UNIDAD II","address":"AVE LAS NEREIDAS # 126 CATANO PR 00962 , PR","bldgnbr":"N/A","predir":null,"streetname":"N/A","streettype":null,"suffdir":null,"city":"N/A","state_code":"PR","zip5":"N/A","latitude":"18.4411120000000000","longitude":"-66.123190000000000","publicwifi":"U","url":null,"broadband_type_id":null}
{"id":null,"anchorname":"LA PUNTILLA","address":"CATANO MUNICIPIO, LA PUNTILLA BARRIO, PR , PR","bldgnbr":"N/A","predir":null,"streetname":"N/A","streettype":null,"suffdir":null,"city":"N/A","state_code":"PR","zip5":"N/A","latitude":"18.4433580000000000","longitude":"-66.114056000000000","publicwifi":"U","url":null,"broadband_type_id":null}
{"id":null,"anchorname":"BIBLIOTECA ELECTRONICA - EL COQUÍ","address":"AVE BARBOSA, CATAÑO , PR","bldgnbr":"N/A","predir":null,"streetname":"N/A","streettype":null,"suffdir":null,"city":"N/A","state_code":"PR","zip5":"N/A","latitude":"18.4390100000000000","longitude":"-66.128081000000000","publicwifi":"U","url":null,"broadband_type_id":null}
{"id":null,"anchorname":"JUANA MATOS","address":"CATANO MUNICIPIO, PALMAS BARRIO, PR , PR","bldgnbr":"N/A","predir":null,"streetname":"N/A","streettype":null,"suffdir":null,"city":"N/A","state_code":"PR","zip5":"N/A","latitude":"18.4342490000000000","longitude":"-66.134453000000000","publicwifi":"U","url":null,"broadband_type_id":null}
{"id":null,"anchorname":"CUCHARILLAS","address":"CATANO MUNICIPIO, PALMAS BARRIO, PR , PR","bldgnbr":"N/A","predir":null,"streetname":"N/A","streettype":null,"suffdir":null,"city":"N/A","state_code":"PR","zip5":"N/A","latitude":"18.4348000000000000","longitude":"-66.143126000000000","publicwifi":"U","url":null,"broadband_type_id":null}
{"id":null,"anchorname":"COLEGIO SAN VICENTE FERRER","address":"CALLE LAS FLORES #46 CATAÑO, P.R. 00962, BOX. 455, CATAÑO, PR 963 , PR","bldgnbr":"N/A","predir":null,"streetname":"N/A","streettype":null,"suffdir":null,"city":"N/A","state_code":"PR","zip5":"N/A","latitude":"18.4378090000000000","longitude":"-66.142183000000000","publicwifi":"U","url":null,"broadband_type_id":null}
{"id":null,"anchorname":"ASOCIACIÓN PRO JUVENTUD Y COMUNIDAD DE BO. PALMAS, INC.","address":"257 CALLE CUCHARILLA BO. PALMAS, PO BOX 63476, CATAÑO, PR 00963-0476 , PR","bldgnbr":"257","predir":null,"streetname":"N/A","streettype":null,"suffdir":null,"city":"N/A","state_code":"PR","zip5":"N/A","latitude":"18.4361310000000000","longitude":"-66.148055000000000","publicwifi":"U","url":null,"broadband_type_id":null}
{"id":null,"anchorname":"TEODORO ROOSEVELT","address":"PARCELAS WILLIAM FUE BO. PALMAS CATANO PR 00962 , PR","bldgnbr":"N/A","predir":null,"streetname":"N/A","streettype":null,"suffdir":null,"city":"N/A","state_code":"PR","zip5":"N/A","latitude":"18.4377590000000000","longitude":"-66.151952000000000","publicwifi":"U","url":null,"broadband_type_id":null}
{"id":null,"anchorname":"ONOFRE CARBALLEIRA","address":"AVE. LAS NEREIDAS CATANO PR 00962 , PR","bldgnbr":"N/A","predir":null,"streetname":"N/A","streettype":null,"suffdir":null,"city":"N/A","state_code":"PR","zip5":"N/A","latitude":"18.4422790000000000","longitude":"-66.128770000000000","publicwifi":"U","url":null,"broadband_type_id":null}
{"id":null,"anchorname":"JESUS T PINERO","address":"CARR. 857, KM. 9, HM. 5 BO. CARRUZOS CAROLINA PR 00987 , PR","bldgnbr":"N/A","predir":null,"streetname":"N/A","streettype":null,"suffdir":null,"city":"N/A","state_code":"PR","zip5":"N/A","latitude":"18.3145480000000000","longitude":"-65.914771000000000","publicwifi":"U","url":null,"broadband_type_id":6}
{"id":null,"anchorname":"CATAÑO - CENTRO MEDICAID","address":"EDIF. FUERTE, AVE. PRINCIPAL BAY VIEW, ESQ. WEST OCEAN DRIVE #10, CATAÑO, PR 00962 , PR","bldgnbr":"N/A","predir":null,"streetname":"N/A","streettype":null,"suffdir":null,"city":"N/A","state_code":"PR","zip5":"N/A","latitude":"18.4444750000000000","longitude":"-66.132007000000000","publicwifi":"U","url":null,"broadband_type_id":null}
{"id":null,"anchorname":"ROSENDO MATIENZO CINTRON","address":"AVE. LAS NEREIDAS #2 CATANO PR 00962 , PR","bldgnbr":"N/A","predir":null,"streetname":"N/A","streettype":null,"suffdir":null,"city":"N/A","state_code":"PR","zip5":"N/A","latitude":"18.4407520000000000","longitude":"-66.124925000000000","publicwifi":"U","url":null,"broadband_type_id":null}
{"id":null,"anchorname":"BIBLIOTECA ELECTRONICA - ROSENDO MATIENZO CINTRÓN","address":"AVE. BARBOSA, ESQUINA DESTINO, CATAÑO , PR","bldgnbr":"N/A","predir":null,"streetname":"N/A","streettype":null,"suffdir":null,"city":"N/A","state_code":"PR","zip5":"N/A","latitude":"18.4403910000000000","longitude":"-66.124083000000000","publicwifi":"U","url":null,"broadband_type_id":null}
{"id":null,"anchorname":"BIBLIOTECA ELECTRONICA - LAS PALMAS","address":"CARR. PR-869, MARGINAL BARRIO PALMAS, CATAÑO , PR","bldgnbr":"N/A","predir":null,"streetname":"N/A","streettype":null,"suffdir":null,"city":"N/A","state_code":"PR","zip5":"N/A","latitude":"18.4323320000000000","longitude":"-66.152037000000000","publicwifi":"U","url":null,"broadband_type_id":null}
{"id":null,"anchorname":"BIBLIOTECA ELECTRONICA - JUANA MATOS III","address":"AVE. BARBOSA, CATAÑO , PR","bldgnbr":"N/A","predir":null,"streetname":"N/A","streettype":null,"suffdir":null,"city":"N/A","state_code":"PR","zip5":"N/A","latitude":"18.4343890000000000","longitude":"-66.130070000000000","publicwifi":"U","url":null,"broadband_type_id":null}
{"id":null,"anchorname":"RAFAEL CORDERO","address":"CALLE MARGINAL, AVE. CATANO CATANO PR 00962 , PR","bldgnbr":"N/A","predir":null,"streetname":"N/A","streettype":null,"suffdir":null,"city":"N/A","state_code":"PR","zip5":"N/A","latitude":"18.4373390000000000","longitude":"-66.125023000000000","publicwifi":"U","url":null,"broadband_type_id":null}
{"id":null,"anchorname":"RAMON B LOPEZ","address":"CALLE PERUCHO CEPEDA CATANO PR 00962 , PR","bldgnbr":"N/A","predir":null,"streetname":"N/A","streettype":null,"suffdir":null,"city":"N/A","state_code":"PR","zip5":"N/A","latitude":"18.4364090000000000","longitude":"-66.124433000000000","publicwifi":"U","url":null,"broadband_type_id":null}
{"id":null,"anchorname":"CUARTEL DE CATANO","address":"AVE. BARBOSA FRENTE A RES QOQUI , PR","bldgnbr":"N/A","predir":null,"streetname":"N/A","streettype":null,"suffdir":null,"city":"N/A","state_code":"PR","zip5":"N/A","latitude":"18.4382000000000000","longitude":"-66.127180000000000","publicwifi":"U","url":null,"broadband_type_id":null}
{"id":null,"anchorname":"BIBLIOTECA ELECTRONICA - JUANA MATOS I","address":"AVE. BARBOSA, CATAÑO , PR","bldgnbr":"N/A","predir":null,"streetname":"N/A","streettype":null,"suffdir":null,"city":"N/A","state_code":"PR","zip5":"N/A","latitude":"18.4370600000000000","longitude":"-66.126904000000000","publicwifi":"U","url":null,"broadband_type_id":null}
{"id":null,"anchorname":"BIBLIOTECA ELECTRONICA - JUANA MATOS II","address":"AVE. BARBOSA, CATAÑO , PR","bldgnbr":"N/A","predir":null,"streetname":"N/A","streettype":null,"suffdir":null,"city":"N/A","state_code":"PR","zip5":"N/A","latitude":"18.4360380000000000","longitude":"-66.129118000000000","publicwifi":"U","url":null,"broadband_type_id":null}
{"id":null,"anchorname":"PUENTE BLANCO","address":"CARR. 167, KM. 8 AVE. BARBOSA CATANO PR 00962 , PR","bldgnbr":"N/A","predir":null,"streetname":"N/A","streettype":null,"suffdir":null,"city":"N/A","state_code":"PR","zip5":"N/A","latitude":"18.4286220000000000","longitude":"-66.137050000000000","publicwifi":"U","url":null,"broadband_type_id":null}
{"id":null,"anchorname":"PUENTE BLANCO","address":"CATANO MUNICIPIO, PALMAS BARRIO, PR , PR","bldgnbr":"N/A","predir":null,"streetname":"N/A","streettype":null,"suffdir":null,"city":"N/A","state_code":"PR","zip5":"N/A","latitude":"18.4269410000000000","longitude":"-66.134004000000000","publicwifi":"U","url":null,"broadband_type_id":null}
{"id":null,"anchorname":"HC LUQUILLO","address":"CALLE 3, LUQUILLO, PR 00773 , PR","bldgnbr":"N/A","predir":null,"streetname":"N/A","streettype":null,"suffdir":null,"city":"N/A","state_code":"PR","zip5":"N/A","latitude":"18.3696530000000000","longitude":"-65.742420000000000","publicwifi":"U","url":null,"broadband_type_id":null}
{"id":null,"anchorname":"ESTANCIAS DEL PARQUE","address":"CAROLINA MUNICIPIO, CANOVANILLAS BARRIO, PR , PR","bldgnbr":"N/A","predir":null,"streetname":"N/A","streettype":null,"suffdir":null,"city":"N/A","state_code":"PR","zip5":"N/A","latitude":"18.3655490000000000","longitude":"-65.932553000000000","publicwifi":"U","url":null,"broadband_type_id":6}
{"id":null,"anchorname":"PRISCO FUENTES","address":"CALLE 13 URB. PARQUE ECUESTRE CAROLINA PR 00987 , PR","bldgnbr":"N/A","predir":null,"streetname":"N/A","streettype":null,"suffdir":null,"city":"N/A","state_code":"PR","zip5":"N/A","latitude":"18.3684840000000000","longitude":"-65.928399000000000","publicwifi":"U","url":null,"broadband_type_id":6}
{"id":null,"anchorname":"REGISTRO DEMOGRÁFICO CATAÑO","address":"P O BOX 1127, CATAÑO, PR 00962 , PR","bldgnbr":"N/A","predir":null,"streetname":"N/A","streettype":null,"suffdir":null,"city":"N/A","state_code":"PR","zip5":"N/A","latitude":"18.4411120000000000","longitude":"-66.123190000000000","publicwifi":"U","url":null,"broadband_type_id":6}
{"id":null,"anchorname":"ISAAC DEL ROSARIO","address":"AVE. FLOR DEL VALLE URB. LAS VEGAS CATANO PR 00962 , PR","bldgnbr":"N/A","predir":null,"streetname":"N/A","streettype":null,"suffdir":null,"city":"N/A","state_code":"PR","zip5":"N/A","latitude":"18.4298400000000000","longitude":"-66.143688000000000","publicwifi":"U","url":null,"broadband_type_id":6}
{"id":null,"anchorname":"IGLESIA DE CRISTO","address":"CALLE LAS CUCHARILLAS, CATANO, PR 00962 , PR","bldgnbr":"N/A","predir":null,"streetname":"N/A","streettype":null,"suffdir":null,"city":"N/A","state_code":"PR","zip5":"N/A","latitude":"18.4351740000000000","longitude":"-66.153115000000000","publicwifi":"U","url":null,"broadband_type_id":6}
{"id":null,"anchorname":"FRANCISCO OLLER","address":"AVE. LAS NEREIDAS CATANO PR 00962 , PR","bldgnbr":"N/A","predir":null,"streetname":"N/A","streettype":null,"suffdir":null,"city":"N/A","state_code":"PR","zip5":"N/A","latitude":"18.4420210000000000","longitude":"-66.127929000000000","publicwifi":"U","url":null,"broadband_type_id":6}
{"id":null,"anchorname":"BIBLIOTECA ELECTRONICA - JARDINES DE CATAÑO","address":"AVE. FLOR DEL VALLE, URB. LAS VEGAS, CATAÑO , PR","bldgnbr":"N/A","predir":null,"streetname":"N/A","streettype":null,"suffdir":null,"city":"N/A","state_code":"PR","zip5":"N/A","latitude":"18.4338580000000000","longitude":"-66.153113000000000","publicwifi":"U","url":null,"broadband_type_id":6}
{"id":null,"anchorname":"MERCEDES GARCIA DE COLORADO","address":"AVE. FLOR DEL VALLE URB. LAS VEGAS CATANO PR 00962 , PR","bldgnbr":"N/A","predir":null,"streetname":"N/A","streettype":null,"suffdir":null,"city":"N/A","state_code":"PR","zip5":"N/A","latitude":"18.4354960000000000","longitude":"-66.147677000000000","publicwifi":"U","url":null,"broadband_type_id":6}
{"id":null,"anchorname":"JOSE A NIEVES","address":"CALLE MARGINAL BO. PALMAS CATANO PR 00962 , PR","bldgnbr":"N/A","predir":null,"streetname":"N/A","streettype":null,"suffdir":null,"city":"N/A","state_code":"PR","zip5":"N/A","latitude":"18.4341660000000000","longitude":"-66.150817000000000","publicwifi":"U","url":null,"broadband_type_id":6}
{"id":null,"anchorname":"DISTRITO 117 CATANO","address":"CARR 5 AL LADO PARQUE PERUCHO CEPEDA CATANO PR , PR","bldgnbr":"N/A","predir":null,"streetname":"N/A","streettype":null,"suffdir":null,"city":"N/A","state_code":"PR","zip5":"N/A","latitude":"18.4381210000000000","longitude":"-66.127038000000000","publicwifi":"U","url":null,"broadband_type_id":6}
{"id":null,"anchorname":"CONSUELO LOPEZ BENET","address":"CARR. 743, KM. 10 BO. VEGAS CAYEY PR 00736 , PR","bldgnbr":"N/A","predir":null,"streetname":"N/A","streettype":null,"suffdir":null,"city":"N/A","state_code":"PR","zip5":"N/A","latitude":"18.1262580000000000","longitude":"-66.109833000000000","publicwifi":"U","url":null,"broadband_type_id":null}
{"id":null,"anchorname":"LAS VEGAS","address":"CAYEY MUNICIPIO, VEGAS BARRIO, PR , PR","bldgnbr":"N/A","predir":null,"streetname":"N/A","streettype":null,"suffdir":null,"city":"N/A","state_code":"PR","zip5":"N/A","latitude":"18.1260930000000000","longitude":"-66.104207000000000","publicwifi":"U","url":null,"broadband_type_id":null}
{"id":null,"anchorname":"PARCELAS BEATRIZ","address":"CAYEY MUNICIPIO, BEATRIZ BARRIO, PR , PR","bldgnbr":"N/A","predir":null,"streetname":"N/A","streettype":null,"suffdir":null,"city":"N/A","state_code":"PR","zip5":"N/A","latitude":"18.1578090000000000","longitude":"-66.095355000000000","publicwifi":"U","url":null,"broadband_type_id":null}
{"id":null,"anchorname":"VIRGINIA VAZQUEZ","address":"URB LA PLATA 11 CALLE JADE CAYEY PR 00736 , PR","bldgnbr":"N/A","predir":null,"streetname":"N/A","streettype":null,"suffdir":null,"city":"N/A","state_code":"PR","zip5":"N/A","latitude":"18.1336380000000000","longitude":"-66.146042000000000","publicwifi":"U","url":null,"broadband_type_id":null}
{"id":null,"anchorname":"JOSE GAUTIER BENITEZ","address":"CARR. 171, KM. 8, HM. 3 BO. RINCON MORILLO CAYEY PR 00736 , PR","bldgnbr":"N/A","predir":null,"streetname":"N/A","streettype":null,"suffdir":null,"city":"N/A","state_code":"PR","zip5":"N/A","latitude":"18.1223740000000000","longitude":"-66.156211000000000","publicwifi":"U","url":null,"broadband_type_id":null}
{"id":null,"anchorname":"BIBLIOTECA ELECTRONICA - JDNS. DE MONTELLANO","address":"CARR. #14 , AVE. ANTONIO R. BARCELÓ, CAYEY , PR","bldgnbr":"N/A","predir":null,"streetname":"N/A","streettype":null,"suffdir":null,"city":"N/A","state_code":"PR","zip5":"N/A","latitude":"18.1265250000000000","longitude":"-66.146683000000000","publicwifi":"U","url":null,"broadband_type_id":null}
{"id":null,"anchorname":"BUGG ELEMENTARY","address":"825 COOPER RD, RALEIGH, NC 27610","bldgnbr":"825","predir":null,"streetname":"COOPER","streettype":"RD","suffdir":null,"city":"RALEIGH","state_code":"NC","zip5":"27610","latitude":"35.7652400000000000","longitude":"-78.587449000000000","publicwifi":"U","url":"http://bugges.wcpss.net/","broadband_type_id":6}
{"id":null,"anchorname":"AGUSTIN FERNANDEZ COLON","address":"AVE. ANTONIO R. BARCELO BO. MONTELLANO CAYEY PR 00736 , PR","bldgnbr":"N/A","predir":null,"streetname":"N/A","streettype":null,"suffdir":null,"city":"N/A","state_code":"PR","zip5":"N/A","latitude":"18.1228180000000000","longitude":"-66.142695000000000","publicwifi":"U","url":null,"broadband_type_id":null}
{"id":null,"anchorname":"LA PLACITA","address":"CAYEY MUNICIPIO, TOITA BARRIO, PR , PR","bldgnbr":"N/A","predir":null,"streetname":"N/A","streettype":null,"suffdir":null,"city":"N/A","state_code":"PR","zip5":"N/A","latitude":"18.1236050000000000","longitude":"-66.180771000000000","publicwifi":"U","url":null,"broadband_type_id":null}
{"id":null,"anchorname":"BENIGNO FERNANDEZ GARCIA","address":"CALLE BARBOSA FINAL CAYEY PR 00736 , PR","bldgnbr":"N/A","predir":null,"streetname":"N/A","streettype":null,"suffdir":null,"city":"N/A","state_code":"PR","zip5":"N/A","latitude":"18.1148920000000000","longitude":"-66.167731000000000","publicwifi":"U","url":null,"broadband_type_id":null}
{"id":null,"anchorname":"SU EUGENIO MARIA DE HOSTOS","address":"CALLE 14, KM. 65, HM. 0 BO. TOITA CAYEY PR 00736 , PR","bldgnbr":"N/A","predir":null,"streetname":"N/A","streettype":null,"suffdir":null,"city":"N/A","state_code":"PR","zip5":"N/A","latitude":"18.1352220000000000","longitude":"-66.195140000000000","publicwifi":"U","url":null,"broadband_type_id":null}
{"id":null,"anchorname":"JULIO VIZCARRONDO YCORONADO","address":"CARR. 14, KM. 63 BO. MATON ABAJO CAYEY PR 00739 , PR","bldgnbr":"N/A","predir":null,"streetname":"N/A","streettype":null,"suffdir":null,"city":"N/A","state_code":"PR","zip5":"N/A","latitude":"18.1406810000000000","longitude":"-66.213170000000000","publicwifi":"U","url":null,"broadband_type_id":null}
{"id":null,"anchorname":"JOSE GUALBERTO PADILLA","address":"CARR. 1, KM. 66, HM. 8 BO. PASTO VIEJO CAYEY PR 00736 , PR","bldgnbr":"N/A","predir":null,"streetname":"N/A","streettype":null,"suffdir":null,"city":"N/A","state_code":"PR","zip5":"N/A","latitude":"18.0947230000000000","longitude":"-66.213669000000000","publicwifi":"U","url":null,"broadband_type_id":null}
{"id":null,"anchorname":"CENTRO DE ORIENTACIÓN MUJER Y FAMILIA, INC.","address":"URB. APONTE 107 CALLE SÁNCHEZ, CAYEY, PR 00736 , PR","bldgnbr":"N/A","predir":null,"streetname":"N/A","streettype":null,"suffdir":null,"city":"N/A","state_code":"PR","zip5":"N/A","latitude":"18.1122240000000000","longitude":"-66.168767000000000","publicwifi":"U","url":null,"broadband_type_id":null}
{"id":null,"anchorname":"BENIGNO CARRION","address":"CALLE LUIS BARRERAS CAYEY PR 00736 , PR","bldgnbr":"N/A","predir":null,"streetname":"N/A","streettype":null,"suffdir":null,"city":"N/A","state_code":"PR","zip5":"N/A","latitude":"18.1095880000000000","longitude":"-66.168560000000000","publicwifi":"U","url":null,"broadband_type_id":null}
{"id":null,"anchorname":"CENTRO DE TRATAMIENTO CON METADONA","address":"C/ DE DIEGO # 392 OESTE BOX M CAYEY PR 00636 , PR","bldgnbr":"N/A","predir":null,"streetname":"N/A","streettype":null,"suffdir":null,"city":"N/A","state_code":"PR","zip5":"N/A","latitude":"18.1183430000000000","longitude":"-66.175393000000000","publicwifi":"U","url":null,"broadband_type_id":null}
{"id":null,"anchorname":"FELIX LUCAS BENET","address":"CARR. 14 BO. BUENA VISTA CAYEY PR 00736 , PR","bldgnbr":"N/A","predir":null,"streetname":"N/A","streettype":null,"suffdir":null,"city":"N/A","state_code":"PR","zip5":"N/A","latitude":"18.1199870000000000","longitude":"-66.178005000000000","publicwifi":"U","url":null,"broadband_type_id":null}
{"id":null,"anchorname":"EL COQUI","address":"CAYEY MUNICIPIO, PUEBLO BARRIO, PR , PR","bldgnbr":"N/A","predir":null,"streetname":"N/A","streettype":null,"suffdir":null,"city":"N/A","state_code":"PR","zip5":"N/A","latitude":"18.1067310000000000","longitude":"-66.167508000000000","publicwifi":"U","url":null,"broadband_type_id":null}
{"id":null,"anchorname":"JALDA ABAJO","address":"CAYEY MUNICIPIO, PUEBLO BARRIO, PR , PR","bldgnbr":"N/A","predir":null,"streetname":"N/A","streettype":null,"suffdir":null,"city":"N/A","state_code":"PR","zip5":"N/A","latitude":"18.1056190000000000","longitude":"-66.168970000000000","publicwifi":"U","url":null,"broadband_type_id":null}
{"id":null,"anchorname":"RAMON FRADE LEON","address":"CALLE FLOR RODRIGUEZ BO. SAN THOMAS CAYEY PR 00736 , PR","bldgnbr":"N/A","predir":null,"streetname":"N/A","streettype":null,"suffdir":null,"city":"N/A","state_code":"PR","zip5":"N/A","latitude":"18.1042680000000000","longitude":"-66.167045000000000","publicwifi":"U","url":null,"broadband_type_id":null}
{"id":null,"anchorname":"IGLESIA SAN JOSE DE LA MONTANA","address":"PR-184, CAYEY, PR 00736 , PR","bldgnbr":"N/A","predir":null,"streetname":"N/A","streettype":null,"suffdir":null,"city":"N/A","state_code":"PR","zip5":"N/A","latitude":"18.1288120000000000","longitude":"-66.075332000000000","publicwifi":"U","url":null,"broadband_type_id":6}
{"id":null,"anchorname":"EMERITA LEON ELEMENTAL","address":"URB. LUIS MUNOZ MORALES CAYEY PR 00736 , PR","bldgnbr":"N/A","predir":null,"streetname":"N/A","streettype":null,"suffdir":null,"city":"N/A","state_code":"PR","zip5":"N/A","latitude":"18.1081480000000000","longitude":"-66.162193000000000","publicwifi":"U","url":null,"broadband_type_id":null}
{"id":null,"anchorname":"EMERITA LEON INTERMEDIA","address":"CARR. 1, INT. AVE. FERNANDEZ GARCIA CAYEY PR 00736 , PR","bldgnbr":"N/A","predir":null,"streetname":"N/A","streettype":null,"suffdir":null,"city":"N/A","state_code":"PR","zip5":"N/A","latitude":"18.1091560000000000","longitude":"-66.163002000000000","publicwifi":"U","url":null,"broadband_type_id":null}
{"id":null,"anchorname":"SAN TOMAS","address":"CAYEY MUNICIPIO, PUEBLO BARRIO, PR , PR","bldgnbr":"N/A","predir":null,"streetname":"N/A","streettype":null,"suffdir":null,"city":"N/A","state_code":"PR","zip5":"N/A","latitude":"18.1049680000000000","longitude":"-66.166452000000000","publicwifi":"U","url":null,"broadband_type_id":null}
{"id":null,"anchorname":"HC CAYEY","address":"CALLE ANTONIO R BARCELO, CAYEY, PR 00736 , PR","bldgnbr":"N/A","predir":null,"streetname":"N/A","streettype":null,"suffdir":null,"city":"N/A","state_code":"PR","zip5":"N/A","latitude":"18.1158300000000000","longitude":"-66.160563000000000","publicwifi":"U","url":null,"broadband_type_id":null}
{"id":null,"anchorname":"ACADEMIA LA MILAGROSA","address":"CARRETERA 171 KM 7.4 CALLE CIPRÉS, URB. EL PRADO, P.O. BOX 373338, CAYEY, PR 737 , PR","bldgnbr":"N/A","predir":null,"streetname":"N/A","streettype":null,"suffdir":null,"city":"N/A","state_code":"PR","zip5":"N/A","latitude":"18.1130750000000000","longitude":"-66.161361000000000","publicwifi":"U","url":null,"broadband_type_id":null}
{"id":null,"anchorname":"CAYEY - CENTRO MEDICAID","address":"AVE. JOSÉ DE DIEGO 164, CAYEY, PR  0073 , PR","bldgnbr":"N/A","predir":null,"streetname":"N/A","streettype":null,"suffdir":null,"city":"N/A","state_code":"PR","zip5":"N/A","latitude":"18.1134650000000000","longitude":"-66.162559000000000","publicwifi":"U","url":null,"broadband_type_id":null}
{"id":null,"anchorname":"SALVADOR BRAU PRE VOCACIONAL","address":"AVE. INDUSTRIAL, BDA. YUMURI CAYEY PR 00736 , PR","bldgnbr":"N/A","predir":null,"streetname":"N/A","streettype":null,"suffdir":null,"city":"N/A","state_code":"PR","zip5":"N/A","latitude":"18.1109800000000000","longitude":"-66.160151000000000","publicwifi":"U","url":null,"broadband_type_id":null}
{"id":null,"anchorname":"MIGUEL MELENDEZ MUNOZ","address":"CALLE D URB. REPARTO MONTELLANO CAYEY PR 00736 , PR","bldgnbr":"N/A","predir":null,"streetname":"N/A","streettype":null,"suffdir":null,"city":"N/A","state_code":"PR","zip5":"N/A","latitude":"18.1174030000000000","longitude":"-66.148922000000000","publicwifi":"U","url":null,"broadband_type_id":null}
{"id":null,"anchorname":"MIGUEL MELENDEZ MUNOZ","address":"AVE. ANTONIO BARCELO CAYEY - PUEBLO CAYEY PR 00736 , PR","bldgnbr":"N/A","predir":null,"streetname":"N/A","streettype":null,"suffdir":null,"city":"N/A","state_code":"PR","zip5":"N/A","latitude":"18.1175180000000000","longitude":"-66.157149000000000","publicwifi":"U","url":null,"broadband_type_id":null}
{"id":null,"anchorname":"ZENON RIVERA","address":"CARR 149 KM 20 HM 5 CIALES PR 00638 , PR","bldgnbr":"N/A","predir":null,"streetname":"N/A","streettype":null,"suffdir":null,"city":"N/A","state_code":"PR","zip5":"N/A","latitude":"18.2986120000000000","longitude":"-66.489999000000000","publicwifi":"U","url":null,"broadband_type_id":null}
{"id":null,"anchorname":"CAYEY FIRE DEPT","address":"CARR. # 1 KM. 58.4 CAYEY, P. R. 00736 , PR","bldgnbr":"N/A","predir":null,"streetname":"N/A","streettype":null,"suffdir":null,"city":"N/A","state_code":"PR","zip5":"N/A","latitude":"18.1062060000000000","longitude":"-66.161050000000000","publicwifi":"U","url":null,"broadband_type_id":5}
{"id":null,"anchorname":"HC CAYEY TALLERES","address":"PR-14, CAYEY, PR 00736 , PR","bldgnbr":"N/A","predir":null,"streetname":"N/A","streettype":null,"suffdir":null,"city":"N/A","state_code":"PR","zip5":"N/A","latitude":"18.1236120000000000","longitude":"-66.141784000000000","publicwifi":"U","url":null,"broadband_type_id":6}
{"id":null,"anchorname":"BENJAMIN HARRISON","address":"AVE. JOSE DE DIEGO 249 CAYEY PR 00736 , PR","bldgnbr":"N/A","predir":null,"streetname":"N/A","streettype":null,"suffdir":null,"city":"N/A","state_code":"PR","zip5":"N/A","latitude":"18.1142930000000000","longitude":"-66.169960000000000","publicwifi":"U","url":null,"broadband_type_id":6}
{"id":null,"anchorname":"LUIS MUNOZ RIVERA","address":"CALLE LUIS MUNOZ RIVERA CAYEY PR 00736 , PR","bldgnbr":"N/A","predir":null,"streetname":"N/A","streettype":null,"suffdir":null,"city":"N/A","state_code":"PR","zip5":"N/A","latitude":"18.1086000000000000","longitude":"-66.167364000000000","publicwifi":"U","url":null,"broadband_type_id":6}
{"id":null,"anchorname":"BIBLIOTECA ELECTRONICA - BRISAS DE CAYEY","address":"CALLE JOSÉ DE DIEGO, CARR #14, CAYEY , PR","bldgnbr":"N/A","predir":null,"streetname":"N/A","streettype":null,"suffdir":null,"city":"N/A","state_code":"PR","zip5":"N/A","latitude":"18.1176830000000000","longitude":"-66.175944000000000","publicwifi":"U","url":null,"broadband_type_id":6}
{"id":null,"anchorname":"DISTRITO 064 CAYEY","address":"AVE ANTONIO R BARCELO INTERSECCION CALLE EVARISTO VAZQUEZ CAYEY PR , PR","bldgnbr":"N/A","predir":null,"streetname":"N/A","streettype":null,"suffdir":null,"city":"N/A","state_code":"PR","zip5":"N/A","latitude":"18.1158780000000000","longitude":"-66.159938000000000","publicwifi":"U","url":null,"broadband_type_id":6}
{"id":null,"anchorname":"UNIVERSIDAD DEL TURABO CENTRO UNIVERSITARIO DE CAYEY SISTEMA UNIVERSITARIO ANA G MENDEZ BIBLIOTECA","address":"AV. ROBERTO BARCELO EDIFICIO SIERRA DE CAYEY, TERCER PISO CAYEY, PR 00737 , PR","bldgnbr":"N/A","predir":null,"streetname":"N/A","streettype":null,"suffdir":null,"city":"N/A","state_code":"PR","zip5":"N/A","latitude":"18.1144260000000000","longitude":"-66.163218000000000","publicwifi":"U","url":null,"broadband_type_id":6}
{"id":null,"anchorname":"EL CEDRO","address":"CAYEY MUNICIPIO, CERRO BARRIO, PR , PR","bldgnbr":"N/A","predir":null,"streetname":"N/A","streettype":null,"suffdir":null,"city":"N/A","state_code":"PR","zip5":"N/A","latitude":"18.1062840000000000","longitude":"-66.124068000000000","publicwifi":"U","url":null,"broadband_type_id":null}
{"id":null,"anchorname":"CEDRO CARRETERA","address":"CARR. 738, RAMAL KM. 27 HM. 9, BO. CEDRO CARRETERA CAYEY PR 00736 , PR","bldgnbr":"N/A","predir":null,"streetname":"N/A","streettype":null,"suffdir":null,"city":"N/A","state_code":"PR","zip5":"N/A","latitude":"18.1079420000000000","longitude":"-66.126520000000000","publicwifi":"U","url":null,"broadband_type_id":null}
{"id":null,"anchorname":"SU REXFORD GUY TUGWELL","address":"CARR. 15, INT. 7737 BO. CULEBRAS ALTO CAYEY PR 00736 , PR","bldgnbr":"N/A","predir":null,"streetname":"N/A","streettype":null,"suffdir":null,"city":"N/A","state_code":"PR","zip5":"N/A","latitude":"18.0854350000000000","longitude":"-66.158716000000000","publicwifi":"U","url":null,"broadband_type_id":null}
{"id":null,"anchorname":"JAJOME BAJO","address":"CAYEY MUNICIPIO, JAJOME ABAJO BARRIO, PR , PR","bldgnbr":"N/A","predir":null,"streetname":"N/A","streettype":null,"suffdir":null,"city":"N/A","state_code":"PR","zip5":"N/A","latitude":"18.0626750000000000","longitude":"-66.162051000000000","publicwifi":"U","url":null,"broadband_type_id":null}
{"id":null,"anchorname":"MANUEL CORCHADO Y JUARBE","address":"BO. JAJOME ABAJO CAYEY PR 00736 , PR","bldgnbr":"N/A","predir":null,"streetname":"N/A","streettype":null,"suffdir":null,"city":"N/A","state_code":"PR","zip5":"N/A","latitude":"18.0616860000000000","longitude":"-66.162253000000000","publicwifi":"U","url":null,"broadband_type_id":null}
{"id":null,"anchorname":"BIBLIOTECA ELECTRONICA - LA CEIBA","address":"ENTRANDO POR LA URB. SAN JORGE FINAL, CEIBA , PR","bldgnbr":"N/A","predir":null,"streetname":"N/A","streettype":null,"suffdir":null,"city":"N/A","state_code":"PR","zip5":"N/A","latitude":"18.2670650000000000","longitude":"-65.645789000000000","publicwifi":"U","url":null,"broadband_type_id":null}
{"id":null,"anchorname":"INTERMEDIA NUEVA","address":"CALLE BARCELONA URB. ROSSY VALLEY CEIBA PR 00735 , PR","bldgnbr":"N/A","predir":null,"streetname":"N/A","streettype":null,"suffdir":null,"city":"N/A","state_code":"PR","zip5":"N/A","latitude":"18.2638430000000000","longitude":"-65.646182000000000","publicwifi":"U","url":null,"broadband_type_id":null}
{"id":null,"anchorname":"BARRIO SACO","address":"CEIBA MUNICIPIO, SACO BARRIO, PR , PR","bldgnbr":"N/A","predir":null,"streetname":"N/A","streettype":null,"suffdir":null,"city":"N/A","state_code":"PR","zip5":"N/A","latitude":"18.2706060000000000","longitude":"-65.672421000000000","publicwifi":"U","url":null,"broadband_type_id":null}
{"id":null,"anchorname":"LAS CALDERONAS","address":"CEIBA MUNICIPIO, SACO BARRIO, PR , PR","bldgnbr":"N/A","predir":null,"streetname":"N/A","streettype":null,"suffdir":null,"city":"N/A","state_code":"PR","zip5":"N/A","latitude":"18.2744910000000000","longitude":"-65.660025000000000","publicwifi":"U","url":null,"broadband_type_id":null}
{"id":null,"anchorname":"PARCELAS NUEVAS","address":"CEIBA MUNICIPIO, RIO ABAJO BARRIO, PR , PR","bldgnbr":"N/A","predir":null,"streetname":"N/A","streettype":null,"suffdir":null,"city":"N/A","state_code":"PR","zip5":"N/A","latitude":"18.2662860000000000","longitude":"-65.683516000000000","publicwifi":"U","url":null,"broadband_type_id":null}
{"id":null,"anchorname":"ADOLFO VEVE FERREAU","address":"CALLE ESCOLÁSTICA LOPEZ CEIBA PR 00735 , PR","bldgnbr":"N/A","predir":null,"streetname":"N/A","streettype":null,"suffdir":null,"city":"N/A","state_code":"PR","zip5":"N/A","latitude":"18.2636730000000000","longitude":"-65.649124000000000","publicwifi":"U","url":null,"broadband_type_id":null}
{"id":null,"anchorname":"SANTA ROSA","address":"CALLE ESCOLÁSTICA LOPEZ CEIBA PR 00735 , PR","bldgnbr":"N/A","predir":null,"streetname":"N/A","streettype":null,"suffdir":null,"city":"N/A","state_code":"PR","zip5":"N/A","latitude":"18.2632150000000000","longitude":"-65.649062000000000","publicwifi":"U","url":null,"broadband_type_id":null}
{"id":null,"anchorname":"CEIBA - CENTRO MEDICAID","address":"258 AVE. LAURO PIÑERO, CEIBA, PR 00735 , PR","bldgnbr":"258","predir":null,"streetname":"N/A","streettype":null,"suffdir":null,"city":"N/A","state_code":"PR","zip5":"N/A","latitude":"18.2645070000000000","longitude":"-65.647949000000000","publicwifi":"U","url":null,"broadband_type_id":null}
{"id":null,"anchorname":"ELEMENTAL URBANA NUEVA","address":"CARR. 979 ESQUINA DESVIO FELISA RINCON BO. AGUAS CLARAS CEIBA PR 00735 , PR","bldgnbr":"N/A","predir":null,"streetname":"N/A","streettype":null,"suffdir":null,"city":"N/A","state_code":"PR","zip5":"N/A","latitude":"18.2601240000000000","longitude":"-65.647963000000000","publicwifi":"U","url":null,"broadband_type_id":null}
{"id":null,"anchorname":"BRENTWOOD SHS","address":"3601 BROWNSVILLE RD","bldgnbr":"3601","predir":null,"streetname":"BROWNSVILLE","streettype":"RD","suffdir":null,"city":"PITTSBURGH","state_code":"PA","zip5":"15227","latitude":"40.3742342770000000","longitude":"-79.974106098000000","publicwifi":"U","url":null,"broadband_type_id":6}
{"id":null,"anchorname":"PARCELAS AGUAS CLARAS","address":"CARR. 3, KM. 1, HM. 2 LAS PARCELAS AGUAS CLARAS CEIBA PR 00735 , PR","bldgnbr":"N/A","predir":null,"streetname":"N/A","streettype":null,"suffdir":null,"city":"N/A","state_code":"PR","zip5":"N/A","latitude":"18.2529340000000000","longitude":"-65.653830000000000","publicwifi":"U","url":null,"broadband_type_id":null}
{"id":null,"anchorname":"AGUAS CLARAS, SECTOR EL CORCHO","address":"CEIBA MUNICIPIO, AGUAS CLARAS BARRIO, PR , PR","bldgnbr":"N/A","predir":null,"streetname":"N/A","streettype":null,"suffdir":null,"city":"N/A","state_code":"PR","zip5":"N/A","latitude":"18.2505380000000000","longitude":"-65.658900000000000","publicwifi":"U","url":null,"broadband_type_id":null}
{"id":null,"anchorname":"PRADO HERMOSO","address":"CEIBA MUNICIPIO, QUEBRADA SECA BARRIO, PR , PR","bldgnbr":"N/A","predir":null,"streetname":"N/A","streettype":null,"suffdir":null,"city":"N/A","state_code":"PR","zip5":"N/A","latitude":"18.2334620000000000","longitude":"-65.667567000000000","publicwifi":"U","url":null,"broadband_type_id":null}
{"id":null,"anchorname":"QUEBRADA SECA","address":"CEIBA MUNICIPIO, QUEBRADA SECA BARRIO, PR , PR","bldgnbr":"N/A","predir":null,"streetname":"N/A","streettype":null,"suffdir":null,"city":"N/A","state_code":"PR","zip5":"N/A","latitude":"18.2379130000000000","longitude":"-65.666039000000000","publicwifi":"U","url":null,"broadband_type_id":null}
{"id":null,"anchorname":"JUAN A CORRETJER","address":"CARR 146 KM 2 BO CORDILLERA , PR","bldgnbr":"N/A","predir":null,"streetname":"N/A","streettype":null,"suffdir":null,"city":"N/A","state_code":"PR","zip5":"N/A","latitude":"18.3407120000000000","longitude":"-66.474040000000000","publicwifi":"U","url":null,"broadband_type_id":null}
{"id":null,"anchorname":"JUAN ANTONIO CORRETJER","address":"CARR 146 KM 2 BO CORDILLERA CIALES PR 00638 , PR","bldgnbr":"N/A","predir":null,"streetname":"N/A","streettype":null,"suffdir":null,"city":"N/A","state_code":"PR","zip5":"N/A","latitude":"18.3407120000000000","longitude":"-66.474040000000000","publicwifi":"U","url":null,"broadband_type_id":null}
{"id":null,"anchorname":"LOS ORTEGA","address":"CIALES MUNICIPIO, CORDILLERA BARRIO, PR , PR","bldgnbr":"N/A","predir":null,"streetname":"N/A","streettype":null,"suffdir":null,"city":"N/A","state_code":"PR","zip5":"N/A","latitude":"18.3233830000000000","longitude":"-66.504277000000000","publicwifi":"U","url":null,"broadband_type_id":null}
{"id":null,"anchorname":"HATO VIEJO CUMBRE","address":"CARR. 632, KM. 2 BO. HATO VIEJO CIALES PR 00638 , PR","bldgnbr":"N/A","predir":null,"streetname":"N/A","streettype":null,"suffdir":null,"city":"N/A","state_code":"PR","zip5":"N/A","latitude":"18.3605580000000000","longitude":"-66.492717000000000","publicwifi":"U","url":null,"broadband_type_id":null}
{"id":null,"anchorname":"CENTRO ADIESTRAMIENTO VOCACIONAL","address":"CALLE HENRY BARRACKS CAYEY PR 00736 , PR","bldgnbr":"N/A","predir":null,"streetname":"N/A","streettype":null,"suffdir":null,"city":"N/A","state_code":"PR","zip5":"N/A","latitude":"18.1171640000000000","longitude":"-66.156366000000000","publicwifi":"U","url":null,"broadband_type_id":6}
{"id":null,"anchorname":"JUAN RIOS SERPA","address":"CALLE CORCHADO CIALES PR 00638 , PR","bldgnbr":"N/A","predir":null,"streetname":"N/A","streettype":null,"suffdir":null,"city":"N/A","state_code":"PR","zip5":"N/A","latitude":"18.3385710000000000","longitude":"-66.466851000000000","publicwifi":"U","url":null,"broadband_type_id":null}
{"id":null,"anchorname":"SANTA CLARA","address":"CIALES MUNICIPIO, JAGUAS BARRIO, PR , PR","bldgnbr":"N/A","predir":null,"streetname":"N/A","streettype":null,"suffdir":null,"city":"N/A","state_code":"PR","zip5":"N/A","latitude":"18.3243770000000000","longitude":"-66.471946000000000","publicwifi":"U","url":null,"broadband_type_id":null}
{"id":null,"anchorname":"CIALES FIRE DEPT","address":"CALLE PALMAS, CARR. 145, INT. 685 CIALES, PR 00638 , PR","bldgnbr":"N/A","predir":null,"streetname":"N/A","streettype":null,"suffdir":null,"city":"N/A","state_code":"PR","zip5":"N/A","latitude":"18.3419260000000000","longitude":"-66.468303000000000","publicwifi":"U","url":null,"broadband_type_id":5}
{"id":null,"anchorname":"MARANATHA BAPTIST CHURCH","address":"AVE LAURO PINERO, CEIBA, PR 00735 , PR","bldgnbr":"N/A","predir":null,"streetname":"N/A","streettype":null,"suffdir":null,"city":"N/A","state_code":"PR","zip5":"N/A","latitude":"18.2818760000000000","longitude":"-65.639880000000000","publicwifi":"U","url":null,"broadband_type_id":6}
{"id":null,"anchorname":"REGISTRO DEMOGRÁFICO CEIBA","address":"P O BOX 1882, CEIBA, PR 00735 , PR","bldgnbr":"N/A","predir":null,"streetname":"N/A","streettype":null,"suffdir":null,"city":"N/A","state_code":"PR","zip5":"N/A","latitude":"18.2686130000000000","longitude":"-65.646095000000000","publicwifi":"U","url":null,"broadband_type_id":6}
