{"id":null,"anchorname":"SUMMIT","address":"4321 SHAW RD AKRON, OH 44333-1441","bldgnbr":"4321","predir":null,"streetname":"SHAW RD","streettype":null,"suffdir":null,"city":"AKRON","state_code":"OH","zip5":"44333","latitude":"41.1646200000000000","longitude":"-81.663160000000000","publicwifi":"U","url":null,"broadband_type_id":null}
{"id":null,"anchorname":"KOZMIC KORNER","address":"3700 EMBASSY PKWY AKRON, OH 44333-8383","bldgnbr":"3700","predir":null,"streetname":"EMBASSY PKWY","streettype":null,"suffdir":null,"city":"AKRON","state_code":"OH","zip5":"44333","latitude":"41.1453800000000000","longitude":"-81.641510000000000","publicwifi":"U","url":null,"broadband_type_id":null}
{"id":null,"anchorname":"ARDEN COURTS OF BATH","address":"171 N CLEVELAND MASSILION RD AKRON, OH 44333","bldgnbr":"171","predir":null,"streetname":"N CLEVELAND MASSILION RD","streettype":null,"suffdir":null,"city":"AKRON","state_code":"OH","zip5":"44333","latitude":"41.1403300000000000","longitude":"-81.637120000000000","publicwifi":"U","url":null,"broadband_type_id":1}
{"id":null,"anchorname":"CHURCH OF GOD STATE OFFICE","address":"2841 N REVERE RD AKRON, OH 44333-1231","bldgnbr":"2841","predir":null,"streetname":"N REVERE RD","streettype":null,"suffdir":null,"city":"AKRON","state_code":"OH","zip5":"44333","latitude":"41.1976000000000000","longitude":"-81.616020000000000","publicwifi":"U","url":null,"broadband_type_id":1}
{"id":null,"anchorname":"BATH ACADEMY","address":"4315 W STREETSBORO RD RICHFIELD, OH 44286-9404","bldgnbr":"4315","predir":null,"streetname":"W STREETSBORO RD","streettype":null,"suffdir":null,"city":"RICHFIELD","state_code":"OH","zip5":"44286","latitude":"41.2409600000000000","longitude":"-81.643540000000000","publicwifi":"U","url":null,"broadband_type_id":6}
{"id":null,"anchorname":"MACEDONIA CHILD DEVELOPMT CTR","address":"852 HIGHLAND RD E MACEDONIA, OH 44056-2114","bldgnbr":"852","predir":null,"streetname":"HIGHLAND RD E","streettype":null,"suffdir":null,"city":"MACEDONIA","state_code":"OH","zip5":"44056","latitude":"41.2977600000000000","longitude":"-81.492080000000000","publicwifi":"U","url":null,"broadband_type_id":null}
{"id":null,"anchorname":"BATH TOWNSHIP POLICE DEPARTMENT","address":"3864 WEST BATH ROAD BATH, OH 44333","bldgnbr":"3864","predir":null,"streetname":"WEST BATH ROAD","streettype":null,"suffdir":null,"city":"BATH","state_code":"OH","zip5":"44333","latitude":"41.1686600000000000","longitude":"-81.637600000000000","publicwifi":"U","url":null,"broadband_type_id":4}
{"id":null,"anchorname":"BATH ELEMENTARY SCHOOL","address":"1246 N CLEVELAND MASSILLON RD AKRON, OH 44333","bldgnbr":"1246","predir":null,"streetname":"N CLEVELAND MASSILLON RD","streettype":null,"suffdir":null,"city":"AKRON","state_code":"OH","zip5":"44333","latitude":"41.1699290000000000","longitude":"-81.638360000000000","publicwifi":"U","url":null,"broadband_type_id":6}
{"id":null,"anchorname":"REVERE MIDDLE SCHOOL","address":"3195 SPRING VALLEY ROAD AKRON, OH 44333","bldgnbr":"3195","predir":null,"streetname":"SPRING VALLEY ROAD","streettype":null,"suffdir":null,"city":"AKRON","state_code":"OH","zip5":"44333","latitude":"41.1978310000000000","longitude":"-81.618382000000000","publicwifi":"U","url":null,"broadband_type_id":6}
{"id":null,"anchorname":"REVERE HIGH SCHOOL","address":"3420 EVERETT RD RICHFIELD, OH 44286","bldgnbr":"3420","predir":null,"streetname":"EVERETT RD","streettype":null,"suffdir":null,"city":"RICHFIELD","state_code":"OH","zip5":"44286","latitude":"41.2023300000000000","longitude":"-81.617590000000000","publicwifi":"U","url":null,"broadband_type_id":6}
{"id":null,"anchorname":"VILLAGE AT ST EDWARD NURSING HOME","address":"3131 SMITH RD FAIRLAWN, OH 44333","bldgnbr":"3131","predir":null,"streetname":"SMITH RD","streettype":null,"suffdir":null,"city":"FAIRLAWN","state_code":"OH","zip5":"44333","latitude":"41.1382500000000000","longitude":"-81.622970000000000","publicwifi":"U","url":null,"broadband_type_id":3}
{"id":null,"anchorname":"BATH MANOR SPECIAL CARE CENTER","address":"2330 SMITH RD AKRON, OH 44333","bldgnbr":"2330","predir":null,"streetname":"SMITH RD","streettype":null,"suffdir":null,"city":"AKRON","state_code":"OH","zip5":"44333","latitude":"41.1391200000000000","longitude":"-81.593520000000000","publicwifi":"U","url":null,"broadband_type_id":3}
{"id":null,"anchorname":"HERBERICH PRIMARY ELEMENTARY SCHOOL","address":"2645 SMITH RD FAIRLAWN, OH 44333","bldgnbr":"2645","predir":null,"streetname":"SMITH RD","streettype":null,"suffdir":null,"city":"FAIRLAWN","state_code":"OH","zip5":"44333","latitude":"41.1371700000000000","longitude":"-81.605240000000000","publicwifi":"U","url":null,"broadband_type_id":6}
{"id":null,"anchorname":"REGINA HEALTH CENTER","address":"5232 BROADVIEW RD RICHFIELD, OH 44286","bldgnbr":"5232","predir":null,"streetname":"BROADVIEW RD","streettype":null,"suffdir":null,"city":"RICHFIELD","state_code":"OH","zip5":"44286","latitude":"41.2653600000000000","longitude":"-81.680180000000000","publicwifi":"U","url":null,"broadband_type_id":3}
{"id":null,"anchorname":"PINE VALLEY CARE CENTER","address":"4360 BRECKSVILLE RD RICHFIELD, OH 44286","bldgnbr":"4360","predir":null,"streetname":"BRECKSVILLE RD","streettype":null,"suffdir":null,"city":"RICHFIELD","state_code":"OH","zip5":"44286","latitude":"41.2534400000000000","longitude":"-81.635550000000000","publicwifi":"U","url":null,"broadband_type_id":3}
{"id":null,"anchorname":"RICHFIELD FIRE DEPARTMENT","address":"4410 WEST STREETSBORO ROAD RICHFIELD, OH 44286","bldgnbr":"4410","predir":null,"streetname":"WEST STREETSBORO ROAD","streettype":null,"suffdir":null,"city":"RICHFIELD","state_code":"OH","zip5":"44286","latitude":"41.2379800000000000","longitude":"-81.647520000000000","publicwifi":"U","url":null,"broadband_type_id":5}
{"id":null,"anchorname":"RICHFIELD POLICE AND FIRE","address":"4410 WEST STREETSBORO ROAD RICHFIELD, OH 44286","bldgnbr":"4410","predir":null,"streetname":"WEST STREETSBORO ROAD","streettype":null,"suffdir":null,"city":"RICHFIELD","state_code":"OH","zip5":"44286","latitude":"41.2379800000000000","longitude":"-81.647520000000000","publicwifi":"U","url":null,"broadband_type_id":4}
{"id":null,"anchorname":"RICHFIELD TOWNSHIP POLICE DEPARTMENT","address":"3907 BROADVIEW RD RICHFIELD, OH 44286-9117","bldgnbr":"3907","predir":null,"streetname":"BROADVIEW RD","streettype":null,"suffdir":null,"city":"RICHFIELD","state_code":"OH","zip5":"44286","latitude":"41.2388400000000000","longitude":"-81.653700000000000","publicwifi":"U","url":null,"broadband_type_id":4}
{"id":null,"anchorname":"BOSTON HEIGHTS POLICE DEPARTMENT","address":"45 E BOSTON MILLS RD HUDSON, OH 44236-1153","bldgnbr":"45","predir":null,"streetname":"E BOSTON MILLS RD","streettype":null,"suffdir":null,"city":"HUDSON","state_code":"OH","zip5":"44236","latitude":"41.2572800000000000","longitude":"-81.503340000000000","publicwifi":"U","url":null,"broadband_type_id":4}
{"id":null,"anchorname":"BOSTON HEIGHTS FIRE DEPARTMENT","address":"15 EAST BOSTON MILLS ROAD HUDSON, OH 44236","bldgnbr":"15","predir":null,"streetname":"EAST BOSTON MILLS ROAD","streettype":null,"suffdir":null,"city":"HUDSON","state_code":"OH","zip5":"44236","latitude":"41.2550900000000000","longitude":"-81.507340000000000","publicwifi":"U","url":null,"broadband_type_id":5}
{"id":null,"anchorname":"VALLEY FIRE DISTRICT","address":"5287 DOGWOOD DRIVE PENINSULA, OH 44264","bldgnbr":"5287","predir":null,"streetname":"DOGWOOD DRIVE","streettype":null,"suffdir":null,"city":"PENINSULA","state_code":"OH","zip5":"44264","latitude":"41.2371900000000000","longitude":"-81.530800000000000","publicwifi":"U","url":null,"broadband_type_id":5}
{"id":null,"anchorname":"PENINSULA POLICE DEPARTMENT","address":"1582 MAIN STREET PENINSULA, OH 44264-0011","bldgnbr":"1582","predir":null,"streetname":"MAIN STREET","streettype":null,"suffdir":null,"city":"PENINSULA","state_code":"OH","zip5":"44264","latitude":"41.2315000000000000","longitude":"-81.545200000000000","publicwifi":"U","url":null,"broadband_type_id":4}
{"id":null,"anchorname":"CUYAHOGA VALLEY HISTORICAL MUSEUM","address":"1775 MAIN ST PENINSULA, OH 44264-9536","bldgnbr":"1775","predir":null,"streetname":"MAIN ST","streettype":null,"suffdir":null,"city":"PENINSULA","state_code":"OH","zip5":"44264","latitude":"41.2418900000000000","longitude":"-81.554760000000000","publicwifi":"U","url":null,"broadband_type_id":1}
{"id":null,"anchorname":"PENINSULA LIBRARY \u0026 HISTORICAL SOCIETY","address":"6105 RIVERVIEW RD PENINSULA, OH 44264-9643","bldgnbr":"6105","predir":null,"streetname":"RIVERVIEW RD","streettype":null,"suffdir":null,"city":"PENINSULA","state_code":"OH","zip5":"44264","latitude":"41.2398000000000000","longitude":"-81.554730000000000","publicwifi":"Y","url":null,"broadband_type_id":6}
{"id":null,"anchorname":"WOODRIDGE INTERMEDIATE ELEMENTARY SCHOOL","address":"1930 BRONSON AVE PENINSULA, OH 44264","bldgnbr":"1930","predir":null,"streetname":"BRONSON AVE","streettype":null,"suffdir":null,"city":"PENINSULA","state_code":"OH","zip5":"44264","latitude":"41.2395400000000000","longitude":"-81.561020000000000","publicwifi":"U","url":null,"broadband_type_id":6}
{"id":null,"anchorname":"NORDONIA DAY CARE \u0026 PRESCHOOL","address":"9735 VALLEY VIEW RD MACEDONIA, OH 44056-2057","bldgnbr":"9735","predir":null,"streetname":"VALLEY VIEW RD","streettype":null,"suffdir":null,"city":"MACEDONIA","state_code":"OH","zip5":"44056","latitude":"41.3126000000000000","longitude":"-81.506090000000000","publicwifi":"U","url":null,"broadband_type_id":3}
{"id":null,"anchorname":"MACEDONIA POLICE DEPARTMENT","address":"9691 VALLEY VIEW RD MACEDONIA, OH 44056-2044","bldgnbr":"9691","predir":null,"streetname":"VALLEY VIEW RD","streettype":null,"suffdir":null,"city":"MACEDONIA","state_code":"OH","zip5":"44056","latitude":"41.3109200000000000","longitude":"-81.504770000000000","publicwifi":"U","url":null,"broadband_type_id":4}
{"id":null,"anchorname":"MACEDONIA POLICE AND FIRE","address":"9691 VALLEY VIEW ROAD MACEDONIA, OH 44056","bldgnbr":"9691","predir":null,"streetname":"VALLEY VIEW ROAD","streettype":null,"suffdir":null,"city":"MACEDONIA","state_code":"OH","zip5":"44056","latitude":"41.3109200000000000","longitude":"-81.504770000000000","publicwifi":"U","url":null,"broadband_type_id":4}
{"id":null,"anchorname":"NORDONIA HIGH SCHOOL","address":"8006 S BEDFORD RD MACEDONIA, OH 44056","bldgnbr":"8006","predir":null,"streetname":"S BEDFORD RD","streettype":null,"suffdir":null,"city":"MACEDONIA","state_code":"OH","zip5":"44056","latitude":"41.3025400000000000","longitude":"-81.508060000000000","publicwifi":"U","url":null,"broadband_type_id":6}
{"id":null,"anchorname":"NORTHFIELD VILLAGE POLICE DEPARTMENT","address":"10455 NORTHFIELD RD NORTHFIELD, OH 44067-1229","bldgnbr":"10455","predir":null,"streetname":"NORTHFIELD RD","streettype":null,"suffdir":null,"city":"NORTHFIELD","state_code":"OH","zip5":"44067","latitude":"41.3431600000000000","longitude":"-81.528300000000000","publicwifi":"U","url":null,"broadband_type_id":4}
{"id":null,"anchorname":"NORTHFIELD VILLAGE FIRE DEPARTMENT","address":"10271 NORTHFIELD ROAD NORTHFIELD VILLAGE, OH 44067","bldgnbr":"10271","predir":null,"streetname":"NORTHFIELD ROAD","streettype":null,"suffdir":null,"city":"NORTHFIELD VILLAGE","state_code":"OH","zip5":"44067","latitude":"41.3396100000000000","longitude":"-81.529310000000000","publicwifi":"U","url":null,"broadband_type_id":5}
{"id":null,"anchorname":"LEE EATON ELEMENTARY SCHOOL","address":"115 LEDGE RD NORTHFIELD, OH 44067","bldgnbr":"115","predir":null,"streetname":"LEDGE RD","streettype":null,"suffdir":null,"city":"NORTHFIELD","state_code":"OH","zip5":"44067","latitude":"41.3370300000000000","longitude":"-81.526810000000000","publicwifi":"U","url":null,"broadband_type_id":6}
{"id":null,"anchorname":"NORDONIA MIDDLE SCHOOL","address":"73 LEONARD AVE NORTHFIELD, OH 44067","bldgnbr":"73","predir":null,"streetname":"LEONARD AVE","streettype":null,"suffdir":null,"city":"NORTHFIELD","state_code":"OH","zip5":"44067","latitude":"41.3159600000000000","longitude":"-81.535210000000000","publicwifi":"U","url":null,"broadband_type_id":6}
{"id":null,"anchorname":"NORTHFIELD ELEMENTARY SCHOOL","address":"9370 OLDE 8 RD NORTHFIELD, OH 44067","bldgnbr":"9370","predir":null,"streetname":"OLDE 8 RD","streettype":null,"suffdir":null,"city":"NORTHFIELD","state_code":"OH","zip5":"44067","latitude":"41.3151800000000000","longitude":"-81.540580000000000","publicwifi":"U","url":null,"broadband_type_id":6}
{"id":null,"anchorname":"UNITED STATES POSTAL SERVICE","address":"302 MAIN ST, NORTH BEND, NE 68825, NORTH BEND, NE 68825","bldgnbr":"302","predir":null,"streetname":"MAIN","streettype":"ST","suffdir":null,"city":"NORTH BEND","state_code":"NE","zip5":"68825","latitude":"41.4804080000000000","longitude":"-100.51310000000000","publicwifi":"U","url":null,"broadband_type_id":6}
{"id":null,"anchorname":"ST. BARNABAS","address":"9200  OLDE 8 RD NORTHFIELD, OH 44067-2014","bldgnbr":"9200","predir":null,"streetname":"OLDE 8 RD","streettype":null,"suffdir":null,"city":"NORTHFIELD","state_code":"OH","zip5":"44067","latitude":"41.3110100000000000","longitude":"-81.536480000000000","publicwifi":"U","url":null,"broadband_type_id":null}
{"id":null,"anchorname":"ST BARNABAS VILLA INC","address":"9234 OLDE 8 RD NORTHFIELD, OH 44067","bldgnbr":"9234","predir":null,"streetname":"OLDE 8 RD","streettype":null,"suffdir":null,"city":"NORTHFIELD","state_code":"OH","zip5":"44067","latitude":"41.3120200000000000","longitude":"-81.537250000000000","publicwifi":"U","url":null,"broadband_type_id":null}
{"id":null,"anchorname":"CUYAHOGA VALLEY CHRISTIAN ACAD","address":"4687  WYOGA LAKE RD CUYAHOGA FALLS, OH 44224-1011","bldgnbr":"4687","predir":null,"streetname":"WYOGA LAKE RD","streettype":null,"suffdir":null,"city":"CUYAHOGA FALLS","state_code":"OH","zip5":"44224","latitude":"41.1976100000000000","longitude":"-81.494260000000000","publicwifi":"U","url":null,"broadband_type_id":6}
{"id":null,"anchorname":"WALSH JESUIT","address":"4550  WYOGA LAKE RD CUYAHOGA FALLS, OH 44224-1059","bldgnbr":"4550","predir":null,"streetname":"WYOGA LAKE RD","streettype":null,"suffdir":null,"city":"CUYAHOGA FALLS","state_code":"OH","zip5":"44224","latitude":"41.1929200000000000","longitude":"-81.494600000000000","publicwifi":"U","url":null,"broadband_type_id":6}
{"id":null,"anchorname":"NORTH COAST REG BEHAVIORAL CNT","address":"NORTHFIELD, OH 44067 NORTHFIELD, OH 44067","bldgnbr":"1756","predir":null,"streetname":"SAGAMORE ROAD","streettype":null,"suffdir":null,"city":"NORTHFIELD","state_code":"OH","zip5":"44067","latitude":"41.3198000000000000","longitude":"-81.545500000000000","publicwifi":"U","url":null,"broadband_type_id":null}
{"id":null,"anchorname":"SAGAMORE HILLS CH PSY HOSP","address":"11910 DUNHAM RD NORTHFIELD, OH 44067-1016","bldgnbr":"11910","predir":null,"streetname":"DUNHAM RD","streettype":null,"suffdir":null,"city":"NORTHFIELD","state_code":"OH","zip5":"44067","latitude":"41.3471200000000000","longitude":"-81.563210000000000","publicwifi":"U","url":null,"broadband_type_id":null}
{"id":null,"anchorname":"CARDINAL RETIREMENT VILLAGE","address":"171 GRAHAM RD CUYAHOGA FALLS, OH 44223","bldgnbr":"171","predir":null,"streetname":"GRAHAM RD","streettype":null,"suffdir":null,"city":"CUYAHOGA FALLS","state_code":"OH","zip5":"44223","latitude":"41.1535900000000000","longitude":"-81.502350000000000","publicwifi":"U","url":null,"broadband_type_id":1}
{"id":null,"anchorname":"LEARNING ENRICHMENT CTR-GREEN","address":"3405 MASSILLON RD AKRON, OH 44312-5337","bldgnbr":"3405","predir":null,"streetname":"MASSILLON RD","streettype":null,"suffdir":null,"city":"AKRON","state_code":"OH","zip5":"44312","latitude":"40.9692000000000000","longitude":"-81.464600000000000","publicwifi":"U","url":null,"broadband_type_id":6}
{"id":null,"anchorname":"CONTEMPORARY DENTAL ASSISTING","address":"801 E STATE ST BARBERTON, OH 44203","bldgnbr":"801","predir":null,"streetname":"E STATE ST","streettype":null,"suffdir":null,"city":"BARBERTON","state_code":"OH","zip5":"44203","latitude":"41.0108720000000000","longitude":"-81.570054000000000","publicwifi":"U","url":null,"broadband_type_id":6}
{"id":null,"anchorname":"ELMCROFT OF SAGAMORE HILLS","address":"997 W AURORA RD SAGAMORE HILLS, OH 44067","bldgnbr":"997","predir":null,"streetname":"W AURORA RD","streettype":null,"suffdir":null,"city":"SAGAMORE HILLS","state_code":"OH","zip5":"44067","latitude":"41.3157300000000000","longitude":"-81.574530000000000","publicwifi":"U","url":null,"broadband_type_id":null}
{"id":null,"anchorname":"MAYFAIR JUNIOR ACADEMY OF SDA","address":"2350  GRAYBILL RD UNIONTOWN, OH 44685-8119","bldgnbr":"2350","predir":null,"streetname":"GRAYBILL RD","streettype":null,"suffdir":null,"city":"UNIONTOWN","state_code":"OH","zip5":"44685","latitude":"40.9536600000000000","longitude":"-81.447270000000000","publicwifi":"U","url":null,"broadband_type_id":6}
{"id":null,"anchorname":"THE LRNG ENRICH CTR OF CUY FLS","address":"3100 STATE RD CUYAHOGA FALLS, OH 44223-2548","bldgnbr":"3100","predir":null,"streetname":"STATE RD","streettype":null,"suffdir":null,"city":"CUYAHOGA FALLS","state_code":"OH","zip5":"44223","latitude":"41.1561200000000000","longitude":"-81.511560000000000","publicwifi":"U","url":null,"broadband_type_id":null}
{"id":null,"anchorname":"MAPLEWOOD GARDEN C.D. CENTER","address":"500 HARDMAN DR CUYAHOGA FALLS, OH 44224-4883","bldgnbr":"500","predir":null,"streetname":"HARDMAN DR","streettype":null,"suffdir":null,"city":"CUYAHOGA FALLS","state_code":"OH","zip5":"44224","latitude":"41.1867300000000000","longitude":"-81.492200000000000","publicwifi":"U","url":null,"broadband_type_id":null}
{"id":null,"anchorname":"TRADITION AT BATH ROAD","address":"300 E BATH RD CUYAHOGA FALLS, OH 44223","bldgnbr":"300","predir":null,"streetname":"E BATH RD","streettype":null,"suffdir":null,"city":"CUYAHOGA FALLS","state_code":"OH","zip5":"44223","latitude":"41.1574600000000000","longitude":"-81.499620000000000","publicwifi":"U","url":null,"broadband_type_id":null}
{"id":null,"anchorname":"HUDSON","address":"2400  HUDSON AURORA RD HUDSON, OH 44236-2322","bldgnbr":"2400","predir":null,"streetname":"HUDSON AURORA RD","streettype":null,"suffdir":null,"city":"HUDSON","state_code":"OH","zip5":"44236","latitude":"41.2556600000000000","longitude":"-81.418010000000000","publicwifi":"U","url":null,"broadband_type_id":null}
{"id":null,"anchorname":"NORTHCOAST BEHAVIORAL HEALTHCARE SYSTEMS","address":"1756 SAGAMORE RD NORTHFIELD, OH 44067-1086","bldgnbr":"1756","predir":null,"streetname":"SAGAMORE RD","streettype":null,"suffdir":null,"city":"NORTHFIELD","state_code":"OH","zip5":"44067","latitude":"41.3487400000000000","longitude":"-81.574720000000000","publicwifi":"U","url":null,"broadband_type_id":3}
{"id":null,"anchorname":"SAGAMORE HILLS MEDICAL CENTER/SOUTH POINT HOSPITAL","address":"863 WEST AURORA ROAD SAGAMORE HILLS, OH 44067","bldgnbr":"863","predir":null,"streetname":"WEST AURORA ROAD","streettype":null,"suffdir":null,"city":"SAGAMORE HILLS","state_code":"OH","zip5":"44067","latitude":"41.3145900000000000","longitude":"-81.570080000000000","publicwifi":"U","url":null,"broadband_type_id":3}
{"id":null,"anchorname":"BRENTWOOD HEALTH CARE CENTER","address":"907 W AURORA RD SAGAMORE HILLS, OH 44067","bldgnbr":"907","predir":null,"streetname":"W AURORA RD","streettype":null,"suffdir":null,"city":"SAGAMORE HILLS","state_code":"OH","zip5":"44067","latitude":"41.3150200000000000","longitude":"-81.572120000000000","publicwifi":"U","url":null,"broadband_type_id":3}
{"id":null,"anchorname":"SAGAMORE HILLS TOWNSHIP POLICE DEPARTMENT","address":"11551 VALLEY VIEW RD SAGAMORE HILLS, OH 44067-1041","bldgnbr":"11551","predir":null,"streetname":"VALLEY VIEW RD","streettype":null,"suffdir":null,"city":"SAGAMORE HILLS","state_code":"OH","zip5":"44067","latitude":"41.3378500000000000","longitude":"-81.563050000000000","publicwifi":"U","url":null,"broadband_type_id":4}
{"id":null,"anchorname":"SAGAMORE HILLS  POLICE DEPARTMENT","address":"11551 VALLEY VIEW ROAD SAGAMORE HILLS, OH 44067","bldgnbr":"11551","predir":null,"streetname":"VALLEY VIEW ROAD","streettype":null,"suffdir":null,"city":"SAGAMORE HILLS","state_code":"OH","zip5":"44067","latitude":"41.3378500000000000","longitude":"-81.563050000000000","publicwifi":"U","url":null,"broadband_type_id":4}
{"id":null,"anchorname":"NORTHFIELD PARK EMERGENCY MEDICAL SERVICES","address":"9267 FOREST POINT DRIVE MACEDONIA, OH 44056","bldgnbr":"9267","predir":null,"streetname":"FOREST POINT DRIVE","streettype":null,"suffdir":null,"city":"MACEDONIA","state_code":"OH","zip5":"44056","latitude":"41.3289200000000000","longitude":"-81.493560000000000","publicwifi":"U","url":null,"broadband_type_id":3}
{"id":null,"anchorname":"LEDGEVIEW ELEMENTARY SCHOOL","address":"9130 SHEPARD RD MACEDONIA, OH 44056","bldgnbr":"9130","predir":null,"streetname":"SHEPARD RD","streettype":null,"suffdir":null,"city":"MACEDONIA","state_code":"OH","zip5":"44056","latitude":"41.3227500000000000","longitude":"-81.491620000000000","publicwifi":"U","url":null,"broadband_type_id":6}
{"id":null,"anchorname":"WOODRIDGE HIGH SCHOOL","address":"4440 QUICK RD PENINSULA, OH 44264","bldgnbr":"4440","predir":null,"streetname":"QUICK RD","streettype":null,"suffdir":null,"city":"PENINSULA","state_code":"OH","zip5":"44264","latitude":"41.1923100000000000","longitude":"-81.512820000000000","publicwifi":"U","url":null,"broadband_type_id":6}
{"id":null,"anchorname":"WOODRIDGE PRIMARY ELEMENTARY SCHOOL","address":"3313 NORTHAMPTON RD CUYAHOGA FALLS, OH 44223","bldgnbr":"3313","predir":null,"streetname":"NORTHAMPTON RD","streettype":null,"suffdir":null,"city":"CUYAHOGA FALLS","state_code":"OH","zip5":"44223","latitude":"41.1706400000000000","longitude":"-81.534320000000000","publicwifi":"U","url":null,"broadband_type_id":6}
{"id":null,"anchorname":"CUYAHOGA FALLS FIRE DEPARTMENT STATION 4","address":"3089 NORTHAMPTON ROAD CUYAHOGA FALLS, OH 44223","bldgnbr":"3089","predir":null,"streetname":"NORTHAMPTON ROAD","streettype":null,"suffdir":null,"city":"CUYAHOGA FALLS","state_code":"OH","zip5":"44223","latitude":"41.1660900000000000","longitude":"-81.536690000000000","publicwifi":"U","url":null,"broadband_type_id":5}
{"id":null,"anchorname":"WOODRIDGE LOCAL SCHOOL DISTRICT","address":"4411  QUICK RD PENINSULA, OH 44264-9706","bldgnbr":"4411","predir":null,"streetname":"QUICK RD","streettype":null,"suffdir":null,"city":"PENINSULA","state_code":"OH","zip5":"44264","latitude":"41.1917600000000000","longitude":"-81.509240000000000","publicwifi":"U","url":null,"broadband_type_id":6}
{"id":null,"anchorname":"WOODRIDGE MIDDLE SCHOOL","address":"4451 QUICK RD PENINSULA, OH 44264","bldgnbr":"4451","predir":null,"streetname":"QUICK RD","streettype":null,"suffdir":null,"city":"PENINSULA","state_code":"OH","zip5":"44264","latitude":"41.1929800000000000","longitude":"-81.509420000000000","publicwifi":"U","url":null,"broadband_type_id":6}
{"id":null,"anchorname":"WAYSIDE FARM NURSING AND REHAB CENTER","address":"4557 QUICK RD PENINSULA, OH 44264","bldgnbr":"4557","predir":null,"streetname":"QUICK RD","streettype":null,"suffdir":null,"city":"PENINSULA","state_code":"OH","zip5":"44264","latitude":"41.1975500000000000","longitude":"-81.509830000000000","publicwifi":"U","url":null,"broadband_type_id":3}
{"id":null,"anchorname":"CUYAHOGA FALLS FIRE DEPARTMENT STATION 5","address":"3497 WYOGA LAKE ROAD CUYAHOGA FALLS, OH 44224","bldgnbr":"3497","predir":null,"streetname":"WYOGA LAKE ROAD","streettype":null,"suffdir":null,"city":"CUYAHOGA FALLS","state_code":"OH","zip5":"44224","latitude":"41.1640500000000000","longitude":"-81.491550000000000","publicwifi":"U","url":null,"broadband_type_id":5}
{"id":null,"anchorname":"GREEN PRIMARY SCHOOL","address":"2300 GRAYBILL RD UNIONTOWN, OH 44685","bldgnbr":"2300","predir":null,"streetname":"GRAYBILL RD","streettype":null,"suffdir":null,"city":"UNIONTOWN","state_code":"OH","zip5":"44685","latitude":"40.9559570000000000","longitude":"-81.449843000000000","publicwifi":"U","url":null,"broadband_type_id":6}
{"id":null,"anchorname":"ELLSWORTH HILL ELEMENTARY SCHOOL","address":"7750 STOW RD HUDSON, OH 44236","bldgnbr":"7750","predir":null,"streetname":"STOW RD","streettype":null,"suffdir":null,"city":"HUDSON","state_code":"OH","zip5":"44236","latitude":"41.2688370000000000","longitude":"-81.411112000000000","publicwifi":"U","url":null,"broadband_type_id":6}
{"id":null,"anchorname":"HUDSON HIGH SCHOOL","address":"2500 HUDSON AURORA RD HUDSON, OH 44236","bldgnbr":"2500","predir":null,"streetname":"HUDSON AURORA RD","streettype":null,"suffdir":null,"city":"HUDSON","state_code":"OH","zip5":"44236","latitude":"41.2558300000000000","longitude":"-81.414370000000000","publicwifi":"U","url":null,"broadband_type_id":6}
{"id":null,"anchorname":"SETON SCHOOL-HUDSON","address":"6923 STOW RD HUDSON, OH 44236-3240","bldgnbr":"6923","predir":null,"streetname":"STOW RD","streettype":null,"suffdir":null,"city":"HUDSON","state_code":"OH","zip5":"44236","latitude":"41.2462200000000000","longitude":"-81.409830000000000","publicwifi":"U","url":null,"broadband_type_id":6}
{"id":null,"anchorname":"EVAMERE ELEMENTARY SCHOOL","address":"76 N HAYDEN PKWY HUDSON, OH 44236","bldgnbr":"76","predir":null,"streetname":"N HAYDEN PKWY","streettype":null,"suffdir":null,"city":"HUDSON","state_code":"OH","zip5":"44236","latitude":"41.2459100000000000","longitude":"-81.425890000000000","publicwifi":"U","url":null,"broadband_type_id":6}
{"id":null,"anchorname":"UNITED STATES POSTAL SERVICE","address":"488 ANDERSON ST, WILCOX, NE 68825, WILCOX, NE 68825","bldgnbr":"488","predir":null,"streetname":"ANDERSON","streettype":"ST","suffdir":null,"city":"WILCOX","state_code":"NE","zip5":"68825","latitude":"41.5681090000000000","longitude":"-101.06000000000000","publicwifi":"U","url":null,"broadband_type_id":6}
{"id":null,"anchorname":"HUDSON ELMS ASSISTED LIVING","address":"563 W STREETSBORO ST HUDSON, OH 44236","bldgnbr":"563","predir":null,"streetname":"W STREETSBORO ST","streettype":null,"suffdir":null,"city":"HUDSON","state_code":"OH","zip5":"44236","latitude":"41.2356500000000000","longitude":"-81.473680000000000","publicwifi":"U","url":null,"broadband_type_id":6}
{"id":null,"anchorname":"CUY CO TREAS YOUTH SERVICES","address":"996 E HINES HILL RD HUDSON, OH 44236-1620","bldgnbr":"996","predir":null,"streetname":"E HINES HILL RD","streettype":null,"suffdir":null,"city":"HUDSON","state_code":"OH","zip5":"44236","latitude":"41.2585300000000000","longitude":"-81.475090000000000","publicwifi":"U","url":null,"broadband_type_id":6}
{"id":null,"anchorname":"LAUREL LAKE RETIREMENT COMMUNITY","address":"200 LAUREL LAKE DR HUDSON, OH 44236","bldgnbr":"200","predir":null,"streetname":"LAUREL LAKE DR","streettype":null,"suffdir":null,"city":"HUDSON","state_code":"OH","zip5":"44236","latitude":"41.2433300000000000","longitude":"-81.471560000000000","publicwifi":"U","url":null,"broadband_type_id":1}
{"id":null,"anchorname":"FIRST CONGREGATIONAL CH-DC","address":"47 AURORA ST HUDSON, OH 44236-2902","bldgnbr":"47","predir":null,"streetname":"AURORA ST","streettype":null,"suffdir":null,"city":"HUDSON","state_code":"OH","zip5":"44236","latitude":"41.2431500000000000","longitude":"-81.438540000000000","publicwifi":"U","url":null,"broadband_type_id":null}
{"id":null,"anchorname":"TRUMBULL COUNTY DRUG TASK FORCE","address":"605 PANTHER AVE NE WARREN, OH 44483-5143","bldgnbr":"605","predir":null,"streetname":"PANTHER AVE NE","streettype":null,"suffdir":null,"city":"WARREN","state_code":"OH","zip5":"44483","latitude":"41.2428000000000000","longitude":"-80.807320000000000","publicwifi":"U","url":null,"broadband_type_id":4}
{"id":null,"anchorname":"TLC ACADEMY FOR YOUNG CHILDREN","address":"187 RAVENNA ST HUDSON, OH 44236-3466","bldgnbr":"187","predir":null,"streetname":"RAVENNA ST","streettype":null,"suffdir":null,"city":"HUDSON","state_code":"OH","zip5":"44236","latitude":"41.2352600000000000","longitude":"-81.432000000000000","publicwifi":"U","url":null,"broadband_type_id":6}
{"id":null,"anchorname":"COPLEY-FAIRLAWN","address":"3797  RIDGEWOOD RD COPLEY, OH 44321-1665","bldgnbr":"3797","predir":null,"streetname":"RIDGEWOOD RD","streettype":null,"suffdir":null,"city":"COPLEY","state_code":"OH","zip5":"44321","latitude":"41.1115000000000000","longitude":"-81.653200000000000","publicwifi":"U","url":null,"broadband_type_id":null}
{"id":null,"anchorname":"GREENWOOD AT LAUREL LAKE","address":"200 LAUREL LAKE DR HUDSON, OH 44236","bldgnbr":"200","predir":null,"streetname":"LAUREL LAKE DR","streettype":null,"suffdir":null,"city":"HUDSON","state_code":"OH","zip5":"44236","latitude":"41.2433300000000000","longitude":"-81.471560000000000","publicwifi":"U","url":null,"broadband_type_id":null}
{"id":null,"anchorname":"CAMP ROULSTON BOOT CAMP","address":"996 E HINES HILL RD HUDSON, OH 44236-1620","bldgnbr":"996","predir":null,"streetname":"E HINES HILL RD","streettype":null,"suffdir":null,"city":"HUDSON","state_code":"OH","zip5":"44236","latitude":"41.2585300000000000","longitude":"-81.475090000000000","publicwifi":"U","url":null,"broadband_type_id":null}
{"id":null,"anchorname":"EAST WOODS ELEMENTARY SCHOOL","address":"120 N HAYDEN PKWY HUDSON, OH 44236","bldgnbr":"120","predir":null,"streetname":"N HAYDEN PKWY","streettype":null,"suffdir":null,"city":"HUDSON","state_code":"OH","zip5":"44236","latitude":"41.2452000000000000","longitude":"-81.423060000000000","publicwifi":"U","url":null,"broadband_type_id":6}
{"id":null,"anchorname":"MCDOWELL ELEMENTARY SCHOOL","address":"280 N HAYDEN PKWY HUDSON, OH 44236","bldgnbr":"280","predir":null,"streetname":"N HAYDEN PKWY","streettype":null,"suffdir":null,"city":"HUDSON","state_code":"OH","zip5":"44236","latitude":"41.2496700000000000","longitude":"-81.425250000000000","publicwifi":"U","url":null,"broadband_type_id":6}
{"id":null,"anchorname":"HUDSON POLICE DEPARTMENT","address":"36 SOUTH OVIATT STREET HUDSON, OH 44236","bldgnbr":"36","predir":null,"streetname":"SOUTH OVIATT STREET","streettype":null,"suffdir":null,"city":"HUDSON","state_code":"OH","zip5":"44236","latitude":"41.2384000000000000","longitude":"-81.437370000000000","publicwifi":"U","url":null,"broadband_type_id":4}
{"id":null,"anchorname":"HUDSON EMERGENCY MEDICAL SERVICES","address":"40 SOUTH OVIATT STREET HUDSON, OH 44236","bldgnbr":"40","predir":null,"streetname":"SOUTH OVIATT STREET","streettype":null,"suffdir":null,"city":"HUDSON","state_code":"OH","zip5":"44236","latitude":"41.2374300000000000","longitude":"-81.436120000000000","publicwifi":"U","url":null,"broadband_type_id":3}
{"id":null,"anchorname":"HUDSON FIRE DEPARTMENT","address":"40 SOUTH OVIATT STREET HUDSON, OH 44236","bldgnbr":"40","predir":null,"streetname":"SOUTH OVIATT STREET","streettype":null,"suffdir":null,"city":"HUDSON","state_code":"OH","zip5":"44236","latitude":"41.2374300000000000","longitude":"-81.436120000000000","publicwifi":"U","url":null,"broadband_type_id":5}
{"id":null,"anchorname":"CHASE SCHOOL OF MEDICAL TRANSCRIPTION","address":"5685 HUDSON INDUSTRIAL PKWY STE. 1 HUDSON, OH 44236","bldgnbr":"5685","predir":null,"streetname":"HUDSON INDUSTRIAL PKWY STE. 1","streettype":null,"suffdir":null,"city":"HUDSON","state_code":"OH","zip5":"44236","latitude":"41.2164080000000000","longitude":"-81.427842000000000","publicwifi":"U","url":null,"broadband_type_id":3}
{"id":null,"anchorname":"RIDGEWOOD HEALTH CARE CENTER","address":"3558 RIDGEWOOD RD AKRON, OH 44333","bldgnbr":"3558","predir":null,"streetname":"RIDGEWOOD RD","streettype":null,"suffdir":null,"city":"AKRON","state_code":"OH","zip5":"44333","latitude":"41.1077700000000000","longitude":"-81.640320000000000","publicwifi":"U","url":null,"broadband_type_id":3}
{"id":null,"anchorname":"ARROWHEAD PRIMARY ELEMENTARY SCHOOL","address":"1600 RALEIGH BLVD COPLEY, OH 44321","bldgnbr":"1600","predir":null,"streetname":"RALEIGH BLVD","streettype":null,"suffdir":null,"city":"COPLEY","state_code":"OH","zip5":"44321","latitude":"41.0911000000000000","longitude":"-81.639140000000000","publicwifi":"U","url":null,"broadband_type_id":6}
{"id":null,"anchorname":"COPLEY-FAIRLAWN MIDDLE SCHOOL","address":"1531 S CLEVELAND MASSILLON RD COPLEY, OH 44321","bldgnbr":"1531","predir":null,"streetname":"S CLEVELAND MASSILLON RD","streettype":null,"suffdir":null,"city":"COPLEY","state_code":"OH","zip5":"44321","latitude":"41.0977600000000000","longitude":"-81.642590000000000","publicwifi":"U","url":null,"broadband_type_id":6}
{"id":null,"anchorname":"LORANTFFY NURSING CARE CENTER","address":"2631 COPLEY RD COPLEY, OH 44321","bldgnbr":"2631","predir":null,"streetname":"COPLEY RD","streettype":null,"suffdir":null,"city":"COPLEY","state_code":"OH","zip5":"44321","latitude":"41.0915400000000000","longitude":"-81.613250000000000","publicwifi":"U","url":null,"broadband_type_id":3}
{"id":null,"anchorname":"COPLEY HEALTH CENTER","address":"155 HERITAGE WOODS DR COPLEY, OH 44321","bldgnbr":"155","predir":null,"streetname":"HERITAGE WOODS DR","streettype":null,"suffdir":null,"city":"COPLEY","state_code":"OH","zip5":"44321","latitude":"41.1307200000000000","longitude":"-81.657500000000000","publicwifi":"U","url":null,"broadband_type_id":3}
{"id":null,"anchorname":"OHIO COLLEGE OF MASSOTHERAPY INC","address":"225 HERITAGE WOODS DR AKRON, OH 44321","bldgnbr":"225","predir":null,"streetname":"HERITAGE WOODS DR","streettype":null,"suffdir":null,"city":"AKRON","state_code":"OH","zip5":"44321","latitude":"41.1290060000000000","longitude":"-81.657700000000000","publicwifi":"U","url":null,"broadband_type_id":6}
{"id":null,"anchorname":"BATH FIRE DEPARTMENT STATION 2","address":"4570 MEDINA ROAD AKRON, OH 44321","bldgnbr":"4570","predir":null,"streetname":"MEDINA ROAD","streettype":null,"suffdir":null,"city":"AKRON","state_code":"OH","zip5":"44321","latitude":"41.1351400000000000","longitude":"-81.663520000000000","publicwifi":"U","url":null,"broadband_type_id":5}
{"id":null,"anchorname":"COPLEY FIRE DEPARTMENT STATION 2","address":"4570 MEDINA ROAD AKRON, OH 44321","bldgnbr":"4570","predir":null,"streetname":"MEDINA ROAD","streettype":null,"suffdir":null,"city":"AKRON","state_code":"OH","zip5":"44321","latitude":"41.1351400000000000","longitude":"-81.663520000000000","publicwifi":"U","url":null,"broadband_type_id":5}
{"id":null,"anchorname":"COPLEY HIGH SCHOOL","address":"3807 RIDGEWOOD RD COPLEY, OH 44321","bldgnbr":"3807","predir":null,"streetname":"RIDGEWOOD RD","streettype":null,"suffdir":null,"city":"COPLEY","state_code":"OH","zip5":"44321","latitude":"41.1127900000000000","longitude":"-81.649110000000000","publicwifi":"U","url":null,"broadband_type_id":6}
{"id":null,"anchorname":"COPLEY POLICE DEPARTMENT","address":"1280 SUNSET DR COPLEY, OH 44321-1605","bldgnbr":"1280","predir":null,"streetname":"SUNSET DR","streettype":null,"suffdir":null,"city":"COPLEY","state_code":"OH","zip5":"44321","latitude":"41.1003300000000000","longitude":"-81.647260000000000","publicwifi":"U","url":null,"broadband_type_id":4}
{"id":null,"anchorname":"COPLEY TOWNSHIP POLICE AND FIRE","address":"1280 SUNSET DRIVE COPLEY, OH 44321","bldgnbr":"1280","predir":null,"streetname":"SUNSET DRIVE","streettype":null,"suffdir":null,"city":"COPLEY","state_code":"OH","zip5":"44321","latitude":"41.1003300000000000","longitude":"-81.647260000000000","publicwifi":"U","url":null,"broadband_type_id":4}
{"id":null,"anchorname":"COPLEY FIRE DEPARTMENT STATION 1","address":"1540 SOUTH CLEVELAND MASSILLON ROAD COPLEY, OH 44321","bldgnbr":"1540","predir":null,"streetname":"SOUTH CLEVELAND MASSILLON ROAD","streettype":null,"suffdir":null,"city":"COPLEY","state_code":"OH","zip5":"44321","latitude":"41.0962900000000000","longitude":"-81.645290000000000","publicwifi":"U","url":null,"broadband_type_id":5}
{"id":null,"anchorname":"HUDSON ELMS NURSING HOME","address":"563 W STREETSBORO ST # 1 HUDSON, OH 44236","bldgnbr":"563","predir":null,"streetname":"W STREETSBORO ST # 1","streettype":null,"suffdir":null,"city":"HUDSON","state_code":"OH","zip5":"44236","latitude":"41.2343900000000000","longitude":"-81.472240000000000","publicwifi":"U","url":null,"broadband_type_id":3}
{"id":null,"anchorname":"HUDSON LIBRARY AND HISTORICAL SOCIETY","address":"96 LIBRARY ST HUDSON, OH 44236-5122","bldgnbr":"96","predir":null,"streetname":"LIBRARY ST","streettype":null,"suffdir":null,"city":"HUDSON","state_code":"OH","zip5":"44236","latitude":"41.2418000000000000","longitude":"-81.444230000000000","publicwifi":"Y","url":null,"broadband_type_id":6}
{"id":null,"anchorname":"KIDS-PLAY CHILD CARE LEARNING","address":"5778 DARROW RD HUDSON, OH 44236-3808","bldgnbr":"5778","predir":null,"streetname":"DARROW RD","streettype":null,"suffdir":null,"city":"HUDSON","state_code":"OH","zip5":"44236","latitude":"41.2225200000000000","longitude":"-81.441200000000000","publicwifi":"U","url":null,"broadband_type_id":3}
{"id":null,"anchorname":"WARREN FIRE DEPARTMENT - ATLANTIC STREET STATION","address":"1600 ATLANTIC STREET NORTHEAST WARREN, OH 44483","bldgnbr":"1600","predir":null,"streetname":"ATLANTIC STREET NORTHEAST","streettype":null,"suffdir":null,"city":"WARREN","state_code":"OH","zip5":"44483","latitude":"41.2456900000000000","longitude":"-80.796960000000000","publicwifi":"U","url":null,"broadband_type_id":5}
{"id":null,"anchorname":"NORTHEAST OHIO DENTAL ASSISTING SCHOOL","address":"1565 WOODLAND AVE WARREN, OH 44483","bldgnbr":"1565","predir":null,"streetname":"WOODLAND AVE","streettype":null,"suffdir":null,"city":"WARREN","state_code":"OH","zip5":"44483","latitude":"41.2411580000000000","longitude":"-80.797105000000000","publicwifi":"U","url":null,"broadband_type_id":6}
{"id":null,"anchorname":"WARREN G HARDING HIGH SCHOOL","address":"860 ELM RD NE WARREN, OH 44483","bldgnbr":"860","predir":null,"streetname":"ELM RD NE","streettype":null,"suffdir":null,"city":"WARREN","state_code":"OH","zip5":"44483","latitude":"41.2440800000000000","longitude":"-80.806260000000000","publicwifi":"U","url":null,"broadband_type_id":6}
{"id":null,"anchorname":"TRUMBULL MEMORIAL HOSPITAL","address":"1350 EAST MARKET STREET WARREN, OH 44483","bldgnbr":"1350","predir":null,"streetname":"EAST MARKET STREET","streettype":null,"suffdir":null,"city":"WARREN","state_code":"OH","zip5":"44483","latitude":"41.2363100000000000","longitude":"-80.799850000000000","publicwifi":"U","url":null,"broadband_type_id":3}
{"id":null,"anchorname":"WARREN FIRE DEPARTMENT STATION 1","address":"111 SOUTH STREET SOUTHWEST WARREN, OH 44483","bldgnbr":"111","predir":null,"streetname":"SOUTH STREET SOUTHWEST","streettype":null,"suffdir":null,"city":"WARREN","state_code":"OH","zip5":"44483","latitude":"41.2339100000000000","longitude":"-80.818050000000000","publicwifi":"U","url":null,"broadband_type_id":5}
{"id":null,"anchorname":"WARREN-TRUMBULL COMMUNITY SVC","address":"418 MAIN AVE SW WARREN, OH 44481-1060","bldgnbr":"418","predir":null,"streetname":"MAIN AVE SW","streettype":null,"suffdir":null,"city":"WARREN","state_code":"OH","zip5":"44481","latitude":"41.2330400000000000","longitude":"-80.820020000000000","publicwifi":"U","url":null,"broadband_type_id":1}
{"id":null,"anchorname":"TRUMBULL COMMUNITY ACTION PROGRAM","address":"1230 PALMYRA RD SW WARREN, OH 44485-3730","bldgnbr":"1230","predir":null,"streetname":"PALMYRA RD SW","streettype":null,"suffdir":null,"city":"WARREN","state_code":"OH","zip5":"44485","latitude":"41.2270700000000000","longitude":"-80.834940000000000","publicwifi":"U","url":null,"broadband_type_id":1}
{"id":null,"anchorname":"ENRICHMENT CENTER BUILDING 2","address":"2120 VAN WYE ST SE WARREN, OH 44484","bldgnbr":"2120","predir":null,"streetname":"VAN WYE ST SE","streettype":null,"suffdir":null,"city":"WARREN","state_code":"OH","zip5":"44484","latitude":"41.2162100000000000","longitude":"-80.794090000000000","publicwifi":"U","url":null,"broadband_type_id":null}
{"id":null,"anchorname":"WTCSA HEAD START-FAIRVIEW","address":"2035 BENTON ST SE WARREN, OH 44484-5304","bldgnbr":"2035","predir":null,"streetname":"BENTON ST SE","streettype":null,"suffdir":null,"city":"WARREN","state_code":"OH","zip5":"44484","latitude":"41.2147500000000000","longitude":"-80.794420000000000","publicwifi":"U","url":null,"broadband_type_id":null}
{"id":null,"anchorname":"TOD #5 HEAD START","address":"910 5TH ST SW WARREN, OH 44485-3819","bldgnbr":"910","predir":null,"streetname":"5TH ST SW","streettype":null,"suffdir":null,"city":"WARREN","state_code":"OH","zip5":"44485","latitude":"41.2219200000000000","longitude":"-80.830170000000000","publicwifi":"U","url":null,"broadband_type_id":null}
{"id":null,"anchorname":"EASTERN LEARNING CENTER","address":"300 W EISENHOWER AVE, NORFOLK, NE 68701, NORFOLK, NE 68701","bldgnbr":"300","predir":"W","streetname":"EISENHOWER","streettype":"AVE","suffdir":null,"city":"NORFOLK","state_code":"NE","zip5":"68701","latitude":"42.0617918720000000","longitude":"-97.410059805000000","publicwifi":"U","url":null,"broadband_type_id":6}
{"id":null,"anchorname":"PALMER JUNIOR-SENIOR HIGH","address":"202 COMMERCIAL, PALMER, NE 68864, PALMER, NE 68864","bldgnbr":"202","predir":null,"streetname":"COMMERCIAL","streettype":null,"suffdir":null,"city":"PALMER","state_code":"NE","zip5":"68864","latitude":"41.2221263770000000","longitude":"-98.269092187000000","publicwifi":"U","url":null,"broadband_type_id":6}
{"id":null,"anchorname":"HOPE ACADEMY FOR AUTISM","address":"1628 NILES RD SE WARREN, OH 44484","bldgnbr":"1628","predir":null,"streetname":"NILES RD SE","streettype":null,"suffdir":null,"city":"WARREN","state_code":"OH","zip5":"44484","latitude":"41.2240760000000000","longitude":"-80.800223000000000","publicwifi":"U","url":null,"broadband_type_id":6}
{"id":null,"anchorname":"WTCSA DAY START","address":"1230 PALMYRA RD SW WARREN, OH 44485-3730","bldgnbr":"1230","predir":null,"streetname":"PALMYRA RD SW","streettype":null,"suffdir":null,"city":"WARREN","state_code":"OH","zip5":"44485","latitude":"41.2270700000000000","longitude":"-80.834940000000000","publicwifi":"U","url":null,"broadband_type_id":null}
{"id":null,"anchorname":"TRUMBULL CORRECTIONAL INSTITUTION","address":"5701 BURNETT RD LEAVITTSBURG, OH 44430","bldgnbr":"5701","predir":null,"streetname":"BURNETT RD","streettype":null,"suffdir":null,"city":"LEAVITTSBURG","state_code":"OH","zip5":"44430","latitude":"41.2307900000000000","longitude":"-80.902680000000000","publicwifi":"U","url":null,"broadband_type_id":null}
{"id":null,"anchorname":"WTCSA CHRIST OUR KING HEAD START","address":"1150 TOD AVE SW WARREN, OH 44485-3805","bldgnbr":"1150","predir":null,"streetname":"TOD AVE SW","streettype":null,"suffdir":null,"city":"WARREN","state_code":"OH","zip5":"44485","latitude":"41.2246000000000000","longitude":"-80.831470000000000","publicwifi":"U","url":null,"broadband_type_id":6}
{"id":null,"anchorname":"WTCSA HEAD START-WEST CENTER","address":"1230 PALMYRA RD SW WARREN, OH 44485-3730","bldgnbr":"1230","predir":null,"streetname":"PALMYRA RD SW","streettype":null,"suffdir":null,"city":"WARREN","state_code":"OH","zip5":"44485","latitude":"41.2270700000000000","longitude":"-80.834940000000000","publicwifi":"U","url":null,"broadband_type_id":6}
{"id":null,"anchorname":"TRUMBULL COUNTY COURT OF COMMON PLEAS DOMESTIC RELATIONS AND JUVENILE DIVISIONS","address":"220 MAIN AVE SW WARREN, OH 44481-1011","bldgnbr":"220","predir":null,"streetname":"MAIN AVE SW","streettype":null,"suffdir":null,"city":"WARREN","state_code":"OH","zip5":"44481","latitude":"41.2345900000000000","longitude":"-80.820110000000000","publicwifi":"U","url":null,"broadband_type_id":6}
{"id":null,"anchorname":"A PLAYTIME PALACE INC","address":"3400 W MARKET ST WARREN, OH 44485-3087","bldgnbr":"3400","predir":null,"streetname":"W MARKET ST","streettype":null,"suffdir":null,"city":"WARREN","state_code":"OH","zip5":"44485","latitude":"41.2385300000000000","longitude":"-80.863830000000000","publicwifi":"U","url":null,"broadband_type_id":null}
{"id":null,"anchorname":"LEARNING EXPRESS","address":"1995 COIT DR NW WARREN, OH 44485-1769","bldgnbr":"1995","predir":null,"streetname":"COIT DR NW","streettype":null,"suffdir":null,"city":"WARREN","state_code":"OH","zip5":"44485","latitude":"41.2510900000000000","longitude":"-80.852670000000000","publicwifi":"U","url":null,"broadband_type_id":6}
{"id":null,"anchorname":"SUMMIT ACADEMY ALTERNATIVE LEARNERSWARREN MIDDLE \u0026 SECONDARY","address":"1461 MONCREST DR NW WARREN, OH 44485","bldgnbr":"1461","predir":null,"streetname":"MONCREST DR NW","streettype":null,"suffdir":null,"city":"WARREN","state_code":"OH","zip5":"44485","latitude":"41.2485310000000000","longitude":"-80.841293000000000","publicwifi":"U","url":null,"broadband_type_id":6}
{"id":null,"anchorname":"OHIO BUREAU OF MOTOR VEHICLES","address":"2027 ELM RD NE WARREN, OH 44483-4003","bldgnbr":"2027","predir":null,"streetname":"ELM RD NE","streettype":null,"suffdir":null,"city":"WARREN","state_code":"OH","zip5":"44483","latitude":"41.2536960000000000","longitude":"-80.792248000000000","publicwifi":"U","url":null,"broadband_type_id":6}
{"id":null,"anchorname":"COMMUNITY COMMONS ASSISTED LIVING","address":"1340 MAHONING AVE NW WARREN, OH 44483","bldgnbr":"1340","predir":null,"streetname":"MAHONING AVE NW","streettype":null,"suffdir":null,"city":"WARREN","state_code":"OH","zip5":"44483","latitude":"41.2476700000000000","longitude":"-80.827510000000000","publicwifi":"U","url":null,"broadband_type_id":6}
{"id":null,"anchorname":"WESTERN RESERVE COUNCIL","address":"1662 MAHONING AVE NW WARREN, OH 44483-2007","bldgnbr":"1662","predir":null,"streetname":"MAHONING AVE NW","streettype":null,"suffdir":null,"city":"WARREN","state_code":"OH","zip5":"44483","latitude":"41.2507700000000000","longitude":"-80.829020000000000","publicwifi":"U","url":null,"broadband_type_id":6}
{"id":null,"anchorname":"OHIO BUREAU OF MOTOR VEHICLES","address":"2750 MAHONING AVE NW WARREN, OH 44483-2000","bldgnbr":"2750","predir":null,"streetname":"MAHONING AVE NW","streettype":null,"suffdir":null,"city":"WARREN","state_code":"OH","zip5":"44483","latitude":"41.2598570000000000","longitude":"-80.833630000000000","publicwifi":"U","url":null,"broadband_type_id":6}
{"id":null,"anchorname":"NOTRE DAME-QUEEN ALL SAINTS","address":"3000  REEVES RD NE WARREN, OH 44483-3616","bldgnbr":"3000","predir":null,"streetname":"REEVES RD NE","streettype":null,"suffdir":null,"city":"WARREN","state_code":"OH","zip5":"44483","latitude":"41.2535800000000000","longitude":"-80.775820000000000","publicwifi":"U","url":null,"broadband_type_id":null}
{"id":null,"anchorname":"SECOND BAPTIST PRESCHOOL CTR","address":"1510 MAIN AVE SW WARREN, OH 44483-6520","bldgnbr":"1510","predir":null,"streetname":"MAIN AVE SW","streettype":null,"suffdir":null,"city":"WARREN","state_code":"OH","zip5":"44483","latitude":"41.2216500000000000","longitude":"-80.818150000000000","publicwifi":"U","url":null,"broadband_type_id":6}
{"id":null,"anchorname":"WARREN CITY PRACTICAL NURSING","address":"200 LOVELESS AVE SW WARREN, OH 44485-3483","bldgnbr":"200","predir":null,"streetname":"LOVELESS AVE SW","streettype":null,"suffdir":null,"city":"WARREN","state_code":"OH","zip5":"44485","latitude":"41.2337200000000000","longitude":"-80.849480000000000","publicwifi":"U","url":null,"broadband_type_id":3}
{"id":null,"anchorname":"WARREN TOWNSHIP POLICE DEPARTMENT","address":"3765 WEST MARKET STREET LEAVITTSBURG, OH 44430-0303","bldgnbr":"3765","predir":null,"streetname":"WEST MARKET STREET","streettype":null,"suffdir":null,"city":"LEAVITTSBURG","state_code":"OH","zip5":"44430","latitude":"41.2380700000000000","longitude":"-80.868774000000000","publicwifi":"U","url":null,"broadband_type_id":4}
{"id":null,"anchorname":"IMPERIAL SKILLED CARE CENTER","address":"4121 TOD AVE NW WARREN, OH 44485","bldgnbr":"4121","predir":null,"streetname":"TOD AVE NW","streettype":null,"suffdir":null,"city":"WARREN","state_code":"OH","zip5":"44485","latitude":"41.2614500000000000","longitude":"-80.858080000000000","publicwifi":"U","url":null,"broadband_type_id":3}
{"id":null,"anchorname":"JUBILEE WEE CARE DAY CARE","address":"2976 REGAL DR NW WARREN, OH 44485-1246","bldgnbr":"2976","predir":null,"streetname":"REGAL DR NW","streettype":null,"suffdir":null,"city":"WARREN","state_code":"OH","zip5":"44485","latitude":"41.2595200000000000","longitude":"-80.859990000000000","publicwifi":"U","url":null,"broadband_type_id":3}
{"id":null,"anchorname":"MCGUFFEY PK-8 SCHOOL","address":"3465 TOD AVE NW WARREN, OH 44485","bldgnbr":"3465","predir":null,"streetname":"TOD AVE NW","streettype":null,"suffdir":null,"city":"WARREN","state_code":"OH","zip5":"44485","latitude":"41.2621200000000000","longitude":"-80.846790000000000","publicwifi":"U","url":null,"broadband_type_id":6}
{"id":null,"anchorname":"WARREN FIRE DEPARTMENT - PARKMAN ROAD STATION","address":"2454 PARKMAN ROAD NORTHWEST WARREN, OH 44485","bldgnbr":"2454","predir":null,"streetname":"PARKMAN ROAD NORTHWEST","streettype":null,"suffdir":null,"city":"WARREN","state_code":"OH","zip5":"44485","latitude":"41.2511200000000000","longitude":"-80.853620000000000","publicwifi":"U","url":null,"broadband_type_id":5}
{"id":null,"anchorname":"COMMUNITY SKILLED HEALTHCARE CENTER","address":"1320 MAHONING AVE NW WARREN, OH 44483","bldgnbr":"1320","predir":null,"streetname":"MAHONING AVE NW","streettype":null,"suffdir":null,"city":"WARREN","state_code":"OH","zip5":"44483","latitude":"41.2472500000000000","longitude":"-80.827300000000000","publicwifi":"U","url":null,"broadband_type_id":3}
{"id":null,"anchorname":"HORIZON VILLAGE NURSING AND REHAB CTR","address":"2473 NORTH RD NE WARREN, OH 44483","bldgnbr":"2473","predir":null,"streetname":"NORTH RD NE","streettype":null,"suffdir":null,"city":"WARREN","state_code":"OH","zip5":"44483","latitude":"41.2633600000000000","longitude":"-80.774660000000000","publicwifi":"U","url":null,"broadband_type_id":3}
{"id":null,"anchorname":"BELIEVERS' DAY CARE","address":"2577 SCHENLEY AVE NE WARREN, OH 44483-2507","bldgnbr":"2577","predir":null,"streetname":"SCHENLEY AVE NE","streettype":null,"suffdir":null,"city":"WARREN","state_code":"OH","zip5":"44483","latitude":"41.2618000000000000","longitude":"-80.784830000000000","publicwifi":"U","url":null,"broadband_type_id":3}
{"id":null,"anchorname":"GILLETTE NURSING HOME INC","address":"3310 ELM RD NE WARREN, OH 44483","bldgnbr":"3310","predir":null,"streetname":"ELM RD NE","streettype":null,"suffdir":null,"city":"WARREN","state_code":"OH","zip5":"44483","latitude":"41.2646600000000000","longitude":"-80.782920000000000","publicwifi":"U","url":null,"broadband_type_id":3}
{"id":null,"anchorname":"HOWLAND TOWNSHIP FIRE DEPARTMENT STATION 32","address":"2180 WILSON AVENUE NORTHEAST WARREN, OH 44483","bldgnbr":"2180","predir":null,"streetname":"WILSON AVENUE NORTHEAST","streettype":null,"suffdir":null,"city":"WARREN","state_code":"OH","zip5":"44483","latitude":"41.2583200000000000","longitude":"-80.787900000000000","publicwifi":"U","url":null,"broadband_type_id":5}
{"id":null,"anchorname":"WARREN TOWNSHIP FIRE DEPARTMENT STATION 2","address":"750 NORTH RIVER ROAD WARREN, OH 44483","bldgnbr":"750","predir":null,"streetname":"NORTH RIVER ROAD","streettype":null,"suffdir":null,"city":"WARREN","state_code":"OH","zip5":"44483","latitude":"41.2572000000000000","longitude":"-80.810000000000000","publicwifi":"U","url":null,"broadband_type_id":5}
{"id":null,"anchorname":"WINDSOR HOUSE AT CHAMPION NURSING HOME","address":"200 E GLENDOLA AVE WARREN, OH 44483","bldgnbr":"200","predir":null,"streetname":"E GLENDOLA AVE","streettype":null,"suffdir":null,"city":"WARREN","state_code":"OH","zip5":"44483","latitude":"41.2572000000000000","longitude":"-80.810000000000000","publicwifi":"U","url":null,"broadband_type_id":3}
{"id":null,"anchorname":"TRUMBULL CO. CHILDREN'S CTR.","address":"2282 REEVES RD NE WARREN, OH 44483-4300","bldgnbr":"2282","predir":null,"streetname":"REEVES RD NE","streettype":null,"suffdir":null,"city":"WARREN","state_code":"OH","zip5":"44483","latitude":"41.2532100000000000","longitude":"-80.787050000000000","publicwifi":"U","url":null,"broadband_type_id":null}
{"id":null,"anchorname":"NORFOLK LEARNING CENTER","address":"600 SPRUCE, NORFOLK, NE 68701, NORFOLK, NE 68701","bldgnbr":"600","predir":null,"streetname":"SPRUCE","streettype":null,"suffdir":null,"city":"NORFOLK","state_code":"NE","zip5":"68701","latitude":"42.0411220480000000","longitude":"-97.415324107000000","publicwifi":"U","url":null,"broadband_type_id":6}
{"id":null,"anchorname":"TRUMBULL COUNTY EDUCATIONAL SERVICE CENTER","address":"707 NORTH RD SE WARREN, OH 44484-4835","bldgnbr":"707","predir":null,"streetname":"NORTH RD SE","streettype":null,"suffdir":null,"city":"WARREN","state_code":"OH","zip5":"44484","latitude":"41.2304000000000000","longitude":"-80.764090000000000","publicwifi":"U","url":null,"broadband_type_id":6}
{"id":null,"anchorname":"WTCSA HEAD START-ST JAMES CENTER","address":"2016 ARBOR AVE SE WARREN, OH 44484-5016","bldgnbr":"2016","predir":null,"streetname":"ARBOR AVE SE","streettype":null,"suffdir":null,"city":"WARREN","state_code":"OH","zip5":"44484","latitude":"41.2215600000000000","longitude":"-80.786300000000000","publicwifi":"U","url":null,"broadband_type_id":6}
{"id":null,"anchorname":"SHEPHERD'S ACADEMY","address":"2627 ATLANTIC ST NE WARREN, OH 44483-4423","bldgnbr":"2627","predir":null,"streetname":"ATLANTIC ST NE","streettype":null,"suffdir":null,"city":"WARREN","state_code":"OH","zip5":"44483","latitude":"41.2470700000000000","longitude":"-80.785750000000000","publicwifi":"U","url":null,"broadband_type_id":6}
{"id":null,"anchorname":"TRUMBULL METRO HOUS AUTHORITY","address":"1977 NILES RD SE WARREN, OH 44484-5118","bldgnbr":"1977","predir":null,"streetname":"NILES RD SE","streettype":null,"suffdir":null,"city":"WARREN","state_code":"OH","zip5":"44484","latitude":"41.2216200000000000","longitude":"-80.796660000000000","publicwifi":"U","url":null,"broadband_type_id":null}
{"id":null,"anchorname":"ALLIANCE COMM OUTREACH-ACOP","address":"2051 NILES RD SE WARREN, OH 44484-5152","bldgnbr":"2051","predir":null,"streetname":"NILES RD SE","streettype":null,"suffdir":null,"city":"WARREN","state_code":"OH","zip5":"44484","latitude":"41.2209600000000000","longitude":"-80.796040000000000","publicwifi":"U","url":null,"broadband_type_id":null}
{"id":null,"anchorname":"TOD #8 HEAD START","address":"2106 ARBOR AVE SE WARREN, OH 44484-5225","bldgnbr":"2106","predir":null,"streetname":"ARBOR AVE SE","streettype":null,"suffdir":null,"city":"WARREN","state_code":"OH","zip5":"44484","latitude":"41.2204500000000000","longitude":"-80.786280000000000","publicwifi":"U","url":null,"broadband_type_id":null}
{"id":null,"anchorname":"TOD #4 HEAD START","address":"2609 DRAPER AVE SE WARREN, OH 44484-5406","bldgnbr":"2609","predir":null,"streetname":"DRAPER AVE SE","streettype":null,"suffdir":null,"city":"WARREN","state_code":"OH","zip5":"44484","latitude":"41.2139000000000000","longitude":"-80.787730000000000","publicwifi":"U","url":null,"broadband_type_id":null}
{"id":null,"anchorname":"TOD #9 HEAD START","address":"2609 DRAPER AVE SE WARREN, OH 44484-5406","bldgnbr":"2609","predir":null,"streetname":"DRAPER AVE SE","streettype":null,"suffdir":null,"city":"WARREN","state_code":"OH","zip5":"44484","latitude":"41.2139000000000000","longitude":"-80.787730000000000","publicwifi":"U","url":null,"broadband_type_id":null}
{"id":null,"anchorname":"KINSMAN HEAD START CENTER","address":"7679 STATE ROUTE 5 KINSMAN, OH 44428-9731","bldgnbr":"7679","predir":null,"streetname":"STATE ROUTE 5","streettype":null,"suffdir":null,"city":"KINSMAN","state_code":"OH","zip5":"44428","latitude":"41.4295000000000000","longitude":"-80.600950000000000","publicwifi":"U","url":null,"broadband_type_id":null}
{"id":null,"anchorname":"KINSMAN HEAD START","address":"7379 STATE ROUTE 5 KINSMAN, OH 44428-9782","bldgnbr":"7379","predir":null,"streetname":"STATE ROUTE 5","streettype":null,"suffdir":null,"city":"KINSMAN","state_code":"OH","zip5":"44428","latitude":"41.4227300000000000","longitude":"-80.600580000000000","publicwifi":"U","url":null,"broadband_type_id":null}
{"id":null,"anchorname":"MEADOWBROOK MANOR","address":"3090 FIVE POINTS HARTFORD RD FOWLER, OH 44418","bldgnbr":"3090","predir":null,"streetname":"FIVE POINTS HARTFORD RD","streettype":null,"suffdir":null,"city":"FOWLER","state_code":"OH","zip5":"44418","latitude":"41.3037700000000000","longitude":"-80.571430000000000","publicwifi":"U","url":null,"broadband_type_id":null}
{"id":null,"anchorname":"WTCSA HEAD START-MAPLEWOOD CENTER","address":"4174 GREENVILLE RD CORTLAND, OH 44410-9750","bldgnbr":"4174","predir":null,"streetname":"GREENVILLE RD","streettype":null,"suffdir":null,"city":"CORTLAND","state_code":"OH","zip5":"44410","latitude":"41.3890200000000000","longitude":"-80.672250000000000","publicwifi":"U","url":null,"broadband_type_id":null}
{"id":null,"anchorname":"ST JOSEPH HEALTH CENTER-PCU","address":"667 EASTLAND AVE SE WARREN, OH 44484","bldgnbr":"667","predir":null,"streetname":"EASTLAND AVE SE","streettype":null,"suffdir":null,"city":"WARREN","state_code":"OH","zip5":"44484","latitude":"41.2312900000000000","longitude":"-80.778160000000000","publicwifi":"U","url":null,"broadband_type_id":3}
{"id":null,"anchorname":"SAINT JOSEPH HEALTH CENTER","address":"667 EASTLAND AVENUE WARREN, OH 44484","bldgnbr":"667","predir":null,"streetname":"EASTLAND AVENUE","streettype":null,"suffdir":null,"city":"WARREN","state_code":"OH","zip5":"44484","latitude":"41.2312900000000000","longitude":"-80.778160000000000","publicwifi":"U","url":null,"broadband_type_id":3}
{"id":null,"anchorname":"NORTH RD ELEMENTARY SCHOOL","address":"863 NORTH RD SE WARREN, OH 44484","bldgnbr":"863","predir":null,"streetname":"NORTH RD SE","streettype":null,"suffdir":null,"city":"WARREN","state_code":"OH","zip5":"44484","latitude":"41.2275400000000000","longitude":"-80.764110000000000","publicwifi":"U","url":null,"broadband_type_id":6}
{"id":null,"anchorname":"WILLARD AVENUE PK-8 SCHOOL","address":"2020 WILLARD AVE SE WARREN, OH 44484","bldgnbr":"2020","predir":null,"streetname":"WILLARD AVE SE","streettype":null,"suffdir":null,"city":"WARREN","state_code":"OH","zip5":"44484","latitude":"41.2213570000000000","longitude":"-80.789417000000000","publicwifi":"U","url":null,"broadband_type_id":6}
{"id":null,"anchorname":"SUMMIT ACADEMY COMMUNITY SCHOOL-WARREN","address":"2106 ARBOR AVE SE WARREN, OH 44484","bldgnbr":"2106","predir":null,"streetname":"ARBOR AVE SE","streettype":null,"suffdir":null,"city":"WARREN","state_code":"OH","zip5":"44484","latitude":"41.2203620000000000","longitude":"-80.786507000000000","publicwifi":"U","url":null,"broadband_type_id":6}
{"id":null,"anchorname":"RIDGE CREST CARE CENTER","address":"1926 RIDGE AVE SE WARREN, OH 44484","bldgnbr":"1926","predir":null,"streetname":"RIDGE AVE SE","streettype":null,"suffdir":null,"city":"WARREN","state_code":"OH","zip5":"44484","latitude":"41.2193100000000000","longitude":"-80.780140000000000","publicwifi":"U","url":null,"broadband_type_id":3}
{"id":null,"anchorname":"HOWLAND TOWNSHIP FIRE DEPARTMENT STATION 31","address":"3403 RIDGE AVENUE SOUTHEAST WARREN, OH 44484","bldgnbr":"3403","predir":null,"streetname":"RIDGE AVENUE SOUTHEAST","streettype":null,"suffdir":null,"city":"WARREN","state_code":"OH","zip5":"44484","latitude":"41.2092700000000000","longitude":"-80.781430000000000","publicwifi":"U","url":null,"broadband_type_id":5}
{"id":null,"anchorname":"TRUMBULL BUSINESS COLLEGE","address":"3200 RIDGE ROAD WARREN, OH 44484-3200","bldgnbr":"3200","predir":null,"streetname":"RIDGE ROAD","streettype":null,"suffdir":null,"city":"WARREN","state_code":"OH","zip5":"44484","latitude":"41.2109450000000000","longitude":"-80.781663000000000","publicwifi":"U","url":null,"broadband_type_id":6}
{"id":null,"anchorname":"KINSMAN VOLUNTEER FIRE DEPARTMENT","address":"8450 RIDGE ROAD KINSMAN, OH 44428","bldgnbr":"8450","predir":null,"streetname":"RIDGE ROAD","streettype":null,"suffdir":null,"city":"KINSMAN","state_code":"OH","zip5":"44428","latitude":"41.4498800000000000","longitude":"-80.586590000000000","publicwifi":"U","url":null,"broadband_type_id":5}
{"id":null,"anchorname":"KINSMAN FREE PUBLIC LIBRARY","address":"6420 CHURCH ST KINSMAN, OH 44428-9702","bldgnbr":"6420","predir":null,"streetname":"CHURCH ST","streettype":null,"suffdir":null,"city":"KINSMAN","state_code":"OH","zip5":"44428","latitude":"41.4482000000000000","longitude":"-80.586120000000000","publicwifi":"Y","url":null,"broadband_type_id":6}
{"id":null,"anchorname":"KINSMAN TOWNSHIP POLICE DEPARTMENT","address":"8070 MAIN STREET KINSMAN, OH 44428-0399","bldgnbr":"8070","predir":null,"streetname":"MAIN STREET","streettype":null,"suffdir":null,"city":"KINSMAN","state_code":"OH","zip5":"44428","latitude":"41.4446460000000000","longitude":"-80.588086000000000","publicwifi":"U","url":null,"broadband_type_id":4}
{"id":null,"anchorname":"BADGER ELEMENTARY SCHOOL","address":"7119 STATE ROUTE 7 KINSMAN, OH 44428","bldgnbr":"7119","predir":null,"streetname":"STATE ROUTE 7","streettype":null,"suffdir":null,"city":"KINSMAN","state_code":"OH","zip5":"44428","latitude":"41.4182240000000000","longitude":"-80.581219000000000","publicwifi":"U","url":null,"broadband_type_id":6}
{"id":null,"anchorname":"BADGER HIGH SCHOOL","address":"7119 STATE ROUTE 7 KINSMAN, OH 44428","bldgnbr":"7119","predir":null,"streetname":"STATE ROUTE 7","streettype":null,"suffdir":null,"city":"KINSMAN","state_code":"OH","zip5":"44428","latitude":"41.4182240000000000","longitude":"-80.581219000000000","publicwifi":"U","url":null,"broadband_type_id":6}
{"id":null,"anchorname":"BADGER MIDDLE SCHOOL","address":"7119 STATE ROUTE 7 KINSMAN, OH 44428","bldgnbr":"7119","predir":null,"streetname":"STATE ROUTE 7","streettype":null,"suffdir":null,"city":"KINSMAN","state_code":"OH","zip5":"44428","latitude":"41.4182240000000000","longitude":"-80.581219000000000","publicwifi":"U","url":null,"broadband_type_id":6}
{"id":null,"anchorname":"BURGHILL -VERNON VOLUNTEER FIRE DEPARTMENT STATION 19","address":"6915 STATE ROUTE 88 KINSMAN, OH 44428","bldgnbr":"6915","predir":null,"streetname":"STATE ROUTE 88","streettype":null,"suffdir":null,"city":"KINSMAN","state_code":"OH","zip5":"44428","latitude":"41.3869700000000000","longitude":"-80.550070000000000","publicwifi":"U","url":null,"broadband_type_id":5}
{"id":null,"anchorname":"ORANGEVILLE VOLUNTEER FIRE DEPARTMENT","address":"8276 HIGH STREET BURGHILL, OH 44404","bldgnbr":"8276","predir":null,"streetname":"HIGH STREET","streettype":null,"suffdir":null,"city":"BURGHILL","state_code":"OH","zip5":"44404","latitude":"41.3361600000000000","longitude":"-80.523930000000000","publicwifi":"U","url":null,"broadband_type_id":5}
{"id":null,"anchorname":"FOWLER POLICE DEPARTMENT","address":"3362 STATE ROUTE 193 FOWLER, OH 44418-0012","bldgnbr":"3362","predir":null,"streetname":"STATE ROUTE 193","streettype":null,"suffdir":null,"city":"FOWLER","state_code":"OH","zip5":"44418","latitude":"41.3052000000000000","longitude":"-80.606600000000000","publicwifi":"U","url":null,"broadband_type_id":4}
{"id":null,"anchorname":"HARTFORD TOWNSHIP POLICE DEPARTMENT","address":"6901 S. ROUTE 305 HARTFORD, OH 44424-0116","bldgnbr":"6901","predir":null,"streetname":"STATE ROUTE 305","streettype":null,"suffdir":null,"city":"HARTFORD","state_code":"OH","zip5":"44424","latitude":"41.3115390000000000","longitude":"-80.570873000000000","publicwifi":"U","url":null,"broadband_type_id":4}
{"id":null,"anchorname":"HARTFORD TOWNSHIP VOLUNTEER FIRE DEPARTMENT","address":"6959 STATE ROUTE 305 FOWLER, OH 44418","bldgnbr":"6959","predir":null,"streetname":"STATE ROUTE 305","streettype":null,"suffdir":null,"city":"FOWLER","state_code":"OH","zip5":"44418","latitude":"41.3108400000000000","longitude":"-80.569900000000000","publicwifi":"U","url":null,"broadband_type_id":5}
{"id":null,"anchorname":"GUSTAVUS VOLUNTEER FIRE DEPARTMENT","address":"8750 YOUNGSTOWN KINGSVILLE ROAD FARMDALE, OH 44417","bldgnbr":"8750","predir":null,"streetname":"YOUNGSTOWN KINGSVILLE ROAD","streettype":null,"suffdir":null,"city":"FARMDALE","state_code":"OH","zip5":"44417","latitude":"41.4470000000000000","longitude":"-80.665370000000000","publicwifi":"U","url":null,"broadband_type_id":5}
{"id":null,"anchorname":"JOHNSTON TOWNSHIP POLICE DEPARTMENT","address":"4420 SR 88 FARMDALE, OH 44417","bldgnbr":"4420","predir":null,"streetname":"SR 88","streettype":null,"suffdir":null,"city":"FARMDALE","state_code":"OH","zip5":"44417","latitude":"41.4309000000000000","longitude":"-80.670400000000000","publicwifi":"U","url":null,"broadband_type_id":4}
{"id":null,"anchorname":"JOHNSTON VOLUNTEER FIRE DEPARTMENT STATION 29","address":"4424 GREENVILLE ROAD FARMDALE, OH 44417","bldgnbr":"4424","predir":null,"streetname":"GREENVILLE ROAD","streettype":null,"suffdir":null,"city":"FARMDALE","state_code":"OH","zip5":"44417","latitude":"41.3889500000000000","longitude":"-80.660230000000000","publicwifi":"U","url":null,"broadband_type_id":5}
{"id":null,"anchorname":"MAPLEWOOD MIDDLE SCHOOL","address":"4174 GREENVILLE RD CORTLAND, OH 44410","bldgnbr":"4174","predir":null,"streetname":"GREENVILLE RD","streettype":null,"suffdir":null,"city":"CORTLAND","state_code":"OH","zip5":"44410","latitude":"41.3890200000000000","longitude":"-80.672250000000000","publicwifi":"U","url":null,"broadband_type_id":6}
{"id":null,"anchorname":"TRUMBULL COUNTY EDUCATIONAL SERVICE CENTER","address":"5561 KINSMAN RD MIDDLEFIELD, OH 44062-9569","bldgnbr":"5561","predir":null,"streetname":"KINSMAN RD","streettype":null,"suffdir":null,"city":"MIDDLEFIELD","state_code":"OH","zip5":"44062","latitude":"41.4586100000000000","longitude":"-80.995140000000000","publicwifi":"U","url":null,"broadband_type_id":6}
{"id":null,"anchorname":"TRUMBULL REGIONAL CAMPUS KSU","address":"4314 MAHONING AVE NW WARREN, OH 44483-1931","bldgnbr":"4314","predir":null,"streetname":"MAHONING AVE NW","streettype":null,"suffdir":null,"city":"WARREN","state_code":"OH","zip5":"44483","latitude":"41.2783300000000000","longitude":"-80.842610000000000","publicwifi":"U","url":null,"broadband_type_id":6}
{"id":null,"anchorname":"WARREN OSHP","address":"3424 US HIGHWAY 422 SOUTHINGTON, OH 44470","bldgnbr":"3424","predir":null,"streetname":"US HIGHWAY 422","streettype":null,"suffdir":null,"city":"SOUTHINGTON","state_code":"OH","zip5":"44470","latitude":"41.2975000000000000","longitude":"-80.954100000000000","publicwifi":"U","url":null,"broadband_type_id":null}
{"id":null,"anchorname":"CLEARVIEW LANTERN","address":"596 W CHAMPION ST WARREN, OH 44483","bldgnbr":"596","predir":null,"streetname":"W CHAMPION ST","streettype":null,"suffdir":null,"city":"WARREN","state_code":"OH","zip5":"44483","latitude":"41.2916100000000000","longitude":"-80.858700000000000","publicwifi":"U","url":null,"broadband_type_id":null}
{"id":null,"anchorname":"WOODLAND MEADOWS","address":"632 CHAMPION AVE E WARREN, OH 44483","bldgnbr":"632","predir":null,"streetname":"CHAMPION AVE E","streettype":null,"suffdir":null,"city":"WARREN","state_code":"OH","zip5":"44483","latitude":"41.2914100000000000","longitude":"-80.828750000000000","publicwifi":"U","url":null,"broadband_type_id":null}
{"id":null,"anchorname":"TCTC ADULT TRAINING CENTER","address":"528 EDUCATIONAL HIGHWAY WARREN, OH 44483","bldgnbr":"528","predir":null,"streetname":"EDUCATIONAL HIGHWAY","streettype":null,"suffdir":null,"city":"WARREN","state_code":"OH","zip5":"44483","latitude":"41.2812880000000000","longitude":"-80.830491000000000","publicwifi":"U","url":null,"broadband_type_id":null}
{"id":null,"anchorname":"NORTHEAST OHIO MANAGEMENT INFORMATION NETWORK","address":"528 EDUCATIONAL HWY NW WARREN, OH 44483-1954","bldgnbr":"528","predir":null,"streetname":"EDUCATIONAL HWY NW","streettype":null,"suffdir":null,"city":"WARREN","state_code":"OH","zip5":"44483","latitude":"41.2812000000000000","longitude":"-80.830400000000000","publicwifi":"U","url":null,"broadband_type_id":null}
{"id":null,"anchorname":"MAPLEWOOD ELEMENTARY SCHOOL","address":"1699 KINSMAN RD NE NORTH BLOOMFIELD, OH 44450","bldgnbr":"1699","predir":null,"streetname":"KINSMAN RD NE","streettype":null,"suffdir":null,"city":"NORTH BLOOMFIELD","state_code":"OH","zip5":"44450","latitude":"41.4619700000000000","longitude":"-80.740830000000000","publicwifi":"U","url":null,"broadband_type_id":6}
{"id":null,"anchorname":"MECCA TOWNSHIP VOLUNTEER FIRE DEPARTMENT","address":"6333 STATE ROUTE 46 CORTLAND, OH 44410","bldgnbr":"6333","predir":null,"streetname":"STATE ROUTE 46","streettype":null,"suffdir":null,"city":"CORTLAND","state_code":"OH","zip5":"44410","latitude":"41.3909300000000000","longitude":"-80.737080000000000","publicwifi":"U","url":null,"broadband_type_id":5}
{"id":null,"anchorname":"MAPLEWOOD HIGH SCHOOL","address":"2414 GREENVILLE RD CORTLAND, OH 44410","bldgnbr":"2414","predir":null,"streetname":"GREENVILLE RD","streettype":null,"suffdir":null,"city":"CORTLAND","state_code":"OH","zip5":"44410","latitude":"41.3901100000000000","longitude":"-80.755380000000000","publicwifi":"U","url":null,"broadband_type_id":6}
{"id":null,"anchorname":"BLOOMFIELD MIDDLE SCHOOL","address":"2077  PARK WEST RD NORTH BLOOMFIELD, OH 44450-9702","bldgnbr":"2077","predir":null,"streetname":"PARK WEST RD","streettype":null,"suffdir":null,"city":"NORTH BLOOMFIELD","state_code":"OH","zip5":"44450","latitude":"41.4641500000000000","longitude":"-80.870400000000000","publicwifi":"U","url":null,"broadband_type_id":6}
{"id":null,"anchorname":"BLOOMFIELD HIGH SCHOOL","address":"2077 PARK WEST RD NORTH BLOOMFIELD, OH 44450","bldgnbr":"2077","predir":null,"streetname":"PARK WEST RD","streettype":null,"suffdir":null,"city":"NORTH BLOOMFIELD","state_code":"OH","zip5":"44450","latitude":"41.4641500000000000","longitude":"-80.870400000000000","publicwifi":"U","url":null,"broadband_type_id":6}
{"id":null,"anchorname":"BRISTOL FIRE DEPARTMENT","address":"1864 GREENVILLE ROAD BRISTOLVILLE, OH 44402","bldgnbr":"1864","predir":null,"streetname":"GREENVILLE ROAD","streettype":null,"suffdir":null,"city":"BRISTOLVILLE","state_code":"OH","zip5":"44402","latitude":"41.3915800000000000","longitude":"-80.829550000000000","publicwifi":"U","url":null,"broadband_type_id":5}
{"id":null,"anchorname":"BRISTOL PUBLIC LIBRARY","address":"1855 STATE ROUTE 88 BRISTOLVILLE, OH 44402-9700","bldgnbr":"1855","predir":null,"streetname":"STATE ROUTE 88","streettype":null,"suffdir":null,"city":"BRISTOLVILLE","state_code":"OH","zip5":"44402","latitude":"41.3913000000000000","longitude":"-80.829100000000000","publicwifi":"Y","url":null,"broadband_type_id":6}
{"id":null,"anchorname":"BRISTOL ELEMENTARY SCHOOL","address":"1845 GREENVILLE ROAD BRISTOLVILLE, OH 44402","bldgnbr":"1845","predir":null,"streetname":"GREENVILLE ROAD","streettype":null,"suffdir":null,"city":"BRISTOLVILLE","state_code":"OH","zip5":"44402","latitude":"41.3873420000000000","longitude":"-80.867286000000000","publicwifi":"U","url":null,"broadband_type_id":6}
{"id":null,"anchorname":"BRISTOL HIGH SCHOOL","address":"1845 GREENVILLE ROAD BRISTOLVILLE, OH 44402","bldgnbr":"1845","predir":null,"streetname":"GREENVILLE ROAD","streettype":null,"suffdir":null,"city":"BRISTOLVILLE","state_code":"OH","zip5":"44402","latitude":"41.3873420000000000","longitude":"-80.867286000000000","publicwifi":"U","url":null,"broadband_type_id":6}
{"id":null,"anchorname":"MESOPOTAMIA ELEMENTARY SCHOOL","address":"4466 KINSMAN ROAD MESOPOTAMIA, OH 44439","bldgnbr":"4466","predir":null,"streetname":"KINSMAN ROAD","streettype":null,"suffdir":null,"city":"MESOPOTAMIA","state_code":"OH","zip5":"44439","latitude":"41.4584210000000000","longitude":"-80.958024000000000","publicwifi":"U","url":null,"broadband_type_id":6}
{"id":null,"anchorname":"MESOPOTAMIA VOLUNTEER FIRE DEPARTMENT","address":"8800 STATE ROUTE 534 MESOPOTAMIA, OH 44439","bldgnbr":"8800","predir":null,"streetname":"STATE ROUTE 534","streettype":null,"suffdir":null,"city":"MESOPOTAMIA","state_code":"OH","zip5":"44439","latitude":"41.4583000000000000","longitude":"-80.955200000000000","publicwifi":"U","url":null,"broadband_type_id":5}
{"id":null,"anchorname":"WEST FARMINGTON POLICE DEPT","address":"251 FOURTH STREET WEST FARMINGTON, OH 44491-0215","bldgnbr":"251","predir":null,"streetname":"FOURTH STREET","streettype":null,"suffdir":null,"city":"WEST FARMINGTON","state_code":"OH","zip5":"44491","latitude":"41.3927210000000000","longitude":"-80.975305000000000","publicwifi":"U","url":null,"broadband_type_id":4}
{"id":null,"anchorname":"FARMINGTON TOWNSHIP VOLUNTEER FIRE DEPARTMENT STATION 22","address":"151 WEST COLLEGE STREET WEST FARMINGTON, OH 44491","bldgnbr":"151","predir":null,"streetname":"WEST COLLEGE STREET","streettype":null,"suffdir":null,"city":"WEST FARMINGTON","state_code":"OH","zip5":"44491","latitude":"41.3921200000000000","longitude":"-80.969760000000000","publicwifi":"U","url":null,"broadband_type_id":5}
{"id":null,"anchorname":"CHALKER HIGH SCHOOL","address":"2482 STATE ROUTE 534 SOUTHINGTON, OH 44470","bldgnbr":"2482","predir":null,"streetname":"STATE ROUTE 534","streettype":null,"suffdir":null,"city":"SOUTHINGTON","state_code":"OH","zip5":"44470","latitude":"41.3085400000000000","longitude":"-80.959460000000000","publicwifi":"U","url":null,"broadband_type_id":6}
{"id":null,"anchorname":"SOUTHINGTON ELEMENTARY SCHOOL","address":"2482 STATE ROUTE 534 SOUTHINGTON, OH 44470","bldgnbr":"2482","predir":null,"streetname":"STATE ROUTE 534","streettype":null,"suffdir":null,"city":"SOUTHINGTON","state_code":"OH","zip5":"44470","latitude":"41.3085400000000000","longitude":"-80.959460000000000","publicwifi":"U","url":null,"broadband_type_id":6}
{"id":null,"anchorname":"SOUTHINGTON MIDDLE SCHOOL","address":"2482 STATE ROUTE 534 SOUTHINGTON, OH 44470","bldgnbr":"2482","predir":null,"streetname":"STATE ROUTE 534","streettype":null,"suffdir":null,"city":"SOUTHINGTON","state_code":"OH","zip5":"44470","latitude":"41.3085400000000000","longitude":"-80.959460000000000","publicwifi":"U","url":null,"broadband_type_id":6}
{"id":null,"anchorname":"SOUTHINGTON VOLUNTEER FIRE DEPARTMENT","address":"4361 STATE ROUTE 305 SOUTHINGTON, OH 44470","bldgnbr":"4361","predir":null,"streetname":"STATE ROUTE 305","streettype":null,"suffdir":null,"city":"SOUTHINGTON","state_code":"OH","zip5":"44470","latitude":"41.3082700000000000","longitude":"-80.957240000000000","publicwifi":"U","url":null,"broadband_type_id":5}
{"id":null,"anchorname":"CHAMPION TOWNSHIP FIRE DEPARTMENT STATION 21","address":"139 CHAMPION AVENUE WEST WARREN, OH 44483","bldgnbr":"139","predir":null,"streetname":"CHAMPION AVENUE WEST","streettype":null,"suffdir":null,"city":"WARREN","state_code":"OH","zip5":"44483","latitude":"41.2913600000000000","longitude":"-80.848900000000000","publicwifi":"U","url":null,"broadband_type_id":5}
{"id":null,"anchorname":"CHAMPION MIDDLE SCHOOL","address":"5435 KUSZMAUL AVE NW WARREN, OH 44483","bldgnbr":"5435","predir":null,"streetname":"KUSZMAUL AVE NW","streettype":null,"suffdir":null,"city":"WARREN","state_code":"OH","zip5":"44483","latitude":"41.3015100000000000","longitude":"-80.865250000000000","publicwifi":"U","url":null,"broadband_type_id":6}
{"id":null,"anchorname":"CHAMPION CENTRAL ELEMENTARY SCHOOL","address":"5759 MAHONING AVE NW WARREN, OH 44483","bldgnbr":"5759","predir":null,"streetname":"MAHONING AVE NW","streettype":null,"suffdir":null,"city":"WARREN","state_code":"OH","zip5":"44483","latitude":"41.3099280000000000","longitude":"-80.850618000000000","publicwifi":"U","url":null,"broadband_type_id":6}
{"id":null,"anchorname":"CHAMPION DAY SCHOOL INC","address":"6270 MAHONING AVE NW WARREN, OH 44481-9401","bldgnbr":"6270","predir":null,"streetname":"MAHONING AVE NW","streettype":null,"suffdir":null,"city":"WARREN","state_code":"OH","zip5":"44481","latitude":"41.3235900000000000","longitude":"-80.856060000000000","publicwifi":"U","url":null,"broadband_type_id":6}
{"id":null,"anchorname":"CHAMPION HIGH SCHOOL","address":"5976 MAHONING AVE NW WARREN, OH 44483","bldgnbr":"5976","predir":null,"streetname":"MAHONING AVE NW","streettype":null,"suffdir":null,"city":"WARREN","state_code":"OH","zip5":"44483","latitude":"41.3170700000000000","longitude":"-80.853050000000000","publicwifi":"U","url":null,"broadband_type_id":6}
{"id":null,"anchorname":"CHAMPION TOWNSHIP POLICE DEPARTMENT","address":"149 CENTER ST E WARREN, OH 44481-9304","bldgnbr":"149","predir":null,"streetname":"CENTER ST E","streettype":null,"suffdir":null,"city":"WARREN","state_code":"OH","zip5":"44481","latitude":"41.3085700000000000","longitude":"-80.847940000000000","publicwifi":"U","url":null,"broadband_type_id":4}
{"id":null,"anchorname":"KENT STATE UNIVERSITY TRUMBULL CAMPUS","address":"4314 MAHONING AVE N.W. WARREN, OH 44483","bldgnbr":"4314","predir":null,"streetname":"MAHONING AVE N.W.","streettype":null,"suffdir":null,"city":"WARREN","state_code":"OH","zip5":"44483","latitude":"41.2781760000000000","longitude":"-80.842698000000000","publicwifi":"U","url":null,"broadband_type_id":6}
{"id":null,"anchorname":"TRUMBULL CAREER \u0026 TECH  CENTER","address":"528 EDUCATIONAL HWY NW WARREN, OH 44483","bldgnbr":"528","predir":null,"streetname":"EDUCATIONAL HWY NW","streettype":null,"suffdir":null,"city":"WARREN","state_code":"OH","zip5":"44483","latitude":"41.2812000000000000","longitude":"-80.830400000000000","publicwifi":"U","url":null,"broadband_type_id":3}
{"id":null,"anchorname":"CORTLAND POLICE DEPARTMENT","address":"400 N HIGH ST CORTLAND, OH 44410-1025","bldgnbr":"400","predir":null,"streetname":"N HIGH ST","streettype":null,"suffdir":null,"city":"CORTLAND","state_code":"OH","zip5":"44410","latitude":"41.3382500000000000","longitude":"-80.723430000000000","publicwifi":"U","url":null,"broadband_type_id":4}
{"id":null,"anchorname":"LAKEVIEW MIDDLE SCHOOL","address":"640 WAKEFIELD DR CORTLAND, OH 44410","bldgnbr":"640","predir":null,"streetname":"WAKEFIELD DR","streettype":null,"suffdir":null,"city":"CORTLAND","state_code":"OH","zip5":"44410","latitude":"41.3174000000000000","longitude":"-80.725480000000000","publicwifi":"U","url":null,"broadband_type_id":6}
{"id":null,"anchorname":"NEBRASKA CHRISTIAN HIGH","address":"1847 INSKIP AVE, CENTRAL CITY, NE 68826, CENTRAL CITY, NE 68826","bldgnbr":"1847","predir":null,"streetname":"INSKIP","streettype":"AVE","suffdir":null,"city":"CENTRAL CITY","state_code":"NE","zip5":"68826","latitude":"41.1225656110000000","longitude":"-98.029293240000000","publicwifi":"U","url":null,"broadband_type_id":6}
{"id":null,"anchorname":"OH DIST FROC","address":"614 CANDYWOOD DR VIENNA, OH 44473-9505","bldgnbr":"614","predir":null,"streetname":"CANDYWOOD DR","streettype":null,"suffdir":null,"city":"VIENNA","state_code":"OH","zip5":"44473","latitude":"41.2267700000000000","longitude":"-80.702220000000000","publicwifi":"U","url":null,"broadband_type_id":6}
{"id":null,"anchorname":"TRUMBULL COUNTY EDUCATIONAL SERVICE CENTER","address":"807 WARNER RD VIENNA, OH 44473-9720","bldgnbr":"807","predir":null,"streetname":"WARNER RD","streettype":null,"suffdir":null,"city":"VIENNA","state_code":"OH","zip5":"44473","latitude":"41.2429500000000000","longitude":"-80.617200000000000","publicwifi":"U","url":null,"broadband_type_id":6}
{"id":null,"anchorname":"TRUMBULL COUNTY COURT EASTERN DIVISION","address":"7130 BROOKWOOD DR BROOKFIELD, OH 44403-8701","bldgnbr":"7130","predir":null,"streetname":"BROOKWOOD DR","streettype":null,"suffdir":null,"city":"BROOKFIELD","state_code":"OH","zip5":"44403","latitude":"41.2284400000000000","longitude":"-80.558580000000000","publicwifi":"U","url":null,"broadband_type_id":6}
{"id":null,"anchorname":"MATHEWS LOCAL","address":"4434B  WARREN SHARON RD VIENNA, OH 44473-9644","bldgnbr":"4434 B","predir":null,"streetname":"WARREN SHARON RD","streettype":null,"suffdir":null,"city":"VIENNA","state_code":"OH","zip5":"44473","latitude":"41.2376200000000000","longitude":"-80.661150000000000","publicwifi":"U","url":null,"broadband_type_id":null}
{"id":null,"anchorname":"TRUMBELL SOUTHEAST","address":"6874 STRIMBU DR BROOKFIELD, OH 44403-9526","bldgnbr":"6874","predir":null,"streetname":"STRIMBU DR","streettype":null,"suffdir":null,"city":"BROOKFIELD","state_code":"OH","zip5":"44403","latitude":"41.2294600000000000","longitude":"-80.570580000000000","publicwifi":"U","url":null,"broadband_type_id":null}
{"id":null,"anchorname":"PEAS IN A POD-CHERRY STR DC","address":"6900 CHERRY ST HUBBARD, OH 44425-3021","bldgnbr":"6900","predir":null,"streetname":"CHERRY ST","streettype":null,"suffdir":null,"city":"HUBBARD","state_code":"OH","zip5":"44425","latitude":"41.2098700000000000","longitude":"-80.567620000000000","publicwifi":"U","url":null,"broadband_type_id":null}
{"id":null,"anchorname":"WTCSA BROOKFIELD HEAD START","address":"7000 GROVE ST BROOKFIELD, OH 44403-9540","bldgnbr":"7000","predir":null,"streetname":"GROVE ST","streettype":null,"suffdir":null,"city":"BROOKFIELD","state_code":"OH","zip5":"44403","latitude":"41.2326400000000000","longitude":"-80.565910000000000","publicwifi":"U","url":null,"broadband_type_id":null}
{"id":null,"anchorname":"WTCSA MASURY HEAD START","address":"1144 BROADWAY ST MASURY, OH 44438-1348","bldgnbr":"1144","predir":null,"streetname":"BROADWAY ST","streettype":null,"suffdir":null,"city":"MASURY","state_code":"OH","zip5":"44438","latitude":"41.2120300000000000","longitude":"-80.536610000000000","publicwifi":"U","url":null,"broadband_type_id":null}
{"id":null,"anchorname":"CORTLAND HEALTHCARE CENTER","address":"369 N HIGH ST CORTLAND, OH 44410","bldgnbr":"369","predir":null,"streetname":"N HIGH ST","streettype":null,"suffdir":null,"city":"CORTLAND","state_code":"OH","zip5":"44410","latitude":"41.3372900000000000","longitude":"-80.724260000000000","publicwifi":"U","url":null,"broadband_type_id":3}
{"id":null,"anchorname":"CORTLAND CITY FIRE DEPARTMENT","address":"194 LATTIN STREET CORTLAND, OH 44410","bldgnbr":"194","predir":null,"streetname":"LATTIN STREET","streettype":null,"suffdir":null,"city":"CORTLAND","state_code":"OH","zip5":"44410","latitude":"41.3310800000000000","longitude":"-80.728420000000000","publicwifi":"U","url":null,"broadband_type_id":5}
{"id":null,"anchorname":"CORTLAND VIETS BRANCH LIBRARY","address":"212 HIGH STREET CORTLAND, OH 44410","bldgnbr":"212","predir":null,"streetname":"HIGH STREET","streettype":null,"suffdir":null,"city":"CORTLAND","state_code":"OH","zip5":"44410","latitude":"41.3243000000000000","longitude":"-80.730800000000000","publicwifi":"Y","url":null,"broadband_type_id":6}
{"id":null,"anchorname":"LAKEVIEW ELEMENTARY SCHOOL","address":"2755 BAZETTA RD NE WARREN, OH 44481","bldgnbr":"2755","predir":null,"streetname":"BAZETTA RD NE","streettype":null,"suffdir":null,"city":"WARREN","state_code":"OH","zip5":"44481","latitude":"41.2928900000000000","longitude":"-80.779693000000000","publicwifi":"U","url":null,"broadband_type_id":6}
{"id":null,"anchorname":"BAZETTA FIRE DEPARTMENT STATION 13","address":"2872 MCCLEARY JACOBY ROAD CORTLAND, OH 44410","bldgnbr":"2872","predir":null,"streetname":"MCCLEARY JACOBY ROAD","streettype":null,"suffdir":null,"city":"CORTLAND","state_code":"OH","zip5":"44410","latitude":"41.2962200000000000","longitude":"-80.740920000000000","publicwifi":"U","url":null,"broadband_type_id":5}
{"id":null,"anchorname":"BAZETTA TOWNSHIP POLICE DEPARTMENT","address":"2671 MCCLEARY JACOBY RD CORTLAND, OH 44410-1707","bldgnbr":"2671","predir":null,"streetname":"MCCLEARY JACOBY RD","streettype":null,"suffdir":null,"city":"CORTLAND","state_code":"OH","zip5":"44410","latitude":"41.2910900000000000","longitude":"-80.741270000000000","publicwifi":"U","url":null,"broadband_type_id":4}
{"id":null,"anchorname":"CONCORD CARE CTR OF CORTLAND","address":"4250 SODOM HUTCHINGS RD CORTLAND, OH 44410","bldgnbr":"4250","predir":null,"streetname":"SODOM HUTCHINGS RD","streettype":null,"suffdir":null,"city":"CORTLAND","state_code":"OH","zip5":"44410","latitude":"41.3479500000000000","longitude":"-80.636180000000000","publicwifi":"U","url":null,"broadband_type_id":3}
{"id":null,"anchorname":"FOWLER FIRE DEPARTMENT","address":"3386 YOUNGSTOWN KINGSVILLE ROAD CORTLAND, OH 44410","bldgnbr":"3386","predir":null,"streetname":"YOUNGSTOWN KINGSVILLE ROAD","streettype":null,"suffdir":null,"city":"CORTLAND","state_code":"OH","zip5":"44410","latitude":"41.3409800000000000","longitude":"-80.658490000000000","publicwifi":"U","url":null,"broadband_type_id":5}
{"id":null,"anchorname":"CURRIE ELEMENTARY SCHOOL","address":"3306 RIDGE RD CORTLAND, OH 44410","bldgnbr":"3306","predir":null,"streetname":"RIDGE RD","streettype":null,"suffdir":null,"city":"CORTLAND","state_code":"OH","zip5":"44410","latitude":"41.3446900000000000","longitude":"-80.692760000000000","publicwifi":"U","url":null,"broadband_type_id":6}
{"id":null,"anchorname":"BAZETTA FIRE DEPARTMENT STATION 11","address":"773 EVERETT HULL ROAD CORTLAND, OH 44410","bldgnbr":"773","predir":null,"streetname":"EVERETT HULL ROAD","streettype":null,"suffdir":null,"city":"CORTLAND","state_code":"OH","zip5":"44410","latitude":"41.3347100000000000","longitude":"-80.703240000000000","publicwifi":"U","url":null,"broadband_type_id":5}
{"id":null,"anchorname":"YOUNGSTOWN AIR RESERVE STATION FIRE DEPARTMENT-DOD","address":"3976 KING GRAVES ROAD VIENNA, OH 44473","bldgnbr":"3976","predir":null,"streetname":"KING GRAVES ROAD","streettype":null,"suffdir":null,"city":"VIENNA","state_code":"OH","zip5":"44473","latitude":"41.2723600000000000","longitude":"-80.668160000000000","publicwifi":"U","url":null,"broadband_type_id":5}
{"id":null,"anchorname":"BAKER ELEMENTARY SCHOOL","address":"4095 SHERIDAN DR VIENNA, OH 44473","bldgnbr":"4095","predir":null,"streetname":"SHERIDAN DR","streettype":null,"suffdir":null,"city":"VIENNA","state_code":"OH","zip5":"44473","latitude":"41.2247900000000000","longitude":"-80.666580000000000","publicwifi":"U","url":null,"broadband_type_id":6}
{"id":null,"anchorname":"AUTUMN HILLS CARE CENTER","address":"2565 NILES VIENNA RD NILES, OH 44446","bldgnbr":"2565","predir":null,"streetname":"NILES VIENNA RD","streettype":null,"suffdir":null,"city":"NILES","state_code":"OH","zip5":"44446","latitude":"41.2038600000000000","longitude":"-80.714870000000000","publicwifi":"U","url":null,"broadband_type_id":3}
{"id":null,"anchorname":"MATHEWS HIGH SCHOOL","address":"4429 WARREN SHARON RD VIENNA, OH 44473","bldgnbr":"4429","predir":null,"streetname":"WARREN SHARON RD","streettype":null,"suffdir":null,"city":"VIENNA","state_code":"OH","zip5":"44473","latitude":"41.2378900000000000","longitude":"-80.661230000000000","publicwifi":"U","url":null,"broadband_type_id":6}
{"id":null,"anchorname":"VIENNA FIRE DEPARTMENT","address":"833 YOUNGSTOWN KINGSVILLE ROAD NORTHEAST VIENNA, OH 44473","bldgnbr":"833","predir":null,"streetname":"YOUNGSTOWN KINGSVILLE ROAD NORTHEAST","streettype":null,"suffdir":null,"city":"VIENNA","state_code":"OH","zip5":"44473","latitude":"41.2407500000000000","longitude":"-80.663990000000000","publicwifi":"U","url":null,"broadband_type_id":5}
{"id":null,"anchorname":"BROOKFIELD TOWNSHIP POLICE DEPARTMENT","address":"6844 STRIMBU DR BROOKFIELD, OH 44403-9526","bldgnbr":"6844","predir":null,"streetname":"STRIMBU DR","streettype":null,"suffdir":null,"city":"BROOKFIELD","state_code":"OH","zip5":"44403","latitude":"41.2294600000000000","longitude":"-80.569620000000000","publicwifi":"U","url":null,"broadband_type_id":4}
{"id":null,"anchorname":"BROOKFIELD TOWNSHIP FIRE DEPARTMENT STATION 2","address":"774 STATE ROUTE 7 NE BROOKFIELD, OH 44403","bldgnbr":"774","predir":null,"streetname":"STATE ROUTE 7 NE","streettype":null,"suffdir":null,"city":"BROOKFIELD","state_code":"OH","zip5":"44403","latitude":"41.2233750000000000","longitude":"-80.567982000000000","publicwifi":"U","url":null,"broadband_type_id":5}
{"id":null,"anchorname":"BROOKFIELD TOWNSHIP FIRE DEPARTMENT STATION 18","address":"774 STATE ROUTE 7 NORTHEAST BROOKFIELD, OH 44403","bldgnbr":"774","predir":null,"streetname":"STATE ROUTE 7 NORTHEAST","streettype":null,"suffdir":null,"city":"BROOKFIELD","state_code":"OH","zip5":"44403","latitude":"41.2381200000000000","longitude":"-80.567910000000000","publicwifi":"U","url":null,"broadband_type_id":5}
{"id":null,"anchorname":"O BRIEN MEMORIAL HEALTHCARE CENTER","address":"563 BROOKFIELD AVE MASURY, OH 44438","bldgnbr":"563","predir":null,"streetname":"BROOKFIELD AVE","streettype":null,"suffdir":null,"city":"MASURY","state_code":"OH","zip5":"44438","latitude":"41.2286600000000000","longitude":"-80.526410000000000","publicwifi":"U","url":null,"broadband_type_id":3}
{"id":null,"anchorname":"ORANGE VILLAGE CARE CENTER","address":"8055 ADDISON RD MASURY, OH 44438-1204","bldgnbr":"8055","predir":null,"streetname":"ADDISON RD","streettype":null,"suffdir":null,"city":"MASURY","state_code":"OH","zip5":"44438","latitude":"41.2207900000000000","longitude":"-80.527330000000000","publicwifi":"U","url":null,"broadband_type_id":3}
{"id":null,"anchorname":"BROOKFIELD BRANCH LIBRARY","address":"7032 GROVE STREET BROOKFIELD, OH 44403","bldgnbr":"7032","predir":null,"streetname":"GROVE STREET","streettype":null,"suffdir":null,"city":"BROOKFIELD","state_code":"OH","zip5":"44403","latitude":"41.2326300000000000","longitude":"-80.565150000000000","publicwifi":"Y","url":null,"broadband_type_id":6}
{"id":null,"anchorname":"BROOKFIELD HIGH SCHOOL","address":"614 BEDFORD RD SE BROOKFIELD, OH 44403","bldgnbr":"614","predir":null,"streetname":"BEDFORD RD SE","streettype":null,"suffdir":null,"city":"BROOKFIELD","state_code":"OH","zip5":"44403","latitude":"41.2323700000000000","longitude":"-80.565850000000000","publicwifi":"U","url":null,"broadband_type_id":6}
{"id":null,"anchorname":"BROOKFIELD MIDDLE SCHOOL","address":"614 BEDFORD RD SE BROOKFIELD, OH 44403","bldgnbr":"614","predir":null,"streetname":"BEDFORD RD SE","streettype":null,"suffdir":null,"city":"BROOKFIELD","state_code":"OH","zip5":"44403","latitude":"41.2323700000000000","longitude":"-80.565850000000000","publicwifi":"U","url":null,"broadband_type_id":6}
{"id":null,"anchorname":"BROOKFIELD ELEMENTARY SCHOOL","address":"614 BEDFORD RD SE BROOKFIELD, OH 44403","bldgnbr":"614","predir":null,"streetname":"BEDFORD RD SE","streettype":null,"suffdir":null,"city":"BROOKFIELD","state_code":"OH","zip5":"44403","latitude":"41.2257900000000000","longitude":"-80.561422000000000","publicwifi":"U","url":null,"broadband_type_id":6}
{"id":null,"anchorname":"CHESTNUT RIDGE ELEMENTARY SCHOOL","address":"5088 TOWNSHIP ROAD 401 BERLIN, OH 44610","bldgnbr":"5088","predir":null,"streetname":"TOWNSHIP ROAD 401","streettype":null,"suffdir":null,"city":"BERLIN","state_code":"OH","zip5":"44610","latitude":"41.1935200000000000","longitude":"-80.554090000000000","publicwifi":"U","url":null,"broadband_type_id":6}
{"id":null,"anchorname":"CALVERT ELEMENTARY","address":"2103 O ST, AUBURN, NE 68305, AUBURN, NE 68305","bldgnbr":"2103","predir":null,"streetname":"O","streettype":"ST","suffdir":null,"city":"AUBURN","state_code":"NE","zip5":"68305","latitude":"40.3833718350000000","longitude":"-95.845404620000000","publicwifi":"U","url":null,"broadband_type_id":6}
{"id":null,"anchorname":"WTCSA HEAD START-NILES CENTER","address":"379 ROBBINS AVE NILES, OH 44446-2407","bldgnbr":"379","predir":null,"streetname":"ROBBINS AVE","streettype":null,"suffdir":null,"city":"NILES","state_code":"OH","zip5":"44446","latitude":"41.1825400000000000","longitude":"-80.756790000000000","publicwifi":"U","url":null,"broadband_type_id":6}
{"id":null,"anchorname":"WTCSA HUBBARD HEAD START","address":"110 ORCHARD AVE HUBBARD, OH 44425-1724","bldgnbr":"110","predir":null,"streetname":"ORCHARD AVE","streettype":null,"suffdir":null,"city":"HUBBARD","state_code":"OH","zip5":"44425","latitude":"41.1577100000000000","longitude":"-80.570920000000000","publicwifi":"U","url":null,"broadband_type_id":null}
{"id":null,"anchorname":"ST. PATRICK","address":"38  E WATER ST HUBBARD, OH 44425-1639","bldgnbr":"38","predir":null,"streetname":"E WATER ST","streettype":null,"suffdir":null,"city":"HUBBARD","state_code":"OH","zip5":"44425","latitude":"41.1594200000000000","longitude":"-80.568390000000000","publicwifi":"U","url":null,"broadband_type_id":null}
{"id":null,"anchorname":"LIBERTY LOCAL","address":"4115  SHADY RD YOUNGSTOWN, OH 44505-1353","bldgnbr":"4115","predir":null,"streetname":"SHADY RD","streettype":null,"suffdir":null,"city":"YOUNGSTOWN","state_code":"OH","zip5":"44505","latitude":"41.1578300000000000","longitude":"-80.658100000000000","publicwifi":"U","url":null,"broadband_type_id":null}
{"id":null,"anchorname":"CARDINAL KIDDIE KOLLEGE","address":"3243 CARDINAL DR YOUNGSTOWN, OH 44505-2205","bldgnbr":"3243","predir":null,"streetname":"CARDINAL DR","streettype":null,"suffdir":null,"city":"YOUNGSTOWN","state_code":"OH","zip5":"44505","latitude":"41.1414700000000000","longitude":"-80.652900000000000","publicwifi":"U","url":null,"broadband_type_id":null}
{"id":null,"anchorname":"ST. ROSE","address":"61  E MAIN ST GIRARD, OH 44420-2602","bldgnbr":"61","predir":null,"streetname":"E MAIN ST","streettype":null,"suffdir":null,"city":"GIRARD","state_code":"OH","zip5":"44420","latitude":"41.1548800000000000","longitude":"-80.699560000000000","publicwifi":"U","url":null,"broadband_type_id":null}
{"id":null,"anchorname":"SHEPHERD VALLEY LUTHERN RETIREMENT CENTR","address":"1500 MCKINLEY AVE NILES, OH 44446","bldgnbr":"1500","predir":null,"streetname":"MCKINLEY AVE","streettype":null,"suffdir":null,"city":"NILES","state_code":"OH","zip5":"44446","latitude":"41.1763800000000000","longitude":"-80.737550000000000","publicwifi":"U","url":null,"broadband_type_id":null}
{"id":null,"anchorname":"HUBBARD PUBLIC LIBRARY","address":"436 W LIBERTY ST HUBBARD, OH 44425-1742","bldgnbr":"436","predir":null,"streetname":"W LIBERTY ST","streettype":null,"suffdir":null,"city":"HUBBARD","state_code":"OH","zip5":"44425","latitude":"41.1565300000000000","longitude":"-80.576910000000000","publicwifi":"Y","url":null,"broadband_type_id":6}
{"id":null,"anchorname":"HUBBARD CITY POLICE AND FIRE","address":"233 SCHOOL STREET HUBBARD, OH 44425","bldgnbr":"233","predir":null,"streetname":"SCHOOL STREET","streettype":null,"suffdir":null,"city":"HUBBARD","state_code":"OH","zip5":"44425","latitude":"41.1584700000000000","longitude":"-80.573040000000000","publicwifi":"U","url":null,"broadband_type_id":4}
{"id":null,"anchorname":"HUBBARD POLICE DEPARTMENT","address":"33 W LIBERTY ST HUBBARD, OH 44425-1706","bldgnbr":"33","predir":null,"streetname":"W LIBERTY ST","streettype":null,"suffdir":null,"city":"HUBBARD","state_code":"OH","zip5":"44425","latitude":"41.1562800000000000","longitude":"-80.569590000000000","publicwifi":"U","url":null,"broadband_type_id":4}
{"id":null,"anchorname":"HUBBARD VOLUNTEER FIRE DEPARTMENT","address":"33 WEST LIBERTY STREET HUBBARD, OH 44425","bldgnbr":"33","predir":null,"streetname":"WEST LIBERTY STREET","streettype":null,"suffdir":null,"city":"HUBBARD","state_code":"OH","zip5":"44425","latitude":"41.1562800000000000","longitude":"-80.569590000000000","publicwifi":"U","url":null,"broadband_type_id":5}
{"id":null,"anchorname":"HUBBARD  ELEMENTARY SCHOOL","address":"150 HALL AVE HUBBARD, OH 44425","bldgnbr":"150","predir":null,"streetname":"HALL AVE","streettype":null,"suffdir":null,"city":"HUBBARD","state_code":"OH","zip5":"44425","latitude":"41.1536600000000000","longitude":"-80.582317000000000","publicwifi":"U","url":null,"broadband_type_id":6}
{"id":null,"anchorname":"HUBBARD MIDDLE SCHOOL","address":"250 HALL AVE HUBBARD, OH 44425","bldgnbr":"250","predir":null,"streetname":"HALL AVE","streettype":null,"suffdir":null,"city":"HUBBARD","state_code":"OH","zip5":"44425","latitude":"41.1536760000000000","longitude":"-80.581391000000000","publicwifi":"U","url":null,"broadband_type_id":6}
{"id":null,"anchorname":"HUBBARD HIGH SCHOOL","address":"350 HALL AVE HUBBARD, OH 44425","bldgnbr":"350","predir":null,"streetname":"HALL AVE","streettype":null,"suffdir":null,"city":"HUBBARD","state_code":"OH","zip5":"44425","latitude":"41.1522900000000000","longitude":"-80.581450000000000","publicwifi":"U","url":null,"broadband_type_id":6}
{"id":null,"anchorname":"E J BLOTT ELEMENTARY SCHOOL","address":"4115 SHADY RD YOUNGSTOWN, OH 44505","bldgnbr":"4115","predir":null,"streetname":"SHADY RD","streettype":null,"suffdir":null,"city":"YOUNGSTOWN","state_code":"OH","zip5":"44505","latitude":"41.1545500000000000","longitude":"-80.657510000000000","publicwifi":"U","url":null,"broadband_type_id":6}
{"id":null,"anchorname":"WILLIAM S GUY MIDDLE SCHOOL","address":"4115 SHADY RD YOUNGSTOWN, OH 44505","bldgnbr":"4115","predir":null,"streetname":"SHADY RD","streettype":null,"suffdir":null,"city":"YOUNGSTOWN","state_code":"OH","zip5":"44505","latitude":"41.1578300000000000","longitude":"-80.658100000000000","publicwifi":"U","url":null,"broadband_type_id":6}
{"id":null,"anchorname":"LIBERTY HIGH SCHOOL","address":"1 LEOPARD WAY YOUNGSTOWN, OH 44505","bldgnbr":"1","predir":null,"streetname":"LEOPARD WAY","streettype":null,"suffdir":null,"city":"YOUNGSTOWN","state_code":"OH","zip5":"44505","latitude":"41.1574400000000000","longitude":"-80.658010000000000","publicwifi":"U","url":null,"broadband_type_id":6}
{"id":null,"anchorname":"NATIONAL COLLEGE-YOUNGSTOWN","address":"3487 BELMONT AVE YOUNGSTOWN, OH 44505","bldgnbr":"3487","predir":null,"streetname":"BELMONT AVE","streettype":null,"suffdir":null,"city":"YOUNGSTOWN","state_code":"OH","zip5":"44505","latitude":"41.1453330000000000","longitude":"-80.665391000000000","publicwifi":"U","url":null,"broadband_type_id":6}
{"id":null,"anchorname":"NORTHSIDE MEDICAL CENTER","address":"500 GYPSY LANE YOUNGSTOWN, OH 44504","bldgnbr":"500","predir":null,"streetname":"GYPSY LANE","streettype":null,"suffdir":null,"city":"YOUNGSTOWN","state_code":"OH","zip5":"44504","latitude":"41.1337700000000000","longitude":"-80.657770000000000","publicwifi":"U","url":null,"broadband_type_id":3}
{"id":null,"anchorname":"TOD CHILDRENS HOSPITAL","address":"500 GYPSY LN YOUNGSTOWN, OH 44504-1315","bldgnbr":"500","predir":null,"streetname":"GYPSY LN","streettype":null,"suffdir":null,"city":"YOUNGSTOWN","state_code":"OH","zip5":"44504","latitude":"41.1337700000000000","longitude":"-80.657770000000000","publicwifi":"U","url":null,"broadband_type_id":3}
{"id":null,"anchorname":"LIBERTY TOWNSHIP FIRE DEPARTMENT STATION 35","address":"4001 LOGAN WAY YOUNGSTOWN, OH 44505","bldgnbr":"4001","predir":null,"streetname":"LOGAN WAY","streettype":null,"suffdir":null,"city":"YOUNGSTOWN","state_code":"OH","zip5":"44505","latitude":"41.1528000000000000","longitude":"-80.633730000000000","publicwifi":"U","url":null,"broadband_type_id":5}
{"id":null,"anchorname":"LIBERTY TOWNSHIP POLICE DEPARTMENT","address":"1315 CHURCHILL HUBBARD RD YOUNGSTOWN, OH 44505-1378","bldgnbr":"1315","predir":null,"streetname":"CHURCHILL HUBBARD RD","streettype":null,"suffdir":null,"city":"YOUNGSTOWN","state_code":"OH","zip5":"44505","latitude":"41.1623300000000000","longitude":"-80.640100000000000","publicwifi":"U","url":null,"broadband_type_id":4}
{"id":null,"anchorname":"LIBERTY HEALTH CARE CENTER","address":"1355 CHURCHILL HUBBARD RD YOUNGSTOWN, OH 44505","bldgnbr":"1355","predir":null,"streetname":"CHURCHILL HUBBARD RD","streettype":null,"suffdir":null,"city":"YOUNGSTOWN","state_code":"OH","zip5":"44505","latitude":"41.1623400000000000","longitude":"-80.639150000000000","publicwifi":"U","url":null,"broadband_type_id":3}
{"id":null,"anchorname":"WEATHERSFIELD TOWNSHIP VOLUNTEER FIRE DEPARTMENT STATION 40 - MCKINLEY HEIGHTS","address":"2229 GARDENLAND AVENUE NILES, OH 44446","bldgnbr":"2229","predir":null,"streetname":"GARDENLAND AVENUE","streettype":null,"suffdir":null,"city":"NILES","state_code":"OH","zip5":"44446","latitude":"41.1824500000000000","longitude":"-80.717050000000000","publicwifi":"U","url":null,"broadband_type_id":5}
