{"id":null,"anchorname":"LINCOLNSHIRE FIRE DEPARTMENT","address":"115 SCHELTER ROAD","bldgnbr":"115","predir":null,"streetname":"SCHELTER","streettype":"RD","suffdir":null,"city":"LINCOLNSHIRE","state_code":"IL","zip5":"60069","latitude":"42.1945430000000000","longitude":"-87.939984000000000","publicwifi":"U","url":null,"broadband_type_id":5}
{"id":null,"anchorname":"ZENITH ELECTRONICS CORPORATIONS TECHNICAL LIBRARY","address":"2000 MILLBROOK DRIVE","bldgnbr":"2000","predir":null,"streetname":"MILLBROOK","streettype":"DR","suffdir":null,"city":"LINCOLNSHIRE","state_code":"IL","zip5":"60069","latitude":"42.1908110000000000","longitude":"-87.941730000000000","publicwifi":"N","url":null,"broadband_type_id":6}
{"id":null,"anchorname":"LAURA B SPRAGUE SCHOOL","address":"2425 RIVERWOODS RD","bldgnbr":"2425","predir":null,"streetname":"RIVERWOODS","streettype":"RD","suffdir":null,"city":"LINCOLNSHIRE","state_code":"IL","zip5":"60069","latitude":"42.1962400000000000","longitude":"-87.903350000000000","publicwifi":"U","url":null,"broadband_type_id":6}
{"id":null,"anchorname":"LINCOLNSHIRE MONTESSORI SCHOOL","address":"1970 RIVERWOODS RD","bldgnbr":"1970","predir":null,"streetname":"RIVERWOODS","streettype":"RD","suffdir":null,"city":"LINCOLNSHIRE","state_code":"IL","zip5":"60069","latitude":"42.1887883890000000","longitude":"-87.906427452000000","publicwifi":"U","url":null,"broadband_type_id":6}
{"id":null,"anchorname":"EVERETT ELEM SCHOOL","address":"1111 EVERETT SCHOOL RD","bldgnbr":"1111","predir":"\u003cNull\u003e","streetname":"Everett School","streettype":null,"suffdir":null,"city":"LAKE FOREST","state_code":"IL","zip5":"60045","latitude":"42.2163990000000000","longitude":"-87.873396000000000","publicwifi":"U","url":null,"broadband_type_id":6}
{"id":null,"anchorname":"SALLY POTTER SCHOOL/LAKE FOREST","address":"300 SOUTH WAUKEGAN RD","bldgnbr":"300","predir":"\u003cNull\u003e","streetname":"SOUTH WAUKEGAN RD","streettype":null,"suffdir":null,"city":"LAKE FOREST","state_code":"IL","zip5":"60045","latitude":"42.2358610000000000","longitude":"-87.873128000000000","publicwifi":"U","url":null,"broadband_type_id":6}
{"id":null,"anchorname":"CHEROKEE ELEM SCHOOL","address":"475 CHEROKEE RD","bldgnbr":"475","predir":null,"streetname":"CHEROKEE","streettype":"RD","suffdir":null,"city":"LAKE FOREST","state_code":"IL","zip5":"60045","latitude":"42.2259100000000000","longitude":"-87.835306000000000","publicwifi":"U","url":null,"broadband_type_id":6}
{"id":null,"anchorname":"BARAT COLLEGE","address":"700 E WESTLEIGH RD","bldgnbr":"700","predir":"E","streetname":"WESTLEIGH","streettype":"RD","suffdir":null,"city":"LAKE FOREST","state_code":"IL","zip5":"60045","latitude":"42.2324270000000000","longitude":"-87.829590000000000","publicwifi":"U","url":null,"broadband_type_id":6}
{"id":null,"anchorname":"BANNOCKBURN POLICE DEPARTMENT","address":"2275 TELEGRAPH ROAD","bldgnbr":"2275","predir":null,"streetname":"TELEGRAPH","streettype":"RD","suffdir":null,"city":"BANNOCKBURN","state_code":"IL","zip5":"60015","latitude":"42.1935410000000000","longitude":"-87.866597000000000","publicwifi":"U","url":null,"broadband_type_id":4}
{"id":null,"anchorname":"TRINITY INTERNATIONAL UNIVERSITY","address":"2065 HALF DAY RD","bldgnbr":"2065","predir":null,"streetname":"HALF DAY","streettype":"RD","suffdir":null,"city":"DEERFIELD","state_code":"IL","zip5":"60015","latitude":"42.2001360000000000","longitude":"-87.881529000000000","publicwifi":"U","url":null,"broadband_type_id":6}
{"id":null,"anchorname":"BANNOCKBURN SCHOOL","address":"2165 TELEGRAPH RD","bldgnbr":"2165","predir":null,"streetname":"TELEGRAPH","streettype":"RD","suffdir":null,"city":"BANNOCKBURN","state_code":"IL","zip5":"60015","latitude":"42.1921260000000000","longitude":"-87.865306000000000","publicwifi":"U","url":null,"broadband_type_id":6}
{"id":null,"anchorname":"CHARLES J CARUSO MIDDLE SCHOOL","address":"1801 MONTGOMERY RD","bldgnbr":"1801","predir":null,"streetname":"MONTGOMERY","streettype":"RD","suffdir":null,"city":"DEERFIELD","state_code":"IL","zip5":"60015","latitude":"42.1690530000000000","longitude":"-87.871117000000000","publicwifi":"U","url":null,"broadband_type_id":6}
{"id":null,"anchorname":"WALGREEN COMPANY- PROFESSIONAL DEVELOPMENT LIBRARY","address":"200 WILMOT ROAD","bldgnbr":"200","predir":null,"streetname":"WILMOT","streettype":"RD","suffdir":null,"city":"DEERFIELD","state_code":"IL","zip5":"60015","latitude":"42.1559880000000000","longitude":"-87.867450000000000","publicwifi":"N","url":null,"broadband_type_id":6}
{"id":null,"anchorname":"SHAND, MORAHAN AND COMPANY LIBRARY","address":"10 PARKWAY NORTH","bldgnbr":"10","predir":null,"streetname":"PARKWAY","streettype":null,"suffdir":"N","city":"DEERFIELD","state_code":"IL","zip5":"60015","latitude":"42.1659000000000000","longitude":"-87.879236000000000","publicwifi":"N","url":null,"broadband_type_id":6}
{"id":null,"anchorname":"BRIGHT HORIZONS CHILD CARE \u0026 EARLY EDUCATION","address":"5 PARKWAY N","bldgnbr":"5","predir":"\u003cNull\u003e","streetname":"PARKWAY N","streettype":null,"suffdir":null,"city":"DEERFIELD","state_code":"IL","zip5":"60015","latitude":"42.1633129640000000","longitude":"-87.882439243000000","publicwifi":"U","url":null,"broadband_type_id":3}
{"id":null,"anchorname":"ASTELLAS PHARMA US, INC. LIBRARY","address":"3 PARKWAY NORTH CENTER","bldgnbr":"3","predir":null,"streetname":"PARKWAY NORTH","streettype":"CTR","suffdir":null,"city":"DEERFIELD","state_code":"IL","zip5":"60015","latitude":"42.1632460000000000","longitude":"-87.882895000000000","publicwifi":"N","url":null,"broadband_type_id":6}
{"id":null,"anchorname":"ROSEWOOD CARE CTR-NORTHBROOK","address":"4101 LAKE COOK ROAD","bldgnbr":"4101","predir":null,"streetname":"LANE COOK","streettype":"RD","suffdir":null,"city":"NORTHBROOK","state_code":"IL","zip5":"60062","latitude":"42.1529820000000000","longitude":"-87.878840000000000","publicwifi":"U","url":null,"broadband_type_id":3}
{"id":null,"anchorname":"DEERFIELD HIGH SCHOOL","address":"1959 WAUKEGAN RD","bldgnbr":"1959","predir":null,"streetname":"WAUKEGAN","streettype":"RD","suffdir":null,"city":"DEERFIELD","state_code":"IL","zip5":"60015","latitude":"42.1883220000000000","longitude":"-87.857240000000000","publicwifi":"U","url":null,"broadband_type_id":6}
{"id":null,"anchorname":"DEERFIELD PUBLIC LIBRARY","address":"920 NORTH WAUKEGAN ROAD","bldgnbr":"920","predir":"N","streetname":"WAUKEGAN","streettype":"RD","suffdir":null,"city":"DEERFIELD","state_code":"IL","zip5":"60015","latitude":"42.1823670000000000","longitude":"-87.849989000000000","publicwifi":"Y","url":"http://www.deerfieldlibrary.org/deerfield/","broadband_type_id":6}
{"id":null,"anchorname":"LIBERTY COUNTY STUDENT SERVICES/ MIGRANT/ VIRTUAL PROGRAM/ MCKAY SCHOLARSHIP/ HOMEBOUND PROGRAM","address":"12926 NW CR 12, BRISTOL, FL 32321","bldgnbr":"12926","predir":null,"streetname":"COUNTY ROAD 12","streettype":"0","suffdir":null,"city":"BRISTOL","state_code":"FL","zip5":"32321","latitude":"30.4258980900000000","longitude":"-84.981010360000000","publicwifi":"U","url":"0","broadband_type_id":6}
{"id":null,"anchorname":"MANATEE COUNTY TAX COLLECTOR","address":"819 301 BOULEVARD WEST, BRADENTON, FL 34206","bldgnbr":"819","predir":null,"streetname":"301ST","streettype":"BLVD","suffdir":null,"city":"BRADENTON","state_code":"FL","zip5":"34206","latitude":"27.4692251100000000","longitude":"-82.569345570000000","publicwifi":"Y","url":"0","broadband_type_id":1}
{"id":null,"anchorname":"PLANNED PARENTHOOD OF SOUTHWEST AND CENTRAL FLORIDA","address":"1105 53RD AVE E STE 201, BRADENTON, FL, 34203","bldgnbr":"1105","predir":null,"streetname":"53RD","streettype":"AVE","suffdir":"E","city":"BRADENTON","state_code":"FL","zip5":"34203","latitude":"27.4477500000000000","longitude":"-82.551693000000000","publicwifi":"U","url":"0","broadband_type_id":6}
{"id":null,"anchorname":"MONTESSORI CONNECTION","address":"1731 DEERFIELD RD","bldgnbr":"1731","predir":null,"streetname":"DEERFIELD","streettype":"RD","suffdir":null,"city":"HIGHLAND PARK","state_code":"IL","zip5":"60035","latitude":"42.1732709470000000","longitude":"-87.823110604000000","publicwifi":"U","url":null,"broadband_type_id":6}
{"id":null,"anchorname":"EARLY CHILDHOOD INNOVATIVE LEARN","address":"776 RED OAK LN","bldgnbr":"776","predir":"\u003cNull\u003e","streetname":"RED OAK LN","streettype":null,"suffdir":null,"city":"HIGHLAND PARK","state_code":"IL","zip5":"60035","latitude":"42.1661710000000000","longitude":"-87.818570000000000","publicwifi":"U","url":null,"broadband_type_id":6}
{"id":null,"anchorname":"WOODLANDS ACADEMY OF THE SACRED HEART","address":"760 E WESTLEIGH RD","bldgnbr":"760","predir":"\u003cNull\u003e","streetname":"WESTLEIGH","streettype":null,"suffdir":null,"city":"LAKE FOREST","state_code":"IL","zip5":"60045","latitude":"42.2325703740000000","longitude":"-87.827530664000000","publicwifi":"U","url":null,"broadband_type_id":3}
{"id":null,"anchorname":"NORTH SHORE ACADEMY","address":"760 RED OAK LN","bldgnbr":"760","predir":"\u003cNull\u003e","streetname":"RED OAK LN","streettype":null,"suffdir":null,"city":"HIGHLAND PARK","state_code":"IL","zip5":"60035","latitude":"42.1661270000000000","longitude":"-87.818572000000000","publicwifi":"U","url":null,"broadband_type_id":6}
{"id":null,"anchorname":"DEVELOPING CHILD INC (THE)","address":"433 VINE AVE","bldgnbr":"433","predir":null,"streetname":"VINE","streettype":"AVE","suffdir":null,"city":"HIGHLAND PARK","state_code":"IL","zip5":"60035","latitude":"42.1923503600000000","longitude":"-87.801258231000000","publicwifi":"U","url":null,"broadband_type_id":null}
{"id":null,"anchorname":"ABBOTT HOUSE, LLC","address":"405 CENTRAL AVENUE","bldgnbr":"405","predir":null,"streetname":"CENTRAL","streettype":"AVE","suffdir":null,"city":"HIGHLAND PARK","state_code":"IL","zip5":"60035","latitude":"42.1868260000000000","longitude":"-87.796049000000000","publicwifi":"U","url":null,"broadband_type_id":null}
{"id":null,"anchorname":"ILLINOIS STATE POLICE  NETWORK (LOC)","address":"850 WAUKEGAN ROAD","bldgnbr":"850","predir":null,"streetname":"WAUKEGAN","streettype":"RD","suffdir":null,"city":"DEERFIELD","state_code":"IL","zip5":"60015","latitude":"42.1686410000000000","longitude":"-87.846165000000000","publicwifi":"U","url":null,"broadband_type_id":4}
{"id":null,"anchorname":"WILMOT ELEM SCHOOL","address":"795 WILMOT RD","bldgnbr":"795","predir":null,"streetname":"WILMOT","streettype":"RD","suffdir":null,"city":"DEERFIELD","state_code":"IL","zip5":"60015","latitude":"42.1673000000000000","longitude":"-87.867068000000000","publicwifi":"U","url":null,"broadband_type_id":6}
{"id":null,"anchorname":"SOUTH PARK ELEM SCHOOL","address":"1421 HACKBERRY RD","bldgnbr":"1421","predir":null,"streetname":"HACKBERRY","streettype":"RD","suffdir":null,"city":"DEERFIELD","state_code":"IL","zip5":"60015","latitude":"42.1601100000000000","longitude":"-87.862883000000000","publicwifi":"U","url":null,"broadband_type_id":6}
{"id":null,"anchorname":"KIPLING ELEM SCHOOL","address":"700 KIPLING PLACE","bldgnbr":"700","predir":"\u003cNull\u003e","streetname":"KIPLING PLACE","streettype":null,"suffdir":null,"city":"DEERFIELD","state_code":"IL","zip5":"60015","latitude":"42.1662690000000000","longitude":"-87.839576000000000","publicwifi":"U","url":null,"broadband_type_id":6}
{"id":null,"anchorname":"DEERFIELD-BANNOCKBURN FIRE PROTECTION DISTRICT","address":"500 WAUKEGAN ROAD","bldgnbr":"500","predir":null,"streetname":"WAUKEGAN","streettype":"RD","suffdir":null,"city":"DEERFIELD","state_code":"IL","zip5":"60015","latitude":"42.1624080000000000","longitude":"-87.842415000000000","publicwifi":"U","url":null,"broadband_type_id":5}
{"id":null,"anchorname":"ST JAMES SCHOOL","address":"140 NORTH AVE","bldgnbr":"140","predir":"\u003cNull\u003e","streetname":"AVE","streettype":null,"suffdir":null,"city":"HIGHWOOD","state_code":"IL","zip5":"60040","latitude":"42.2034838900000000","longitude":"-87.812367769000000","publicwifi":"U","url":null,"broadband_type_id":6}
{"id":null,"anchorname":"HIGHWOOD FIRE DEPARTMENT","address":"428 GREEN BAY ROAD","bldgnbr":"428","predir":null,"streetname":"GREEN BAY","streettype":"RD","suffdir":null,"city":"HIGHWOOD","state_code":"IL","zip5":"60040","latitude":"42.2040700000000000","longitude":"-87.811516000000000","publicwifi":"U","url":null,"broadband_type_id":5}
{"id":null,"anchorname":"HIGHWOOD PUBLIC LIBRARY","address":"102 HIGHWOOD AVENUE","bldgnbr":"102","predir":null,"streetname":"HIGHWOOD","streettype":"AVE","suffdir":null,"city":"HIGHWOOD","state_code":"IL","zip5":"60040","latitude":"42.2019670000000000","longitude":"-87.810930000000000","publicwifi":"Y","url":"http://www.highwoodlibrary.org/highwood/","broadband_type_id":6}
{"id":null,"anchorname":"HIGHLAND PARK NURSING \u0026 REHAB CENTER","address":"50 PLEASANT AVENUE","bldgnbr":"50","predir":null,"streetname":"PLEASANT","streettype":null,"suffdir":null,"city":"HIGHWOOD","state_code":"IL","zip5":"60040","latitude":"42.1973190000000000","longitude":"-87.814357000000000","publicwifi":"U","url":null,"broadband_type_id":3}
{"id":null,"anchorname":"OAK TERRACE ELEM SCHOOL","address":"240 PRAIRIE AVE","bldgnbr":"240","predir":null,"streetname":"PRAIRIE","streettype":"AVE","suffdir":null,"city":"HIGHWOOD","state_code":"IL","zip5":"60040","latitude":"42.1998280000000000","longitude":"-87.814505000000000","publicwifi":"U","url":null,"broadband_type_id":6}
{"id":null,"anchorname":"NORTHWOOD JR HIGH SCHOOL","address":"945 NORTH AVE","bldgnbr":"945","predir":"N","streetname":"AVE","streettype":null,"suffdir":null,"city":"HIGHLAND PARK","state_code":"IL","zip5":"60035","latitude":"42.2035060000000000","longitude":"-87.823580000000000","publicwifi":"U","url":null,"broadband_type_id":6}
{"id":null,"anchorname":"WAYNE THOMAS ELEM SCHOOL","address":"2939 SUMMIT AVE","bldgnbr":"2939","predir":null,"streetname":"SUMMIT","streettype":"AVE","suffdir":null,"city":"HIGHLAND PARK","state_code":"IL","zip5":"60035","latitude":"42.2060630000000000","longitude":"-87.825148000000000","publicwifi":"U","url":null,"broadband_type_id":6}
{"id":null,"anchorname":"MANOR CARE OF HIGHLAND PARK","address":"2773 SKOKIE VALLEY ROAD","bldgnbr":"2773","predir":null,"streetname":"SKOKIE VALLEY","streettype":"RD","suffdir":null,"city":"HIGHLAND PARK","state_code":"IL","zip5":"60035","latitude":"42.2030070000000000","longitude":"-87.834582000000000","publicwifi":"U","url":null,"broadband_type_id":3}
{"id":null,"anchorname":"HIGHLAND PARK HOSPITAL","address":"718 GLENVIEW AVENUE","bldgnbr":"718","predir":null,"streetname":"GLENVIEW","streettype":"AVE","suffdir":null,"city":"HIGHLAND PARK","state_code":"IL","zip5":"60035","latitude":"42.1909660000000000","longitude":"-87.806581000000000","publicwifi":"U","url":null,"broadband_type_id":3}
{"id":null,"anchorname":"HIGHLAND PARK HOSPITAL MEDICAL LIBRARY","address":"777 PARK AVENUE WEST","bldgnbr":"777","predir":null,"streetname":"PARK","streettype":"AVE","suffdir":"W","city":"HIGHLAND PARK","state_code":"IL","zip5":"60035","latitude":"42.1888370000000000","longitude":"-87.808409000000000","publicwifi":"Y","url":"http://www.northshore.org/locations/highland-park-hospital/","broadband_type_id":3}
{"id":null,"anchorname":"GREEN BAY SCHOOL","address":"1936 GREEN BAY RD","bldgnbr":"1936","predir":"\u003cNull\u003e","streetname":"GREEN BAY RD","streettype":null,"suffdir":null,"city":"HIGHLAND PARK","state_code":"IL","zip5":"60035","latitude":"42.1876060000000000","longitude":"-87.803621000000000","publicwifi":"U","url":null,"broadband_type_id":6}
{"id":null,"anchorname":"HIGHWOOD POLICE DEPARTMENT","address":"17 HIGHWOOD AVENUE","bldgnbr":"17","predir":null,"streetname":"HIGHWOOD","streettype":"AVE","suffdir":null,"city":"HIGHWOOD","state_code":"IL","zip5":"60040","latitude":"42.2019210000000000","longitude":"-87.809260000000000","publicwifi":"U","url":null,"broadband_type_id":4}
{"id":null,"anchorname":"HIGHLAND PARK HIGH SCHOOL","address":"433 VINE AVE","bldgnbr":"433","predir":"\u003cNull\u003e","streetname":"VINE AVE","streettype":null,"suffdir":null,"city":"HIGHLAND PARK","state_code":"IL","zip5":"60035","latitude":"42.1923540000000000","longitude":"-87.801271000000000","publicwifi":"U","url":null,"broadband_type_id":6}
{"id":null,"anchorname":"ELM PLACE SCHOOL","address":"2031 SHERIDAN RD","bldgnbr":"2031","predir":null,"streetname":"SHERIDAN","streettype":"RD","suffdir":null,"city":"HIGHLAND PARK","state_code":"IL","zip5":"60035","latitude":"42.1894280000000000","longitude":"-87.797721000000000","publicwifi":"U","url":null,"broadband_type_id":6}
{"id":null,"anchorname":"INDIAN TRAIL ELEM SCHOOL","address":"2075 SAINT JOHNS AVE","bldgnbr":"2075","predir":null,"streetname":"ST JOHNS","streettype":"AVE","suffdir":null,"city":"HIGHLAND PARK","state_code":"IL","zip5":"60035","latitude":"42.1896850000000000","longitude":"-87.800214000000000","publicwifi":"U","url":null,"broadband_type_id":6}
{"id":null,"anchorname":"HIGHLAND PARK PUBLIC LIBRARY","address":"494 LAUREL AVENUE","bldgnbr":"494","predir":null,"streetname":"LAUREL","streettype":"AVE","suffdir":null,"city":"HIGHLAND PARK","state_code":"IL","zip5":"60035","latitude":"42.1848520000000000","longitude":"-87.797060000000000","publicwifi":"Y","url":"http://hplibrary.org/","broadband_type_id":6}
{"id":null,"anchorname":"NORTH SUBRUBAN SYNAGOGUE BETH EL- MAXWELL ABBELL LIBRARY","address":"1175 SHERIDAN ROAD","bldgnbr":"1175","predir":null,"streetname":"SHERIDAN","streettype":"RD","suffdir":null,"city":"HIGHLAND PARK","state_code":"IL","zip5":"60035","latitude":"42.1736800000000000","longitude":"-87.778646000000000","publicwifi":"Y","url":"http://www.nssbethel.org/article.aspx?id=68719476807\u0026libID=68719476807","broadband_type_id":6}
{"id":null,"anchorname":"RAVINIA ELEM SCHOOL","address":"763 DEAN AVE","bldgnbr":"763","predir":null,"streetname":"DEAN","streettype":"AVE","suffdir":null,"city":"HIGHLAND PARK","state_code":"IL","zip5":"60035","latitude":"42.1659240000000000","longitude":"-87.780787000000000","publicwifi":"U","url":null,"broadband_type_id":6}
{"id":null,"anchorname":"BRAESIDE ELEM SCHOOL","address":"150 PIERCE RD","bldgnbr":"150","predir":null,"streetname":"PIERCE","streettype":"RD","suffdir":null,"city":"HIGHLAND PARK","state_code":"IL","zip5":"60035","latitude":"42.1551580000000000","longitude":"-87.771486000000000","publicwifi":"U","url":null,"broadband_type_id":6}
{"id":null,"anchorname":"LINCOLN ELEM SCHOOL","address":"711 LINCOLN AVE WEST","bldgnbr":"711","predir":"W","streetname":"LINCOLN","streettype":"AVE","suffdir":null,"city":"HIGHLAND PARK","state_code":"IL","zip5":"60035","latitude":"42.1765240000000000","longitude":"-87.796523000000000","publicwifi":"U","url":null,"broadband_type_id":6}
{"id":null,"anchorname":"HIGHLAND PARK FIRE DEPARTMENT","address":"1130 CENTRAL AVENUE","bldgnbr":"1130","predir":null,"streetname":"CENTRAL","streettype":"AVE","suffdir":null,"city":"HIGHLAND PARK","state_code":"IL","zip5":"60035","latitude":"42.1815310000000000","longitude":"-87.812160000000000","publicwifi":"U","url":null,"broadband_type_id":5}
{"id":null,"anchorname":"EDGEWOOD MIDDLE SCHOOL","address":"929 EDGEWOOD RD","bldgnbr":"929","predir":null,"streetname":"EDGEWOOD","streettype":"RD","suffdir":null,"city":"HIGHLAND PARK","state_code":"IL","zip5":"60035","latitude":"42.1671070000000000","longitude":"-87.795780000000000","publicwifi":"U","url":null,"broadband_type_id":6}
{"id":null,"anchorname":"HIGHLAND PARK MONTESSORI","address":"1301 CLAVEY RD","bldgnbr":"1301","predir":null,"streetname":"CLAVEY","streettype":"RD","suffdir":null,"city":"HIGHLAND PARK","state_code":"IL","zip5":"60035","latitude":"42.1598770340000000","longitude":"-87.802103540000000","publicwifi":"U","url":null,"broadband_type_id":2}
{"id":null,"anchorname":"SHERWOOD ELEM SCHOOL","address":"1900 STRATFORD RD","bldgnbr":"1900","predir":"\u003cNull\u003e","streetname":"STRATFORD RD","streettype":null,"suffdir":null,"city":"HIGHLAND PARK","state_code":"IL","zip5":"60035","latitude":"42.1652400000000000","longitude":"-87.820790000000000","publicwifi":"U","url":null,"broadband_type_id":6}
{"id":null,"anchorname":"ST PATRICK SCHOOL","address":"15020 WADSWORTH RD","bldgnbr":"15020","predir":"\u003cNull\u003e","streetname":"WADSWORTH","streettype":null,"suffdir":null,"city":"WADSWORTH","state_code":"IL","zip5":"60083","latitude":"42.4288624280000000","longitude":"-87.924903681000000","publicwifi":"U","url":null,"broadband_type_id":6}
{"id":null,"anchorname":"FLORIDA DEPARTMENT OF HIGHWAY SAFETY AND MOTOR VEHICLES","address":"229 SW PICKNEY STREET, MADISON, FL, 32340","bldgnbr":"229","predir":"SW","streetname":"PICKNEY","streettype":"STREET","suffdir":"0","city":"MADISON","state_code":"FL","zip5":"32340","latitude":"30.4685480000000000","longitude":"-83.412303000000000","publicwifi":"Y","url":"0","broadband_type_id":6}
{"id":null,"anchorname":"BRADENTON DIALYSIS CENTER LLC","address":"5837 21ST AVE W, BRADENTON, FL, 34209","bldgnbr":"5837","predir":"0","streetname":"21ST","streettype":"AVE","suffdir":"W","city":"BRADENTON","state_code":"FL","zip5":"34209","latitude":"27.4811850000000000","longitude":"-82.619854000000000","publicwifi":"U","url":"0","broadband_type_id":6}
{"id":null,"anchorname":"HERITAGE MANOR - MENDOTA","address":"1201 FIRST AVENUE","bldgnbr":"1201","predir":null,"streetname":"FIRST","streettype":"AVE","suffdir":null,"city":"MENDOTA","state_code":"IL","zip5":"61342","latitude":"41.5536250000000000","longitude":"-89.108514000000000","publicwifi":"U","url":null,"broadband_type_id":1}
{"id":null,"anchorname":"PINE TERRACE","address":"2017 PINE ST","bldgnbr":"2017","predir":null,"streetname":"PINE","streettype":"ST","suffdir":null,"city":"WAUKEGAN","state_code":"IL","zip5":"60085","latitude":"42.3887480000000000","longitude":"-87.846669000000000","publicwifi":"U","url":null,"broadband_type_id":null}
{"id":null,"anchorname":"EAST LAKE ACADEMY","address":"13911 W LAUREL DR","bldgnbr":"13911","predir":"W","streetname":"LAUREL","streettype":"DR","suffdir":null,"city":"LAKE FOREST","state_code":"IL","zip5":"60045","latitude":"42.2701809140000000","longitude":"-87.903443341000000","publicwifi":"U","url":null,"broadband_type_id":6}
{"id":null,"anchorname":"RIVERSIDE FOUNDATION","address":"14588 WEST HIGHWAY 22","bldgnbr":"14588","predir":"W","streetname":"HIGHWAY 22","streettype":null,"suffdir":null,"city":"LINCOLNSHIRE","state_code":"IL","zip5":"60069","latitude":"42.2005730000000000","longitude":"-87.918287000000000","publicwifi":"U","url":null,"broadband_type_id":null}
{"id":null,"anchorname":"THE WEALSHIRE","address":"150 JAMESTOWN LANE","bldgnbr":"150","predir":null,"streetname":"JAMESTOWN","streettype":"LN","suffdir":null,"city":"LINCOLNSHIRE","state_code":"IL","zip5":"60069","latitude":"42.2054110000000000","longitude":"-87.931441000000000","publicwifi":"U","url":null,"broadband_type_id":null}
{"id":null,"anchorname":"MENDOTA LUTHERAN HOME","address":"500 6TH ST","bldgnbr":"500","predir":null,"streetname":"6TH","streettype":"ST","suffdir":null,"city":"MENDOTA","state_code":"IL","zip5":"61342","latitude":"41.5476860000000000","longitude":"-89.114685000000000","publicwifi":"U","url":null,"broadband_type_id":null}
{"id":null,"anchorname":"TERRACE NURSING HOME, THE","address":"1615 SUNSET AVENUE","bldgnbr":"1615","predir":null,"streetname":"SUNSET","streettype":"AVE","suffdir":null,"city":"WAUKEGAN","state_code":"IL","zip5":"60087","latitude":"42.3919620000000000","longitude":"-87.850970000000000","publicwifi":"U","url":null,"broadband_type_id":3}
{"id":null,"anchorname":"GLENWOOD ELEMENTARY SCHOOL","address":"2500 NORTHMOOR AVE","bldgnbr":"2500","predir":null,"streetname":"NORTHMOOR","streettype":"AVE","suffdir":null,"city":"WAUKEGAN","state_code":"IL","zip5":"60085","latitude":"42.3757340000000000","longitude":"-87.864200000000000","publicwifi":"U","url":null,"broadband_type_id":6}
{"id":null,"anchorname":"LINCOLNSHIRE POLICE DEPARTMENT","address":"1 OLDE HALF DAY ROAD","bldgnbr":"1","predir":null,"streetname":"OLDE HALF DAY","streettype":"RD","suffdir":null,"city":"LINCOLNSHIRE","state_code":"IL","zip5":"60069","latitude":"42.2013510000000000","longitude":"-87.926914000000000","publicwifi":"U","url":null,"broadband_type_id":4}
{"id":null,"anchorname":"HEWITT ASSOCIATES LIBRARY","address":"100 HALF DAY ROAD","bldgnbr":"100","predir":null,"streetname":"HALF DAY","streettype":"RD","suffdir":null,"city":"LINCOLNSHIRE","state_code":"IL","zip5":"60069","latitude":"42.2022310000000000","longitude":"-87.891669000000000","publicwifi":"N","url":"http://www.aon.com/human-capital-consulting/default.jsp","broadband_type_id":6}
{"id":null,"anchorname":"RONDOUT ELEM SCHOOL","address":"28593 NORTH BRADLEY RD","bldgnbr":"28593","predir":"N","streetname":"BRADLEY","streettype":"RD","suffdir":null,"city":"LAKE FOREST","state_code":"IL","zip5":"60045","latitude":"42.2787690000000000","longitude":"-87.905230000000000","publicwifi":"U","url":null,"broadband_type_id":6}
{"id":null,"anchorname":"MONTESSORI SCHOOL OF LAKE FOREST","address":"13700 W LAUREL DR","bldgnbr":"13700","predir":"W","streetname":"LAUREL","streettype":"DR","suffdir":null,"city":"LAKE FOREST","state_code":"IL","zip5":"60045","latitude":"42.2702330590000000","longitude":"-87.899915821000000","publicwifi":"U","url":null,"broadband_type_id":6}
{"id":null,"anchorname":"HSBC NORTH AMERICA CORPORATE LIBRARY","address":"26525 NORTH RIVERWOODS BOULEVARD","bldgnbr":"26525","predir":"N","streetname":"RIVERWOODS","streettype":"BLVD","suffdir":null,"city":"METTAWA","state_code":"IL","zip5":"60045","latitude":"42.2473070000000000","longitude":"-87.904431000000000","publicwifi":"N","url":null,"broadband_type_id":6}
{"id":null,"anchorname":"LAKE FOREST GRADUATE SCHOOL OF MANAGEMENT LIBRARY","address":"1905 WEST FIELD COURT","bldgnbr":"1905","predir":"W","streetname":"FIELD","streettype":"CT","suffdir":null,"city":"LAKE FOREST","state_code":"IL","zip5":"60045","latitude":"42.2406040000000000","longitude":"-87.890133000000000","publicwifi":"Y","url":"http://www.lakeforestmba.edu/campuses_locations/campuses_locations/lake_forest_mba_campus.aspx","broadband_type_id":6}
{"id":null,"anchorname":"LAKE FOREST GRADUATE SCHOOL OF MGMT.","address":"1905 W. FIELD COURT","bldgnbr":"1905","predir":"W","streetname":"FIELD","streettype":"CT","suffdir":null,"city":"LAKE FOREST","state_code":"IL","zip5":"60045","latitude":"42.2406040000000000","longitude":"-87.890133000000000","publicwifi":"U","url":null,"broadband_type_id":6}
{"id":null,"anchorname":"LELAND HIGH SCHOOL","address":"370 NORTH MAIN ST","bldgnbr":"370","predir":"N","streetname":"MAIN","streettype":"ST","suffdir":null,"city":"LELAND","state_code":"IL","zip5":"60531","latitude":"41.6195860000000000","longitude":"-88.799330000000000","publicwifi":"U","url":null,"broadband_type_id":6}
{"id":null,"anchorname":"LELAND ELEM SCHOOL","address":"370 NORTH MAIN ST","bldgnbr":"370","predir":"\u003cNull\u003e","streetname":"NORTH MAIN ST","streettype":null,"suffdir":null,"city":"LELAND","state_code":"IL","zip5":"60531","latitude":"41.6195860000000000","longitude":"-88.799330000000000","publicwifi":"U","url":null,"broadband_type_id":6}
{"id":null,"anchorname":"LELAND FIRE DEPARTMENT","address":"145 EAST RAILROAD","bldgnbr":"145","predir":"E","streetname":"RAILROAD","streettype":null,"suffdir":null,"city":"LELAND","state_code":"IL","zip5":"60531","latitude":"41.6139230000000000","longitude":"-88.797886000000000","publicwifi":"U","url":null,"broadband_type_id":5}
{"id":null,"anchorname":"LELAND POLICE DEPARTMENT","address":"175 NORTH MAIN ST","bldgnbr":"175","predir":"N","streetname":"MAIN","streettype":"ST","suffdir":null,"city":"LELAND","state_code":"IL","zip5":"60531","latitude":"41.6142390000000000","longitude":"-88.799102000000000","publicwifi":"U","url":null,"broadband_type_id":4}
{"id":null,"anchorname":"EARLVILLE FIRE PROTECTION DISTRICT","address":"99 N EAST ST","bldgnbr":"99","predir":"N","streetname":"EAST","streettype":"ST","suffdir":null,"city":"EARLVILLE","state_code":"IL","zip5":"60518","latitude":"41.5906200000000000","longitude":"-88.920593000000000","publicwifi":"U","url":null,"broadband_type_id":5}
{"id":null,"anchorname":"HARDING GRADE SCHOOL","address":"1643 NORTH 40TH RD","bldgnbr":"1643","predir":"N","streetname":"40TH","streettype":"RD","suffdir":null,"city":"EARLVILLE","state_code":"IL","zip5":"60518","latitude":"41.5151020000000000","longitude":"-88.847285000000000","publicwifi":"U","url":null,"broadband_type_id":6}
{"id":null,"anchorname":"EARLVILLE POLICE DEPARTMENT","address":"210 WEST RAILROAD ST","bldgnbr":"210","predir":"W","streetname":"RAILROAD","streettype":"ST","suffdir":null,"city":"EARLVILLE","state_code":"IL","zip5":"60518","latitude":"41.5902260000000000","longitude":"-88.923135000000000","publicwifi":"U","url":null,"broadband_type_id":4}
{"id":null,"anchorname":"EARL TOWNSHIP PUBLIC LIBRARY","address":"205 WINTHROP ST","bldgnbr":"205","predir":null,"streetname":"WINTHROP","streettype":"ST","suffdir":null,"city":"EARLVILLE","state_code":"IL","zip5":"60518","latitude":"41.5891700000000000","longitude":"-88.923253000000000","publicwifi":"Y","url":"http://www.earlvillelibrary.org/","broadband_type_id":6}
{"id":null,"anchorname":"EARLVILLE ELEM SCHOOL","address":"415 WEST UNION ST","bldgnbr":"415","predir":"W","streetname":"UNION","streettype":"ST","suffdir":null,"city":"EARLVILLE","state_code":"IL","zip5":"60518","latitude":"41.5848850000000000","longitude":"-88.930095000000000","publicwifi":"U","url":"\u003cNull\u003e","broadband_type_id":6}
{"id":null,"anchorname":"EARLVILLE JR/SR HIGH SCHOOL","address":"415 WEST UNION ST","bldgnbr":"415","predir":"\u003cNull\u003e","streetname":"WEST UNION ST","streettype":null,"suffdir":null,"city":"EARLVILLE","state_code":"IL","zip5":"60518","latitude":"41.5848850000000000","longitude":"-88.930095000000000","publicwifi":"U","url":null,"broadband_type_id":6}
{"id":null,"anchorname":"MENDOTA TWP HIGH SCHOOL","address":"2300 WEST MAIN ST","bldgnbr":"2300","predir":"W","streetname":"MAIN","streettype":"ST","suffdir":null,"city":"MENDOTA","state_code":"IL","zip5":"61342","latitude":"41.5680000000000000","longitude":"-89.136300000000000","publicwifi":"U","url":null,"broadband_type_id":6}
{"id":null,"anchorname":"MENDOTA COMMUNITY HOSPITAL","address":"1315 MEMORIAL DRIVE","bldgnbr":"1315","predir":null,"streetname":"MEMORIAL","streettype":"DR","suffdir":null,"city":"MENDOTA","state_code":"IL","zip5":"61342","latitude":"41.5535820000000000","longitude":"-89.128080000000000","publicwifi":"U","url":null,"broadband_type_id":3}
{"id":null,"anchorname":"BLACKSTONE ELEM SCHOOL","address":"1309 JEFFERSON ST","bldgnbr":"1309","predir":null,"streetname":"JEFFERSON","streettype":"ST","suffdir":null,"city":"MENDOTA","state_code":"IL","zip5":"61342","latitude":"41.5491890000000000","longitude":"-89.127894000000000","publicwifi":"U","url":null,"broadband_type_id":6}
{"id":null,"anchorname":"NORTHBROOK SCHOOL","address":"1804 GUILES AVE","bldgnbr":"1804","predir":null,"streetname":"GUILES","streettype":"AVE","suffdir":null,"city":"MENDOTA","state_code":"IL","zip5":"61342","latitude":"41.5597900000000000","longitude":"-89.118292000000000","publicwifi":"U","url":null,"broadband_type_id":6}
{"id":null,"anchorname":"GRAVES-HUME PUBLIC LIBRARY DISTRICT","address":"1401 WEST MAIN ST","bldgnbr":"1401","predir":"W","streetname":"MAIN","streettype":"ST","suffdir":null,"city":"MENDOTA","state_code":"IL","zip5":"61342","latitude":"41.5558670000000000","longitude":"-89.121162000000000","publicwifi":"Y","url":"http://www.graveshume.lib.il.us/","broadband_type_id":6}
{"id":null,"anchorname":"HOLY CROSS ELEMENTARY SCHOOL","address":"1008 JEFFERSON ST","bldgnbr":"1008","predir":"\u003cNull\u003e","streetname":"JEFFERSON","streettype":null,"suffdir":null,"city":"MENDOTA","state_code":"IL","zip5":"61342","latitude":"41.5492274620000000","longitude":"-89.122535731000000","publicwifi":"U","url":null,"broadband_type_id":6}
{"id":null,"anchorname":"MENDOTA FIRE DEPARTMENT","address":"610 MAIN ST","bldgnbr":"610","predir":null,"streetname":"MAIN","streettype":"ST","suffdir":null,"city":"MENDOTA","state_code":"IL","zip5":"61342","latitude":"41.5476820000000000","longitude":"-89.118339000000000","publicwifi":"U","url":null,"broadband_type_id":5}
{"id":null,"anchorname":"MENDOTA/ TROY GROVE RURAL FIRE PROTECTION DISTRICT","address":"610 MAIN ST","bldgnbr":"610","predir":null,"streetname":"MAIN","streettype":"ST","suffdir":null,"city":"MENDOTA","state_code":"IL","zip5":"61342","latitude":"41.5476820000000000","longitude":"-89.118339000000000","publicwifi":"U","url":null,"broadband_type_id":5}
{"id":null,"anchorname":"LINCOLN ELEM SCHOOL","address":"805 4TH AVE","bldgnbr":"805","predir":null,"streetname":"4TH","streettype":"AVE","suffdir":null,"city":"MENDOTA","state_code":"IL","zip5":"61342","latitude":"41.5488810000000000","longitude":"-89.113036000000000","publicwifi":"U","url":null,"broadband_type_id":6}
{"id":null,"anchorname":"ILLINOIS STATE POLICE  NETWORK (LOC)","address":"607 EIGHTH AVENUE","bldgnbr":"607","predir":null,"streetname":"8TH","streettype":"AVE","suffdir":null,"city":"MENDOTA","state_code":"IL","zip5":"61342","latitude":"41.5464890000000000","longitude":"-89.119835000000000","publicwifi":"U","url":null,"broadband_type_id":4}
{"id":null,"anchorname":"MENDOTA POLICE DEPARTMENT","address":"607 8TH AVENUE","bldgnbr":"607","predir":null,"streetname":"8TH","streettype":"AVE","suffdir":null,"city":"MENDOTA","state_code":"IL","zip5":"61342","latitude":"41.5464890000000000","longitude":"-89.119835000000000","publicwifi":"U","url":null,"broadband_type_id":4}
{"id":null,"anchorname":"DIMMICK COMM CONS SCHOOL","address":"297 NORTH 33RD RD","bldgnbr":"297","predir":"N","streetname":"33RD","streettype":"RD","suffdir":null,"city":"LA SALLE","state_code":"IL","zip5":"61301","latitude":"41.4114350000000000","longitude":"-89.107584000000000","publicwifi":"U","url":null,"broadband_type_id":6}
{"id":null,"anchorname":"MANATEE COUNTY STUDENT SERVICES/ MIGRANT/ VIRTUAL PROGRAM/ MCKAY SCHOLARSHIP/ HOMEBOUND PROGRAM","address":"215 MANATEE AVE W, BRADENTON, FL 34205","bldgnbr":"215","predir":null,"streetname":"MANATEE","streettype":"AVE","suffdir":null,"city":"BRADENTON","state_code":"FL","zip5":"34205","latitude":"27.4948260400000000","longitude":"-82.564754720000000","publicwifi":"U","url":"0","broadband_type_id":6}
{"id":null,"anchorname":"ILLINOIS DEPT OF TRANSPORTATION","address":"2991 EAST 350TH  ST","bldgnbr":"2991","predir":"E","streetname":"350TH","streettype":"ST","suffdir":null,"city":"LASALLE","state_code":"IL","zip5":"61301","latitude":"41.3671320000000000","longitude":"-89.067715000000000","publicwifi":"U","url":null,"broadband_type_id":6}
{"id":null,"anchorname":"ILLINOIS SECRETARY OF STATE","address":"404 EAST STEVENSON  ROAD","bldgnbr":"404","predir":"E","streetname":"STEVENSON","streettype":"RD","suffdir":null,"city":"OTTAWA","state_code":"IL","zip5":"61350","latitude":"41.3793790000000000","longitude":"-88.833905000000000","publicwifi":"U","url":null,"broadband_type_id":6}
{"id":null,"anchorname":"ILLINOIS DEPT OF CORRECTIONS","address":"4017 EAST 2603 ROAD","bldgnbr":"4017","predir":"E","streetname":"2603","streettype":"RD","suffdir":null,"city":"SHERIDAN","state_code":"IL","zip5":"60551","latitude":"41.5170610000000000","longitude":"-88.679551000000000","publicwifi":"U","url":null,"broadband_type_id":6}
{"id":null,"anchorname":"IL VETERANS HOME AT LASALLE","address":"1015 O'CONOR","bldgnbr":"1015","predir":null,"streetname":"O'CONOR","streettype":null,"suffdir":null,"city":"LASALLE","state_code":"IL","zip5":"61301","latitude":"41.3462700000000000","longitude":"-89.092585000000000","publicwifi":"U","url":null,"broadband_type_id":null}
{"id":null,"anchorname":"ILLINOIS DEPT OF CHILDREN AND FAMILY SERVICES - NETWORK(CFS)","address":"776 CENTENNIAL","bldgnbr":"776","predir":null,"streetname":"CENTENNIAL","streettype":null,"suffdir":null,"city":"OTTAWA","state_code":"IL","zip5":"61350","latitude":"41.3750310000000000","longitude":"-88.825494000000000","publicwifi":"U","url":null,"broadband_type_id":6}
{"id":null,"anchorname":"LASALLE COUNTY DETENTION HOME","address":"707 EAST ETNA RD","bldgnbr":"707","predir":"\u003cNull\u003e","streetname":"EAST ETNA RD","streettype":null,"suffdir":null,"city":"OTTAWA","state_code":"IL","zip5":"61350","latitude":"41.3736280000000000","longitude":"-88.823009000000000","publicwifi":"U","url":null,"broadband_type_id":1}
{"id":null,"anchorname":"ILLINOIS DEPT OF CENTRAL MANAGEMENT SERVICES","address":"1620 PORTER","bldgnbr":"1620","predir":null,"streetname":"PORTER","streettype":null,"suffdir":null,"city":"OTTAWA","state_code":"IL","zip5":"61350","latitude":"41.3565400000000000","longitude":"-88.831874000000000","publicwifi":"U","url":null,"broadband_type_id":6}
{"id":null,"anchorname":"ILLINOIS DEPT OF TRANSPORTATION","address":"700 EAST NORRIS  DRIVE","bldgnbr":"700","predir":"E","streetname":"NORRIS","streettype":"DR","suffdir":null,"city":"OTTAWA","state_code":"IL","zip5":"61350","latitude":"41.3563480000000000","longitude":"-88.831904000000000","publicwifi":"U","url":null,"broadband_type_id":6}
{"id":null,"anchorname":"ILLINOIS DEPT OF TRANSPORTATION DISTRICT 3","address":"700 EAST NORRIS DRIVE","bldgnbr":"700","predir":"E","streetname":"NORRIS","streettype":"DR","suffdir":null,"city":"OTTAWA","state_code":"IL","zip5":"61350","latitude":"41.3563480000000000","longitude":"-88.831904000000000","publicwifi":"U","url":null,"broadband_type_id":6}
{"id":null,"anchorname":"OFFICE OF REHABILITATION SERVICES","address":"905 SECOND ST","bldgnbr":"905","predir":null,"streetname":"SECOND","streettype":"ST","suffdir":null,"city":"LASALLE","state_code":"IL","zip5":"61301","latitude":"41.3295430000000000","longitude":"-89.092733000000000","publicwifi":"U","url":null,"broadband_type_id":6}
{"id":null,"anchorname":"LASALLE-PERU CHRISTIAN SCHOOL","address":"200 24TH ST","bldgnbr":"200","predir":"\u003cNull\u003e","streetname":"24TH","streettype":null,"suffdir":null,"city":"LA SALLE","state_code":"IL","zip5":"61301","latitude":"41.3531736390000000","longitude":"-89.103937310000000","publicwifi":"U","url":null,"broadband_type_id":6}
{"id":null,"anchorname":"NORTHWEST ELEM SCHOOL","address":"1735 MALCOLM AVE","bldgnbr":"1735","predir":null,"streetname":"MALCOLM","streettype":"AVE","suffdir":null,"city":"LA SALLE","state_code":"IL","zip5":"61301","latitude":"41.3461160000000000","longitude":"-89.101570000000000","publicwifi":"U","url":null,"broadband_type_id":6}
{"id":null,"anchorname":"WALLACE ELEM SCHOOL","address":"1463 NORTH 33RD RD","bldgnbr":"1463","predir":"N","streetname":"33RD","streettype":"RD","suffdir":null,"city":"OTTAWA","state_code":"IL","zip5":"61350","latitude":"41.4115670000000000","longitude":"-88.881343000000000","publicwifi":"U","url":null,"broadband_type_id":6}
{"id":null,"anchorname":"WALTHAM ELEMENTARY SCHOOL","address":"946 NORTH 33RD RD","bldgnbr":"946","predir":"N","streetname":"33RD","streettype":"RD","suffdir":null,"city":"UTICA","state_code":"IL","zip5":"61373","latitude":"41.4111230000000000","longitude":"-88.983235000000000","publicwifi":"U","url":null,"broadband_type_id":6}
{"id":null,"anchorname":"UTICA PUBLIC LIBRARY DISTRICT","address":"MILL \u0026 GROVE STS","bldgnbr":"N/A","predir":null,"streetname":"MILL \u0026 GROVE","streettype":"ST","suffdir":null,"city":"UTICA","state_code":"IL","zip5":"61373","latitude":"41.3421130000000000","longitude":"-89.009409000000000","publicwifi":"Y","url":"http://uticalibrary.org/","broadband_type_id":6}
{"id":null,"anchorname":"UTICA FIRE DEPARTMENT","address":"214 MILL ST","bldgnbr":"214","predir":null,"streetname":"MILL","streettype":"ST","suffdir":null,"city":"UTICA","state_code":"IL","zip5":"61373","latitude":"41.3420770000000000","longitude":"-89.009346000000000","publicwifi":"U","url":null,"broadband_type_id":5}
{"id":null,"anchorname":"LASALLE COUNTY NURSING HOME","address":"1380 NORTH 27TH ROAD","bldgnbr":"1380","predir":"N","streetname":"27TH","streettype":null,"suffdir":null,"city":"OTTAWA","state_code":"IL","zip5":"61350","latitude":"41.3316990000000000","longitude":"-88.897527000000000","publicwifi":"U","url":null,"broadband_type_id":3}
{"id":null,"anchorname":"UTICA POLICE DEPARTMENT","address":"801 SOUTH CLARK ST","bldgnbr":"801","predir":"S","streetname":"CLARK","streettype":"ST","suffdir":null,"city":"UTICA","state_code":"IL","zip5":"61373","latitude":"41.3334530000000000","longitude":"-89.010584000000000","publicwifi":"U","url":null,"broadband_type_id":4}
{"id":null,"anchorname":"SHERIDAN ELEM SCHOOL","address":"115 EAST SI JOHNSON AVE","bldgnbr":"1360","predir":"N","streetname":"SHERIDAN","streettype":"RD","suffdir":null,"city":"SHERIDAN","state_code":"IL","zip5":"60551","latitude":"41.5298750000000000","longitude":"-88.679940000000000","publicwifi":"U","url":null,"broadband_type_id":6}
{"id":null,"anchorname":"ROBERT W ROWE PUBLIC LIBRARY DIST","address":"120 EAST SI JOHNSON AVENUE","bldgnbr":"120","predir":"E","streetname":"SI JOHNSON","streettype":"AVE","suffdir":null,"city":"SHERIDAN","state_code":"IL","zip5":"60551","latitude":"41.5300270000000000","longitude":"-88.679901000000000","publicwifi":"Y","url":"http://rwrlibrary.org/","broadband_type_id":6}
{"id":null,"anchorname":"SHERIDAN SDA ELEMENTARY SCHOOL","address":"3904 E 2603RD RD","bldgnbr":"3904","predir":"\u003cNull\u003e","streetname":"2603RD RD","streettype":null,"suffdir":null,"city":"SHERIDAN","state_code":"IL","zip5":"60551","latitude":"41.4973441020000000","longitude":"-88.670301094000000","publicwifi":"U","url":null,"broadband_type_id":6}
{"id":null,"anchorname":"SERENA COMMUNITY FIRE PROTECTION DISTRICT","address":"133  RT 52","bldgnbr":"133","predir":null,"streetname":"ROUTE 52","streettype":null,"suffdir":null,"city":"SERENA","state_code":"IL","zip5":"60549","latitude":"41.4850600000000000","longitude":"-88.747497000000000","publicwifi":"U","url":null,"broadband_type_id":5}
{"id":null,"anchorname":"SERENA ELEM SCHOOL","address":"2283 NORTH 3812TH RD","bldgnbr":"2283","predir":"\u003cNull\u003e","streetname":"3812th","streettype":null,"suffdir":null,"city":"SERENA","state_code":"IL","zip5":"60549","latitude":"41.4876550000000000","longitude":"-88.730811000000000","publicwifi":"U","url":null,"broadband_type_id":6}
{"id":null,"anchorname":"SERENA HIGH SCHOOL","address":"2283 NORTH 3812TH RD","bldgnbr":"2283","predir":"\u003cNull\u003e","streetname":"3812th","streettype":null,"suffdir":null,"city":"SERENA","state_code":"IL","zip5":"60549","latitude":"41.4876270000000000","longitude":"-88.730823000000000","publicwifi":"U","url":null,"broadband_type_id":6}
{"id":null,"anchorname":"RUTLAND ELEM SCHOOL","address":"RR 71 EAST 3231","bldgnbr":"3231","predir":null,"streetname":"IL ROUTE 71","streettype":null,"suffdir":"E","city":"OTTAWA","state_code":"IL","zip5":"61350","latitude":"41.3993170000000000","longitude":"-88.752302000000000","publicwifi":"U","url":null,"broadband_type_id":6}
{"id":null,"anchorname":"COMMUNITY HOSPITAL OF OTTAWA","address":"1100 EAST NORRIS DRIVE","bldgnbr":"1100","predir":"E","streetname":"NORRIS","streettype":null,"suffdir":null,"city":"OTTAWA","state_code":"IL","zip5":"61350","latitude":"41.3563300000000000","longitude":"-88.824575000000000","publicwifi":"U","url":null,"broadband_type_id":3}
{"id":null,"anchorname":"OTTAWA TOWNSHIP HIGH SCHOOL","address":"211 EAST MAIN ST","bldgnbr":"211","predir":"E","streetname":"MAIN","streettype":"ST","suffdir":null,"city":"OTTAWA","state_code":"IL","zip5":"61350","latitude":"41.3457070000000000","longitude":"-88.839210000000000","publicwifi":"U","url":null,"broadband_type_id":6}
{"id":null,"anchorname":"MILTON POPE ELEM SCHOOL","address":"3197 EAST 28TH RD","bldgnbr":"3197","predir":"E","streetname":"28TH","streettype":"RD","suffdir":null,"city":"MARSEILLES","state_code":"IL","zip5":"61341","latitude":"41.3975860000000000","longitude":"-88.633301000000000","publicwifi":"U","url":null,"broadband_type_id":6}
{"id":null,"anchorname":"SENECA POLICE DEPARTMENT","address":"303 CASH ST","bldgnbr":"303","predir":null,"streetname":"CASH","streettype":"ST","suffdir":null,"city":"SENECA","state_code":"IL","zip5":"61360","latitude":"41.3160350000000000","longitude":"-88.611144000000000","publicwifi":"U","url":null,"broadband_type_id":4}
{"id":null,"anchorname":"ILLINOIS STATE POLICE  NETWORK (LOC)","address":"303 NORTH CASH  ST","bldgnbr":"303","predir":"N","streetname":"CASH","streettype":"ST","suffdir":null,"city":"SENECA","state_code":"IL","zip5":"61360","latitude":"41.3160350000000000","longitude":"-88.611144000000000","publicwifi":"U","url":null,"broadband_type_id":4}
{"id":null,"anchorname":"SENECA HIGH SCHOOL","address":"307 EAST SCOTT ST","bldgnbr":"307","predir":"\u003cNull\u003e","streetname":"Scott","streettype":null,"suffdir":null,"city":"SENECA","state_code":"IL","zip5":"61360","latitude":"41.3150000000000000","longitude":"-88.602800000000000","publicwifi":"U","url":null,"broadband_type_id":6}
{"id":null,"anchorname":"SENECA FIRE DEPARTMENT","address":"121 WEST ARMOUR ST","bldgnbr":"121","predir":"W","streetname":"ARMOUR","streettype":"ST","suffdir":null,"city":"SENECA","state_code":"IL","zip5":"61360","latitude":"41.3162810000000000","longitude":"-88.609217000000000","publicwifi":"U","url":null,"broadband_type_id":5}
{"id":null,"anchorname":"SENECA PUBLIC LIBRARY DIST","address":"210 NORTH MAIN ST","bldgnbr":"210","predir":"N","streetname":"MAIN","streettype":"ST","suffdir":null,"city":"SENECA","state_code":"IL","zip5":"61360","latitude":"41.3142620000000000","longitude":"-88.609880000000000","publicwifi":"Y","url":"http://www.senecalibrary.net/","broadband_type_id":6}
{"id":null,"anchorname":"RIVER SHORES  CARE CENTER","address":"578 WEST COMMERCIAL ST","bldgnbr":"578","predir":"W","streetname":"COMMERCIAL","streettype":"ST","suffdir":null,"city":"MARSEILLES","state_code":"IL","zip5":"61341","latitude":"41.3288880000000000","longitude":"-88.718851000000000","publicwifi":"U","url":null,"broadband_type_id":3}
{"id":null,"anchorname":"ILLINOIS STATE POLICE  NETWORK (LOC)","address":"707 ETNA ROAD","bldgnbr":"707","predir":null,"streetname":"ETNA","streettype":"RD","suffdir":null,"city":"OTTAWA","state_code":"IL","zip5":"61350","latitude":"41.3735700000000000","longitude":"-88.827721000000000","publicwifi":"U","url":null,"broadband_type_id":4}
{"id":null,"anchorname":"LASALLE COUNTY SHERIFF'S OFFICE","address":"707 EAST ETNA ROAD","bldgnbr":"707","predir":"E","streetname":"ETNA","streettype":"RD","suffdir":null,"city":"OTTAWA","state_code":"IL","zip5":"61350","latitude":"41.3735700000000000","longitude":"-88.827721000000000","publicwifi":"U","url":null,"broadband_type_id":4}
{"id":null,"anchorname":"JEFFERSON ELEM SCHOOL","address":"1709 COLUMBUS ST","bldgnbr":"1709","predir":null,"streetname":"COLUMBUS","streettype":"ST","suffdir":null,"city":"OTTAWA","state_code":"IL","zip5":"61350","latitude":"41.3575840000000000","longitude":"-88.841105000000000","publicwifi":"U","url":null,"broadband_type_id":6}
{"id":null,"anchorname":"MARQUETTE HIGH SCHOOL","address":"1000 PAUL ST","bldgnbr":"1000","predir":"\u003cNull\u003e","streetname":"PAUL","streettype":null,"suffdir":null,"city":"OTTAWA","state_code":"IL","zip5":"61350","latitude":"41.3500172940000000","longitude":"-88.839659351000000","publicwifi":"U","url":null,"broadband_type_id":6}
{"id":null,"anchorname":"STARCOAST - A DISTANCE LEARNING ACADEMY","address":"5726 CORTEZ RD #220, BRADENTON, FL 34210","bldgnbr":"5726","predir":null,"streetname":"CORTEZ","streettype":"RD","suffdir":null,"city":"BRADENTON","state_code":"FL","zip5":"34210","latitude":"27.4626255700000000","longitude":"-82.619344350000000","publicwifi":"U","url":"0","broadband_type_id":6}
{"id":null,"anchorname":"MANATEE COUNTY EMERGENCY MANAGEMENT","address":"2101 47TH TERRACE EAST, BRADENTON, FL 34206","bldgnbr":"2101","predir":null,"streetname":"47TH","streettype":"TER","suffdir":null,"city":"BRADENTON","state_code":"FL","zip5":"34206","latitude":"27.4581073400000000","longitude":"-82.536687370000000","publicwifi":"U","url":"0","broadband_type_id":1}
{"id":null,"anchorname":"PALMETTO DIALYSIS CENTER LLC","address":"627 10TH ST E, PALMETTO, FL, 34221","bldgnbr":"627","predir":"0","streetname":"10TH","streettype":"ST","suffdir":"E","city":"PALMETTO","state_code":"FL","zip5":"34221","latitude":"27.5211470000000000","longitude":"-82.571329000000000","publicwifi":"U","url":"0","broadband_type_id":6}
{"id":null,"anchorname":"HERITAGE MANOR - PERU","address":"1301 21ST ST","bldgnbr":"1301","predir":null,"streetname":"21ST","streettype":"ST","suffdir":null,"city":"PERU","state_code":"IL","zip5":"61354","latitude":"41.3402240000000000","longitude":"-89.121725000000000","publicwifi":"U","url":null,"broadband_type_id":1}
{"id":null,"anchorname":"BEST INC.- PERU","address":"3691 COUGAR DRIVE , UNIT B","bldgnbr":"3691","predir":null,"streetname":"COUGAR","streettype":"DR","suffdir":null,"city":"PERU","state_code":"IL","zip5":"61354","latitude":"41.3613110000000000","longitude":"-89.163700000000000","publicwifi":"U","url":null,"broadband_type_id":6}
{"id":null,"anchorname":"ILLINOIS SECRETARY OF STATE","address":"536 THIRD  ST","bldgnbr":"536","predir":null,"streetname":"THIRD","streettype":"ST","suffdir":null,"city":"LASALLE","state_code":"IL","zip5":"61301","latitude":"41.3300790000000000","longitude":"-89.097969000000000","publicwifi":"U","url":null,"broadband_type_id":6}
{"id":null,"anchorname":"MANOR COURT OF PERU","address":"3230 BECKER DRIVE","bldgnbr":"3230","predir":null,"streetname":"BECKER","streettype":"DR","suffdir":null,"city":"PERU","state_code":"IL","zip5":"61354","latitude":"41.3491360000000000","longitude":"-89.121142000000000","publicwifi":"U","url":null,"broadband_type_id":1}
{"id":null,"anchorname":"OFFICE OF THE STATE APPELLATE DEFENDER","address":"1100 COLUMBUS","bldgnbr":"1100","predir":null,"streetname":"COLUMBUS","streettype":null,"suffdir":null,"city":"OTTAWA","state_code":"IL","zip5":"61350","latitude":"41.3510550000000000","longitude":"-88.841142000000000","publicwifi":"U","url":null,"broadband_type_id":1}
{"id":null,"anchorname":"ST BEDE ACADEMY","address":"24 W US HIGHWAY 6","bldgnbr":"24","predir":"\u003cNull\u003e","streetname":"US HIGHWAY 6","streettype":null,"suffdir":null,"city":"PERU","state_code":"IL","zip5":"61354","latitude":"41.3293516300000000","longitude":"-89.105876842000000","publicwifi":"U","url":null,"broadband_type_id":6}
{"id":null,"anchorname":"TRINITY CATHOLIC ACADEMY","address":"650 4TH ST","bldgnbr":"650","predir":"\u003cNull\u003e","streetname":"4TH","streettype":null,"suffdir":null,"city":"LA SALLE","state_code":"IL","zip5":"61301","latitude":"41.3312830200000000","longitude":"-89.096597247000000","publicwifi":"U","url":null,"broadband_type_id":6}
{"id":null,"anchorname":"CAPITAL DEVELOPMENT BOARD","address":"1222 SHOOTING PARK  ROAD","bldgnbr":"1222","predir":null,"streetname":"SHOOTING PARK","streettype":"RD","suffdir":null,"city":"PERU","state_code":"IL","zip5":"61354","latitude":"41.3384340000000000","longitude":"-89.122006000000000","publicwifi":"U","url":null,"broadband_type_id":null}
{"id":null,"anchorname":"STARVED ROCK FOR VOC TECH ED","address":"200 9TH ST","bldgnbr":"200","predir":null,"streetname":"9TH","streettype":"ST","suffdir":null,"city":"PERU","state_code":"IL","zip5":"61354","latitude":"41.3329680000000000","longitude":"-89.106896000000000","publicwifi":"U","url":null,"broadband_type_id":null}
{"id":null,"anchorname":"ST COLUMBA SCHOOL","address":"1110 LA SALLE ST","bldgnbr":"1110","predir":"\u003cNull\u003e","streetname":"LA SALLE","streettype":null,"suffdir":null,"city":"OTTAWA","state_code":"IL","zip5":"61350","latitude":"41.3511250980000000","longitude":"-88.842538092000000","publicwifi":"U","url":null,"broadband_type_id":6}
{"id":null,"anchorname":"REDDICK LIBRARY","address":"1010 CANAL ST","bldgnbr":"1010","predir":null,"streetname":"CANAL","streettype":"ST","suffdir":null,"city":"OTTAWA","state_code":"IL","zip5":"61350","latitude":"41.3500820000000000","longitude":"-88.845833000000000","publicwifi":"Y","url":"http://www.reddicklibrary.org/","broadband_type_id":6}
{"id":null,"anchorname":"OTTAWA FIRE DEPARTMENT","address":"301 WEST  LAFAYETTE ST","bldgnbr":"301","predir":"W","streetname":"LAFAYETTE","streettype":"ST","suffdir":null,"city":"OTTAWA","state_code":"IL","zip5":"61350","latitude":"41.3499080000000000","longitude":"-88.844130000000000","publicwifi":"U","url":null,"broadband_type_id":5}
{"id":null,"anchorname":"OTTAWA POLICE DEPARTMENT","address":"301 WEST LAFAYETTE ST","bldgnbr":"301","predir":"W","streetname":"LAFAYETTE","streettype":"ST","suffdir":null,"city":"OTTAWA","state_code":"IL","zip5":"61350","latitude":"41.3499080000000000","longitude":"-88.844130000000000","publicwifi":"U","url":null,"broadband_type_id":4}
{"id":null,"anchorname":"ILLINOIS HEALTHCARE AND FAMILY SERVICES","address":"119 WEST MADISON","bldgnbr":"119","predir":"W","streetname":"MADISON","streettype":null,"suffdir":null,"city":"OTTAWA","state_code":"IL","zip5":"61350","latitude":"41.3467940000000000","longitude":"-88.842126000000000","publicwifi":"U","url":null,"broadband_type_id":3}
{"id":null,"anchorname":"REGIONAL SAFE SCHOOL","address":"119 WEST MADISON ST RM 102","bldgnbr":"119","predir":"\u003cNull\u003e","streetname":"WEST MADISON ST RM 102","streettype":null,"suffdir":null,"city":"OTTAWA","state_code":"IL","zip5":"61350","latitude":"41.3468080000000000","longitude":"-88.842084000000000","publicwifi":"U","url":null,"broadband_type_id":6}
{"id":null,"anchorname":"CENTRAL ELEM SCHOOL","address":"400 CLINTON ST","bldgnbr":"400","predir":null,"streetname":"CLINTON","streettype":"ST","suffdir":null,"city":"OTTAWA","state_code":"IL","zip5":"61350","latitude":"41.3449880000000000","longitude":"-88.843981000000000","publicwifi":"U","url":null,"broadband_type_id":6}
{"id":null,"anchorname":"ST PATRICK SCHOOL","address":"801 W JEFFERSON ST","bldgnbr":"801","predir":"\u003cNull\u003e","streetname":"JEFFERSON","streettype":null,"suffdir":null,"city":"OTTAWA","state_code":"IL","zip5":"61350","latitude":"41.3477563480000000","longitude":"-88.851726517000000","publicwifi":"U","url":null,"broadband_type_id":6}
{"id":null,"anchorname":"NAPLATE FIRE DEPARTMENT","address":"2000 OTTAWA AVENUE","bldgnbr":"2000","predir":null,"streetname":"OTTAWA","streettype":"AVE","suffdir":null,"city":"NAPLATE","state_code":"IL","zip5":"61350","latitude":"41.3366880000000000","longitude":"-88.871255000000000","publicwifi":"U","url":null,"broadband_type_id":5}
{"id":null,"anchorname":"LINCOLN ELEM SCHOOL","address":"1110 WEST MAIN ST","bldgnbr":"1110","predir":"W","streetname":"MAIN","streettype":"ST","suffdir":null,"city":"OTTAWA","state_code":"IL","zip5":"61350","latitude":"41.3456310000000000","longitude":"-88.855460000000000","publicwifi":"U","url":null,"broadband_type_id":6}
{"id":null,"anchorname":"LINCOLN JR HIGH SCHOOL","address":"1165 SAINT VINCENTS AVE","bldgnbr":"1165","predir":null,"streetname":"ST VINCENTS","streettype":"AVE","suffdir":null,"city":"LA SALLE","state_code":"IL","zip5":"61301","latitude":"41.3402580000000000","longitude":"-89.096347000000000","publicwifi":"U","url":null,"broadband_type_id":6}
{"id":null,"anchorname":"JACKSON  SCHOOL","address":"345 6TH ST","bldgnbr":"345","predir":null,"streetname":"6TH","streettype":"ST","suffdir":null,"city":"LA SALLE","state_code":"IL","zip5":"61301","latitude":"41.3332100000000000","longitude":"-89.101255000000000","publicwifi":"U","url":null,"broadband_type_id":6}
{"id":null,"anchorname":"LA SALLE-PERU AREA CAREER CTR","address":"542 CHARTRES ST","bldgnbr":"542","predir":null,"streetname":"CHARTRES","streettype":"ST","suffdir":null,"city":"LA SALLE","state_code":"IL","zip5":"61301","latitude":"41.3322790000000000","longitude":"-89.104462000000000","publicwifi":"U","url":null,"broadband_type_id":3}
{"id":null,"anchorname":"LA SALLE-PERU AREA CAREER CTR","address":"542 CHARTRES ST","bldgnbr":"542","predir":"\u003cNull\u003e","streetname":"CHARTRES ST","streettype":null,"suffdir":null,"city":"LA SALLE","state_code":"IL","zip5":"61301","latitude":"41.3322590000000000","longitude":"-89.104446000000000","publicwifi":"U","url":null,"broadband_type_id":3}
{"id":null,"anchorname":"NORTHVIEW ELEM SCHOOL","address":"1429 SHOOTING PARK RD","bldgnbr":"1429","predir":null,"streetname":"SHOOTING PK","streettype":"RD","suffdir":null,"city":"PERU","state_code":"IL","zip5":"61354","latitude":"41.3384950000000000","longitude":"-89.124297000000000","publicwifi":"U","url":null,"broadband_type_id":6}
{"id":null,"anchorname":"PERU PUBLIC LIBRARY","address":"1409 11TH ST","bldgnbr":"1409","predir":null,"streetname":"11TH","streettype":"ST","suffdir":null,"city":"PERU","state_code":"IL","zip5":"61354","latitude":"41.3340840000000000","longitude":"-89.124493000000000","publicwifi":"Y","url":"http://www.perulibrary.org/","broadband_type_id":6}
{"id":null,"anchorname":"WASHINGTON ELEM SCHOOL","address":"1325 PARK RD","bldgnbr":"1325","predir":null,"streetname":"PARK","streettype":"RD","suffdir":null,"city":"PERU","state_code":"IL","zip5":"61354","latitude":"41.3314380000000000","longitude":"-89.123050000000000","publicwifi":"U","url":null,"broadband_type_id":6}
{"id":null,"anchorname":"LA SALLE-PERU TWP HIGH SCHOOL","address":"541 CHARTRES ST","bldgnbr":"541","predir":null,"streetname":"CHARTRES","streettype":"ST","suffdir":null,"city":"LA SALLE","state_code":"IL","zip5":"61301","latitude":"41.3322250000000000","longitude":"-89.104588000000000","publicwifi":"U","url":null,"broadband_type_id":6}
{"id":null,"anchorname":"PERU CATHOLIC SCHOOL","address":"2003 5TH ST","bldgnbr":"2003","predir":"\u003cNull\u003e","streetname":"5TH","streettype":null,"suffdir":null,"city":"PERU","state_code":"IL","zip5":"61354","latitude":"41.3285566300000000","longitude":"-89.131933647000000","publicwifi":"U","url":null,"broadband_type_id":6}
{"id":null,"anchorname":"CIRCUIT BREAKER SCHOOL","address":"2233 6TH ST","bldgnbr":"2233","predir":"\u003cNull\u003e","streetname":"6TH ST","streettype":null,"suffdir":null,"city":"PERU","state_code":"IL","zip5":"61354","latitude":"41.3294320000000000","longitude":"-89.134912000000000","publicwifi":"U","url":null,"broadband_type_id":6}
{"id":null,"anchorname":"ILLINOIS VALLEY COMMUNITY HOSPITAL","address":"925 WEST ST","bldgnbr":"925","predir":"W","streetname":"STREET","streettype":null,"suffdir":null,"city":"PERU","state_code":"IL","zip5":"61354","latitude":"41.3287970000000000","longitude":"-89.125157000000000","publicwifi":"U","url":null,"broadband_type_id":3}
{"id":null,"anchorname":"ILLINOIS STATE POLICE  NETWORK (LOC)","address":"1503 FOURTH ST","bldgnbr":"1503","predir":null,"streetname":"FOURTH","streettype":"ST","suffdir":null,"city":"PERU","state_code":"IL","zip5":"61354","latitude":"41.3277150000000000","longitude":"-89.125845000000000","publicwifi":"U","url":null,"broadband_type_id":4}
{"id":null,"anchorname":"PERU DEPARTMENT OF POLICE","address":"1503 4TH ST","bldgnbr":"1503","predir":null,"streetname":"4TH","streettype":"ST","suffdir":null,"city":"PERU","state_code":"IL","zip5":"61354","latitude":"41.3277150000000000","longitude":"-89.125845000000000","publicwifi":"U","url":null,"broadband_type_id":4}
{"id":null,"anchorname":"PERU FIRE DEPARTMENT","address":"816 WEST ST","bldgnbr":"816","predir":"W","streetname":"STREET","streettype":null,"suffdir":null,"city":"PERU","state_code":"IL","zip5":"61354","latitude":"41.3277270000000000","longitude":"-89.125275000000000","publicwifi":"U","url":null,"broadband_type_id":5}
{"id":null,"anchorname":"PERU POLICE DEPARTMENT","address":"1503 FOURTH ST","bldgnbr":"1503","predir":null,"streetname":"FOURTH","streettype":"ST","suffdir":null,"city":"PERU","state_code":"IL","zip5":"61354","latitude":"41.3277150000000000","longitude":"-89.125845000000000","publicwifi":"U","url":null,"broadband_type_id":4}
{"id":null,"anchorname":"CEDAR POINT FIRE DEPARTMENT","address":"201 OAK ST","bldgnbr":"201","predir":null,"streetname":"OAK","streettype":"ST","suffdir":null,"city":"CEDAR POINT","state_code":"IL","zip5":"61316","latitude":"41.2642220000000000","longitude":"-89.124770000000000","publicwifi":"U","url":null,"broadband_type_id":5}
{"id":null,"anchorname":"CARUS CHEMICAL COMPANY RESEARCH LIBRARY","address":"1500 EIGHTH ST BUILDING 45","bldgnbr":"1500","predir":null,"streetname":"EIGHTH","streettype":"ST","suffdir":null,"city":"LASALLE","state_code":"IL","zip5":"61301","latitude":"41.3364470000000000","longitude":"-89.088694000000000","publicwifi":"N","url":null,"broadband_type_id":6}
{"id":null,"anchorname":"LASALLE FIRE DEPARTMENT","address":"1227 5TH ST","bldgnbr":"1227","predir":null,"streetname":"5TH","streettype":"ST","suffdir":null,"city":"LASALLE","state_code":"IL","zip5":"61301","latitude":"41.3332020000000000","longitude":"-89.088834000000000","publicwifi":"U","url":null,"broadband_type_id":5}
{"id":null,"anchorname":"ILLINOIS STATE POLICE  NETWORK (LOC)","address":"745 SECOND ST","bldgnbr":"745","predir":null,"streetname":"SECOND","streettype":"ST","suffdir":null,"city":"LASALLE","state_code":"IL","zip5":"61301","latitude":"41.3293620000000000","longitude":"-89.094933000000000","publicwifi":"U","url":null,"broadband_type_id":4}
{"id":null,"anchorname":"FLORIDA DEPARTMENT OF CHILDREN AND FAMILIES BRADENTON SERVICE CENTER","address":"4210 20TH ST W, BRADENTON, FL 34205","bldgnbr":"4210","predir":null,"streetname":"20TH","streettype":"ST","suffdir":null,"city":"BRADENTON","state_code":"FL","zip5":"34205","latitude":"27.4639232400000000","longitude":"-82.581517100000000","publicwifi":"Y","url":"0","broadband_type_id":6}
{"id":null,"anchorname":"FLORIDA HIGHWAY PATROL BRADENTON - TROOP F","address":"5023 53RD AVE. E., BRADENTON, FL 34203","bldgnbr":"5023","predir":null,"streetname":"53RD","streettype":"AVE","suffdir":null,"city":"BRADENTON","state_code":"FL","zip5":"34203","latitude":"27.4465833100000000","longitude":"-82.497834700000000","publicwifi":"U","url":"0","broadband_type_id":4}
{"id":null,"anchorname":"EASTER SEALS SOUTHWEST FLORIDA","address":"350 BRADEN AVE, SARASOTA, FL 34243","bldgnbr":"350","predir":null,"streetname":"BRADEN","streettype":"AVE","suffdir":null,"city":"SARASOTA","state_code":"FL","zip5":"34243","latitude":"27.3959111400000000","longitude":"-82.566078640000000","publicwifi":"Y","url":"0","broadband_type_id":6}
{"id":null,"anchorname":"ILLINOIS DEPT OF EMPLOYMENT SECURITY","address":"1550 1ST  AVENUE","bldgnbr":"1550","predir":null,"streetname":"1ST","streettype":"AVE","suffdir":null,"city":"OTTAWA","state_code":"IL","zip5":"61350","latitude":"41.3216100000000000","longitude":"-88.836807000000000","publicwifi":"U","url":null,"broadband_type_id":6}
{"id":null,"anchorname":"ILLINOIS EMERGENCY MANAGEMENT AGENCY","address":"2601 NORTH 21ST  ROAD","bldgnbr":"2601","predir":"N","streetname":"21ST","streettype":"RD","suffdir":null,"city":"MARSEILLES","state_code":"IL","zip5":"61341","latitude":"41.2383210000000000","longitude":"-88.664259000000000","publicwifi":"U","url":null,"broadband_type_id":6}
{"id":null,"anchorname":"HERITAGE MANOR - STREATOR","address":"1525 EAST MAIN ST","bldgnbr":"1525","predir":"E","streetname":"MAIN","streettype":"ST","suffdir":null,"city":"STREATOR","state_code":"IL","zip5":"61364","latitude":"41.1209860000000000","longitude":"-88.812112000000000","publicwifi":"U","url":null,"broadband_type_id":1}
{"id":null,"anchorname":"ILLINOIS SECRETARY OF STATE","address":"201 DANNY'S DRIVE","bldgnbr":"201","predir":null,"streetname":"DANNY'S","streettype":"DR","suffdir":null,"city":"STREATOR","state_code":"IL","zip5":"61364","latitude":"41.1446090000000000","longitude":"-88.838448000000000","publicwifi":"U","url":null,"broadband_type_id":6}
{"id":null,"anchorname":"PLEASANT VIEW LUTHER HOME","address":"505 COLLEGE AVENUE","bldgnbr":"505","predir":null,"streetname":"COLLEGE","streettype":null,"suffdir":null,"city":"OTTAWA","state_code":"IL","zip5":"61350","latitude":"41.3315260000000000","longitude":"-88.843414000000000","publicwifi":"U","url":null,"broadband_type_id":null}
{"id":null,"anchorname":"EASTER SEALS","address":"1013 ADAMS ST","bldgnbr":"1013","predir":null,"streetname":"ADAMS","streettype":"ST","suffdir":null,"city":"OTTAWA","state_code":"IL","zip5":"61350","latitude":"41.3278140000000000","longitude":"-88.846690000000000","publicwifi":"U","url":null,"broadband_type_id":null}
{"id":null,"anchorname":"OTTAWA PAVILION","address":"800 EAST CENTER ST","bldgnbr":"800","predir":"E","streetname":"CENTER","streettype":null,"suffdir":null,"city":"OTTAWA","state_code":"IL","zip5":"61350","latitude":"41.3369990000000000","longitude":"-88.831004000000000","publicwifi":"U","url":null,"broadband_type_id":null}
{"id":null,"anchorname":"SULLIVAN HOUSE","address":"600 EAST GROVER","bldgnbr":"600","predir":"E","streetname":"GROVER","streettype":null,"suffdir":null,"city":"OTTAWA","state_code":"IL","zip5":"61350","latitude":"41.3335260000000000","longitude":"-88.833079000000000","publicwifi":"U","url":null,"broadband_type_id":null}
{"id":null,"anchorname":"KANTHAK HOUSE","address":"724 SECOND AVENUE","bldgnbr":"724","predir":null,"streetname":"SECOND","streettype":"AVE","suffdir":null,"city":"OTTAWA","state_code":"IL","zip5":"61350","latitude":"41.3341970000000000","longitude":"-88.835888000000000","publicwifi":"U","url":null,"broadband_type_id":null}
{"id":null,"anchorname":"ADV/SAS","address":"510 N Bloomington St","bldgnbr":"510","predir":"N","streetname":"Bloomington","streettype":"ST","suffdir":null,"city":"STREATOR","state_code":"IL","zip5":"61364","latitude":"41.1262810000000000","longitude":"-88.835876000000000","publicwifi":"U","url":null,"broadband_type_id":null}
{"id":null,"anchorname":"ILLINOIS VALLEY COMMUNITY COLLEGE","address":"815 NORTH ORLANDO SMITH AVENUE","bldgnbr":"815","predir":"N","streetname":"ORLANDO SMITH","streettype":"AVE","suffdir":null,"city":"OGLESBY","state_code":"IL","zip5":"61348","latitude":"41.3082590000000000","longitude":"-89.096022000000000","publicwifi":"U","url":null,"broadband_type_id":6}
{"id":null,"anchorname":"ILLINOIS VALLEY COMMUNITY COLLEGE-DISLOCATED WORKERS CENTER","address":"815 NORTH ORLANDO SMITH ST","bldgnbr":"815","predir":"N","streetname":"ORLANDO SMITH","streettype":"ST","suffdir":null,"city":"OGLESBY","state_code":"IL","zip5":"61348","latitude":"41.3082590000000000","longitude":"-89.096022000000000","publicwifi":"U","url":null,"broadband_type_id":6}
{"id":null,"anchorname":"ILLINOIS STATE POLICE  NETWORK (LOC)","address":"128 WEST WALNUT","bldgnbr":"128","predir":"W","streetname":"WALNUT","streettype":null,"suffdir":null,"city":"OGLESBY","state_code":"IL","zip5":"61348","latitude":"41.2951640000000000","longitude":"-89.061599000000000","publicwifi":"U","url":null,"broadband_type_id":4}
{"id":null,"anchorname":"OGLESBY POLICE DEPARTMENT","address":"128 WEST WALNUT ST","bldgnbr":"128","predir":"W","streetname":"WALNUT","streettype":"ST","suffdir":null,"city":"OGLESBY","state_code":"IL","zip5":"61348","latitude":"41.2951640000000000","longitude":"-89.061599000000000","publicwifi":"U","url":null,"broadband_type_id":4}
{"id":null,"anchorname":"WASHINGTON ELEM SCHOOL","address":"212 WEST WALNUT ST","bldgnbr":"212","predir":"\u003cNull\u003e","streetname":"WEST WALNUT ST","streettype":null,"suffdir":null,"city":"OGLESBY","state_code":"IL","zip5":"61348","latitude":"41.2951580000000000","longitude":"-89.062705000000000","publicwifi":"U","url":null,"broadband_type_id":6}
{"id":null,"anchorname":"LINCOLN ELEM SCHOOL","address":"212 WEST WALNUT ST","bldgnbr":"212","predir":"W","streetname":"WALNUT","streettype":"ST","suffdir":null,"city":"OGLESBY","state_code":"IL","zip5":"61348","latitude":"41.2951580000000000","longitude":"-89.062705000000000","publicwifi":"U","url":null,"broadband_type_id":6}
{"id":null,"anchorname":"OGLESBY FIRE DEPARTMENT","address":"500 SOUTH COLUMBIA AVENUE","bldgnbr":"500","predir":"S","streetname":"COLUMBIA","streettype":"AVE","suffdir":null,"city":"OGLESBY","state_code":"IL","zip5":"61348","latitude":"41.2897660000000000","longitude":"-89.068004000000000","publicwifi":"U","url":null,"broadband_type_id":5}
{"id":null,"anchorname":"SHEPHERD MIDDLE SCHOOL","address":"701 EAST MCKINLEY RD","bldgnbr":"701","predir":"E","streetname":"MCKINLEY","streettype":"RD","suffdir":null,"city":"OTTAWA","state_code":"IL","zip5":"61350","latitude":"41.3244770000000000","longitude":"-88.829468000000000","publicwifi":"U","url":null,"broadband_type_id":6}
{"id":null,"anchorname":"MCKINLEY ELEM SCHOOL","address":"1320 STATE ST","bldgnbr":"258","predir":null,"streetname":"LOVELL","streettype":"ST","suffdir":null,"city":"OTTAWA","state_code":"IL","zip5":"61350","latitude":"41.3251250000000000","longitude":"-88.839641000000000","publicwifi":"U","url":null,"broadband_type_id":6}
{"id":null,"anchorname":"SENECA GRADE SCHOOL NORTH CAMPUS","address":"174 OAK ST","bldgnbr":"174","predir":null,"streetname":"OAK","streettype":"ST","suffdir":null,"city":"SENECA","state_code":"IL","zip5":"61360","latitude":"41.3090890000000000","longitude":"-88.607908000000000","publicwifi":"U","url":null,"broadband_type_id":6}
{"id":null,"anchorname":"SENECA ELEM SCHOOL SOUTH CAMPUS","address":"174 OAK ST","bldgnbr":"174","predir":"\u003cNull\u003e","streetname":"OAK ST","streettype":null,"suffdir":null,"city":"SENECA","state_code":"IL","zip5":"61360","latitude":"41.3090890000000000","longitude":"-88.607908000000000","publicwifi":"U","url":null,"broadband_type_id":6}
{"id":null,"anchorname":"MARSEILLES ELEMENTARY SCHOOL","address":"201 CHICAGO ST","bldgnbr":"201","predir":null,"streetname":"CHICAGO","streettype":"ST","suffdir":null,"city":"MARSEILLES","state_code":"IL","zip5":"61341","latitude":"41.3241580000000000","longitude":"-88.698146000000000","publicwifi":"U","url":null,"broadband_type_id":6}
{"id":null,"anchorname":"MARSEILLES PUBLIC LIBRARY","address":"155 EAST BLUFF ST","bldgnbr":"155","predir":"E","streetname":"BLUFF","streettype":"ST","suffdir":null,"city":"MARSEILLES","state_code":"IL","zip5":"61341","latitude":"41.3301700000000000","longitude":"-88.707046000000000","publicwifi":"Y","url":"http://marseilleslibrary.com/","broadband_type_id":6}
{"id":null,"anchorname":"ILLINOIS STATE POLICE  NETWORK (LOC)","address":"209 LINCOLN","bldgnbr":"209","predir":null,"streetname":"LINCOLN","streettype":null,"suffdir":null,"city":"MARSEILLES","state_code":"IL","zip5":"61341","latitude":"41.3282740000000000","longitude":"-88.708481000000000","publicwifi":"U","url":null,"broadband_type_id":4}
{"id":null,"anchorname":"MARSEILLES FIRE DEPARTMENT","address":"205 LINCOLN ST","bldgnbr":"205","predir":null,"streetname":"LINCOLN","streettype":"ST","suffdir":null,"city":"MARSEILLES","state_code":"IL","zip5":"61341","latitude":"41.3283040000000000","longitude":"-88.708611000000000","publicwifi":"U","url":null,"broadband_type_id":5}
{"id":null,"anchorname":"MARSEILLES POLICE DEPARTMENT","address":"209 LINCOLN ST","bldgnbr":"209","predir":null,"streetname":"LINCOLN","streettype":"ST","suffdir":null,"city":"MARSEILLES","state_code":"IL","zip5":"61341","latitude":"41.3282740000000000","longitude":"-88.708481000000000","publicwifi":"U","url":null,"broadband_type_id":4}
{"id":null,"anchorname":"ALLEN TOWNSHIP FIRE PROTECTION DISTRICT","address":"102 S LINCOLN ST","bldgnbr":"102","predir":"S","streetname":"LINCOLN","streettype":"ST","suffdir":null,"city":"RANSOM","state_code":"IL","zip5":"60470","latitude":"41.1566830000000000","longitude":"-88.652790000000000","publicwifi":"U","url":null,"broadband_type_id":5}
{"id":null,"anchorname":"RANSOM GRADE SCHOOL","address":"400 SOUTH LN ST","bldgnbr":"400","predir":"S","streetname":"LANE","streettype":"ST","suffdir":null,"city":"RANSOM","state_code":"IL","zip5":"60470","latitude":"41.1541160000000000","longitude":"-88.654162000000000","publicwifi":"U","url":null,"broadband_type_id":6}
{"id":null,"anchorname":"STREATOR TWP HIGH SCHOOL","address":"202 WEST LINCOLN AVE","bldgnbr":"202","predir":"W","streetname":"LINCOLN","streettype":"AVE","suffdir":null,"city":"STREATOR","state_code":"IL","zip5":"61364","latitude":"41.1261830000000000","longitude":"-88.837028000000000","publicwifi":"U","url":null,"broadband_type_id":6}
{"id":null,"anchorname":"GRAND RIDGE SCHOOL","address":"400 WEST MAIN ST","bldgnbr":"400","predir":"W","streetname":"MAIN","streettype":"ST","suffdir":null,"city":"GRAND RIDGE","state_code":"IL","zip5":"61325","latitude":"41.2380200000000000","longitude":"-88.835900000000000","publicwifi":"U","url":null,"broadband_type_id":6}
{"id":null,"anchorname":"GRAND RIDGE VOLUNTEER FIRE DEPARTMENT","address":"5 E MAIN ST","bldgnbr":"5","predir":"E","streetname":"MAIN","streettype":"ST","suffdir":null,"city":"GRAND RIDGE","state_code":"IL","zip5":"61325","latitude":"41.2372780000000000","longitude":"-88.831511000000000","publicwifi":"U","url":null,"broadband_type_id":5}
{"id":null,"anchorname":"DEER PARK C C ELEM SCHOOL","address":"2350 EAST 1025TH RD","bldgnbr":"2350","predir":"E","streetname":"1025TH","streettype":"RD","suffdir":null,"city":"OTTAWA","state_code":"IL","zip5":"61350","latitude":"41.2689760000000000","longitude":"-88.966703000000000","publicwifi":"U","url":null,"broadband_type_id":6}
{"id":null,"anchorname":"TONICA GRADE SCHOOL","address":"535 NORTH 1981ST RD","bldgnbr":"535","predir":"N","streetname":"1981ST","streettype":"RD","suffdir":null,"city":"TONICA","state_code":"IL","zip5":"61370","latitude":"41.2204600000000000","longitude":"-89.057388000000000","publicwifi":"U","url":null,"broadband_type_id":6}
{"id":null,"anchorname":"LOSTANT FIRE PROTECTION DISTRICT","address":"100 E FIRST ST","bldgnbr":"100","predir":"E","streetname":"FIRST","streettype":"ST","suffdir":null,"city":"LOSTANT","state_code":"IL","zip5":"61334","latitude":"41.1438170000000000","longitude":"-89.059628000000000","publicwifi":"U","url":null,"broadband_type_id":5}
{"id":null,"anchorname":"LOSTANT ELEM SCHOOL","address":"315 WEST 3RD ST","bldgnbr":"315","predir":"W","streetname":"3RD","streettype":"ST","suffdir":null,"city":"LOSTANT","state_code":"IL","zip5":"61334","latitude":"41.1415800000000000","longitude":"-89.061026000000000","publicwifi":"U","url":null,"broadband_type_id":6}
{"id":null,"anchorname":"LOSTANT COMMUNITY LIBRARY","address":"102 WEST THIRD ST","bldgnbr":"102","predir":"W","streetname":"THIRD","streettype":"ST","suffdir":null,"city":"LOSTANT","state_code":"IL","zip5":"61334","latitude":"41.1417830000000000","longitude":"-89.059543000000000","publicwifi":"Y","url":"https://www.facebook.com/pages/Lostant-Community-Library/121890407823028","broadband_type_id":6}
{"id":null,"anchorname":"LEONORE VOLUNTEER FIRE DEPARTMENT","address":"107 MONROE ST","bldgnbr":"107","predir":null,"streetname":"MONROE","streettype":"ST","suffdir":null,"city":"LEONORE","state_code":"IL","zip5":"61332","latitude":"41.1887810000000000","longitude":"-88.981946000000000","publicwifi":"U","url":null,"broadband_type_id":5}
{"id":null,"anchorname":"FLORIDA DEPARTMENT OF AGRICULTURE AND CONSUMER SERVICES","address":"4723 53RD AVE E, BRADENTON, FL 34203","bldgnbr":"4723","predir":null,"streetname":"53RD","streettype":"AVE","suffdir":null,"city":"BRADENTON","state_code":"FL","zip5":"34203","latitude":"27.4463261400000000","longitude":"-82.501638170000000","publicwifi":"Y","url":"0","broadband_type_id":6}
{"id":null,"anchorname":"MARION COUNTY TAX COLLECTOR","address":"7135 NORTH HWY 441, OCALA, FL 34475","bldgnbr":"7135","predir":null,"streetname":"US HWY 441","streettype":"0","suffdir":null,"city":"OCALA","state_code":"FL","zip5":"34475","latitude":"29.2609696200000000","longitude":"-82.150046230000000","publicwifi":"Y","url":"0","broadband_type_id":1}
{"id":null,"anchorname":"KAIBIGAN  CRISTETA","address":"15660 SE 86TH CT, SUMMERFIELD, FL, 34491","bldgnbr":"15660","predir":"SE","streetname":"86TH","streettype":"CT","suffdir":"0","city":"SUMMERFIELD","state_code":"FL","zip5":"34491","latitude":"28.9944160000000000","longitude":"-82.010144000000000","publicwifi":"U","url":"0","broadband_type_id":6}
{"id":null,"anchorname":"UNITED METHODIST VILLAGE N. CA","address":"2101 JAMES ST","bldgnbr":"2101","predir":null,"streetname":"JAMES","streettype":"ST","suffdir":null,"city":"LAWRENCEVILLE","state_code":"IL","zip5":"62439","latitude":"38.7234520000000000","longitude":"-87.694937000000000","publicwifi":"U","url":null,"broadband_type_id":6}
{"id":null,"anchorname":"UNITED METHODIST VILLAGE","address":"1616 CEDAR","bldgnbr":"1616","predir":null,"streetname":"CEDAR","streettype":null,"suffdir":null,"city":"LAWRENCEVILLE","state_code":"IL","zip5":"62439","latitude":"38.7212770000000000","longitude":"-87.688652000000000","publicwifi":"U","url":null,"broadband_type_id":6}
{"id":null,"anchorname":"CAMELOT TERRACE","address":"516 WEST FRECH ST","bldgnbr":"516","predir":"W","streetname":"FRECH","streettype":null,"suffdir":null,"city":"STREATOR","state_code":"IL","zip5":"61364","latitude":"41.1145620000000000","longitude":"-88.840513000000000","publicwifi":"U","url":null,"broadband_type_id":null}
{"id":null,"anchorname":"GLENWOOD HOUSE","address":"300 WEST TWELFTH ST","bldgnbr":"300","predir":"W","streetname":"TWELFTH","streettype":"ST","suffdir":null,"city":"STREATOR","state_code":"IL","zip5":"61364","latitude":"41.1063360000000000","longitude":"-88.841302000000000","publicwifi":"U","url":null,"broadband_type_id":null}
{"id":null,"anchorname":"SUMNER ATTENDANCE CENTER","address":"110 WEST LOCUST ST","bldgnbr":"110","predir":"W","streetname":"LOCUST","streettype":"ST","suffdir":null,"city":"SUMNER","state_code":"IL","zip5":"62466","latitude":"38.7145580000000000","longitude":"-87.861726000000000","publicwifi":"U","url":null,"broadband_type_id":null}
{"id":null,"anchorname":"CRA-WA-LA VOLUNTEERS","address":"1300 15th St","bldgnbr":"1300","predir":null,"streetname":"15th","streettype":"ST","suffdir":null,"city":"LAWRENCEVILLE","state_code":"IL","zip5":"62439","latitude":"38.7252800000000000","longitude":"-87.687011000000000","publicwifi":"Y","url":null,"broadband_type_id":null}
{"id":null,"anchorname":"RUTLAND FIRE DEPARTMENT","address":"SW FRONT ST","bldgnbr":"N/A","predir":"SW","streetname":"FRONT","streettype":"ST","suffdir":null,"city":"RUTLAND","state_code":"IL","zip5":"61358","latitude":"40.9822100000000000","longitude":"-89.042335000000000","publicwifi":"U","url":null,"broadband_type_id":5}
{"id":null,"anchorname":"CENTENNIAL ELEM SCHOOL","address":"614 OAKLEY AVE","bldgnbr":"614","predir":null,"streetname":"OAKLEY","streettype":"AVE","suffdir":null,"city":"STREATOR","state_code":"IL","zip5":"61364","latitude":"41.1500630000000000","longitude":"-88.843543000000000","publicwifi":"U","url":null,"broadband_type_id":6}
{"id":null,"anchorname":"STREATOR PUBLIC LIBRARY","address":"130 SOUTH PARK ST","bldgnbr":"130","predir":"S","streetname":"PARK","streettype":"ST","suffdir":null,"city":"STREATOR","state_code":"IL","zip5":"61364","latitude":"41.1204900000000000","longitude":"-88.834241000000000","publicwifi":"N","url":null,"broadband_type_id":6}
{"id":null,"anchorname":"ST ANTHONY SCHOOL","address":"410 S PARK ST","bldgnbr":"410","predir":"\u003cNull\u003e","streetname":"PARK","streettype":null,"suffdir":null,"city":"STREATOR","state_code":"IL","zip5":"61364","latitude":"41.1169527930000000","longitude":"-88.834187430000000","publicwifi":"U","url":null,"broadband_type_id":6}
{"id":null,"anchorname":"STREATOR POLICE DEPARTMENT","address":"204 SOUTH BLOOMINGTON ST","bldgnbr":"204","predir":"S","streetname":"BLOOMINGTON","streettype":"ST","suffdir":null,"city":"STREATOR","state_code":"IL","zip5":"61364","latitude":"41.1192710000000000","longitude":"-88.835568000000000","publicwifi":"U","url":null,"broadband_type_id":4}
{"id":null,"anchorname":"ILLINOIS STATE POLICE  NETWORK (LOC)","address":"204 SOUTH BLOOMINGTON","bldgnbr":"204","predir":"S","streetname":"BLOOMINGTON","streettype":null,"suffdir":null,"city":"STREATOR","state_code":"IL","zip5":"61364","latitude":"41.1192710000000000","longitude":"-88.835568000000000","publicwifi":"U","url":null,"broadband_type_id":4}
{"id":null,"anchorname":"KIMES ELEM SCHOOL","address":"1207 READING ST","bldgnbr":"1207","predir":null,"streetname":"READING","streettype":"ST","suffdir":null,"city":"STREATOR","state_code":"IL","zip5":"61364","latitude":"41.1158770000000000","longitude":"-88.850918000000000","publicwifi":"U","url":null,"broadband_type_id":6}
{"id":null,"anchorname":"SHERMAN ELEM SCHOOL","address":"1206 EAST ELM ST","bldgnbr":"1000","predir":"W","streetname":"52ND","streettype":"ST","suffdir":null,"city":"STREATOR","state_code":"IL","zip5":"61364","latitude":"41.1231380000000000","longitude":"-88.819206000000000","publicwifi":"U","url":null,"broadband_type_id":6}
{"id":null,"anchorname":"OAKLAND PARK ELEM SCHOOL","address":"701 SOUTH STERLING ST","bldgnbr":"701","predir":"S","streetname":"STERLING","streettype":"ST","suffdir":null,"city":"STREATOR","state_code":"IL","zip5":"61364","latitude":"41.1121940000000000","longitude":"-88.829982000000000","publicwifi":"U","url":null,"broadband_type_id":6}
{"id":null,"anchorname":"CHRISTY FIRE PROTECTION DISTRICT","address":"109 E NORTH AVE","bldgnbr":"109","predir":"E","streetname":"NORTH","streettype":"AVE","suffdir":null,"city":"SUMNER","state_code":"IL","zip5":"62466","latitude":"38.7169880000000000","longitude":"-87.859008000000000","publicwifi":"U","url":null,"broadband_type_id":5}
{"id":null,"anchorname":"SUMNER FIRE DEPARTMENT","address":"109 EAST  NORTH  AVENUE","bldgnbr":"109","predir":"E","streetname":"NORTH","streettype":"AVE","suffdir":null,"city":"SUMNER","state_code":"IL","zip5":"62466","latitude":"38.7169880000000000","longitude":"-87.859008000000000","publicwifi":"U","url":null,"broadband_type_id":5}
{"id":null,"anchorname":"SUMNER POLICE DEPARTMENT","address":"129 EAST SOUTH","bldgnbr":"129","predir":"E","streetname":"SOUTH","streettype":null,"suffdir":null,"city":"SUMNER","state_code":"IL","zip5":"62466","latitude":"38.7155380000000000","longitude":"-87.860588000000000","publicwifi":"U","url":null,"broadband_type_id":4}
{"id":null,"anchorname":"DENISON FIRE PROTECTION DISTRICT","address":"6TH \u0026 MAIN","bldgnbr":"N/A","predir":null,"streetname":"6TH \u0026 MAIN","streettype":null,"suffdir":null,"city":"SAINT FRANCISVILLE","state_code":"IL","zip5":"62460","latitude":"38.5914210000000000","longitude":"-87.645948000000000","publicwifi":"U","url":null,"broadband_type_id":5}
{"id":null,"anchorname":"LAWRENCE COMMUNITY  HEALTHCARE CENTER","address":"900 EAST CORPORATION LINE ST","bldgnbr":"900","predir":"E","streetname":"CORPORATION LINE","streettype":"ST","suffdir":null,"city":"BRIDGEPORT","state_code":"IL","zip5":"62417","latitude":"38.7139280000000000","longitude":"-87.748718000000000","publicwifi":"U","url":null,"broadband_type_id":3}
{"id":null,"anchorname":"BRIDGEPORT GRADE SCHOOL","address":"1300 NORTH MAIN ST","bldgnbr":"1300","predir":"N","streetname":"MAIN","streettype":"ST","suffdir":null,"city":"BRIDGEPORT","state_code":"IL","zip5":"62417","latitude":"38.7140260000000000","longitude":"-87.761042000000000","publicwifi":"U","url":null,"broadband_type_id":6}
{"id":null,"anchorname":"RED HILL JR/SR HIGH SCHOOL","address":"908 CHURCH ST","bldgnbr":"908","predir":null,"streetname":"CHURCH","streettype":"ST","suffdir":null,"city":"BRIDGEPORT","state_code":"IL","zip5":"62417","latitude":"38.7120710000000000","longitude":"-87.757011000000000","publicwifi":"U","url":null,"broadband_type_id":6}
{"id":null,"anchorname":"BRIDGEPORT FIRE DEPARTMENT","address":"245 WASHINGTON ST","bldgnbr":"245","predir":null,"streetname":"WASHINGTON","streettype":"ST","suffdir":null,"city":"BRIDGEPORT","state_code":"IL","zip5":"62417","latitude":"38.7062610000000000","longitude":"-87.761275000000000","publicwifi":"U","url":null,"broadband_type_id":5}
{"id":null,"anchorname":"BRIDGEPORT POLICE DEPARTMENT","address":"235 WASHINGTON ST","bldgnbr":"235","predir":null,"streetname":"WASHINGTON","streettype":"ST","suffdir":null,"city":"BRIDGEPORT","state_code":"IL","zip5":"62417","latitude":"38.7061900000000000","longitude":"-87.761259000000000","publicwifi":"U","url":null,"broadband_type_id":4}
{"id":null,"anchorname":"LAWRENCEVILLE HIGH SCHOOL","address":"503 8TH ST","bldgnbr":"503","predir":null,"streetname":"8TH","streettype":"ST","suffdir":null,"city":"LAWRENCEVILLE","state_code":"IL","zip5":"62439","latitude":"38.7310040000000000","longitude":"-87.679163000000000","publicwifi":"U","url":null,"broadband_type_id":6}
{"id":null,"anchorname":"LAWRENCE ALLISON FIRE PROTECTION DISTRICT","address":"1112 WALNUT ST","bldgnbr":"1112","predir":null,"streetname":"WALNUT","streettype":"ST","suffdir":null,"city":"LAWRENCEVILLE","state_code":"IL","zip5":"62439","latitude":"38.7302550000000000","longitude":"-87.682219000000000","publicwifi":"U","url":null,"broadband_type_id":5}
{"id":null,"anchorname":"ILLINOIS HEALTHCARE AND FAMILY SERVICES","address":"1100 STATE ST","bldgnbr":"1100","predir":null,"streetname":"STATE","streettype":"ST","suffdir":null,"city":"LAWRENCEVILLE","state_code":"IL","zip5":"62439","latitude":"38.7294080000000000","longitude":"-87.682102000000000","publicwifi":"U","url":null,"broadband_type_id":3}
{"id":null,"anchorname":"LAWRENCE COUNTY SHERIFF'S OFFICE","address":"1306 LEXINGTON ST","bldgnbr":"1306","predir":null,"streetname":"LEXINGTON","streettype":"ST","suffdir":null,"city":"LAWRENCEVILLE","state_code":"IL","zip5":"62439","latitude":"38.7269480000000000","longitude":"-87.684394000000000","publicwifi":"U","url":null,"broadband_type_id":4}
{"id":null,"anchorname":"LAWRENCE COUNTY MEMORIAL HOSPITAL","address":"WEST STATE ST","bldgnbr":"N/A","predir":"W","streetname":"STATE","streettype":null,"suffdir":null,"city":"LAWRENCEVILLE","state_code":"IL","zip5":"62439","latitude":"38.7292840000000000","longitude":"-87.673357000000000","publicwifi":"U","url":null,"broadband_type_id":3}
{"id":null,"anchorname":"SAFE SCHOOL ROE12 LAWRENCE CNTY","address":"907 15TH ST","bldgnbr":"907","predir":"\u003cNull\u003e","streetname":"15TH ST","streettype":null,"suffdir":null,"city":"LAWRENCEVILLE","state_code":"IL","zip5":"62439","latitude":"38.7264310000000000","longitude":"-87.687218000000000","publicwifi":"U","url":null,"broadband_type_id":6}
{"id":null,"anchorname":"PARKSIDE ELEMENTARY SCHOOL","address":"1900 CEDAR ST","bldgnbr":"1900","predir":null,"streetname":"CEDAR","streettype":"ST","suffdir":null,"city":"LAWRENCEVILLE","state_code":"IL","zip5":"62439","latitude":"38.7213230000000000","longitude":"-87.693238000000000","publicwifi":"U","url":null,"broadband_type_id":6}
{"id":null,"anchorname":"PARKVIEW JR HIGH SCHOOL","address":"1802 CEDAR ST","bldgnbr":"1802","predir":null,"streetname":"CEDAR","streettype":"ST","suffdir":null,"city":"LAWRENCEVILLE","state_code":"IL","zip5":"62439","latitude":"38.7214060000000000","longitude":"-87.691963000000000","publicwifi":"U","url":null,"broadband_type_id":6}
{"id":null,"anchorname":"MILLS \u0026 PETRIE MEMORIAL LIBRARY \u0026 GYMNASIUM","address":"704 NORTH FIRST ST","bldgnbr":"704","predir":"N","streetname":"FIRST","streettype":"ST","suffdir":null,"city":"ASHTON","state_code":"IL","zip5":"61006","latitude":"41.8670660000000000","longitude":"-89.223667000000000","publicwifi":"Y","url":"http://www.facebook.com/pages/Mills-Petrie-Memorial-Library/107185029339882","broadband_type_id":6}
{"id":null,"anchorname":"ASHTON POLICE DEPARTMENT","address":"902 MAIN ST","bldgnbr":"902","predir":null,"streetname":"MAIN","streettype":"ST","suffdir":null,"city":"ASHTON","state_code":"IL","zip5":"61006","latitude":"41.8662270000000000","longitude":"-89.220788000000000","publicwifi":"U","url":null,"broadband_type_id":4}
{"id":null,"anchorname":"ASHTON FIRE DEPARTMENT","address":"704 MAIN ST","bldgnbr":"704","predir":null,"streetname":"MAIN","streettype":"ST","suffdir":null,"city":"ASHTON","state_code":"IL","zip5":"61006","latitude":"41.8661880000000000","longitude":"-89.223647000000000","publicwifi":"U","url":null,"broadband_type_id":5}
{"id":null,"anchorname":"FIRST STREET GROUP HOME","address":"407 NORTH FIRST ST","bldgnbr":"407","predir":"N","streetname":"FIRST","streettype":null,"suffdir":null,"city":"ASHTON","state_code":"IL","zip5":"61006","latitude":"41.8669290000000000","longitude":"-89.228638000000000","publicwifi":"U","url":null,"broadband_type_id":null}
{"id":null,"anchorname":"ASHTON TERRACE","address":"307 ALAN ST","bldgnbr":"307","predir":null,"streetname":"ALAN","streettype":null,"suffdir":null,"city":"ASHTON","state_code":"IL","zip5":"61006","latitude":"41.8644770000000000","longitude":"-89.229763000000000","publicwifi":"U","url":null,"broadband_type_id":null}
{"id":null,"anchorname":"FLORIDA DEPARTMENT OF HIGHWAY SAFETY AND MOTOR VEHICLES","address":"7411 MANATEE AVE. WEST, BRADENTON, FL, 34209","bldgnbr":"7411","predir":"0","streetname":"MANATEE","streettype":"AVE.","suffdir":"WEST","city":"BRADENTON","state_code":"FL","zip5":"34209","latitude":"27.4960560000000000","longitude":"-82.634833000000000","publicwifi":"Y","url":"0","broadband_type_id":6}
{"id":null,"anchorname":"ASHTON-FRANKLIN CENTER HS","address":"611 WESTERN AVE","bldgnbr":"611","predir":null,"streetname":"WESTERN","streettype":"AVE","suffdir":null,"city":"ASHTON","state_code":"IL","zip5":"61006","latitude":"41.8664440000000000","longitude":"-89.228604000000000","publicwifi":"U","url":null,"broadband_type_id":6}
{"id":null,"anchorname":"FRANKLIN GROVE GROUP","address":"408 NORTH ELM   BOX #5","bldgnbr":"408","predir":"N","streetname":"ELM","streettype":null,"suffdir":null,"city":"FRANKLIN GROVE","state_code":"IL","zip5":"61031","latitude":"41.8447790000000000","longitude":"-89.299404000000000","publicwifi":"U","url":null,"broadband_type_id":null}
{"id":null,"anchorname":"ILLINOIS DEPT OF CHILDREN AND FAMILY SERVICES - NETWORK(POS)","address":"1261 IL ROUTE 38","bldgnbr":"1261","predir":null,"streetname":"IL ROUTE 38","streettype":null,"suffdir":null,"city":"NACHUSA","state_code":"IL","zip5":"61021","latitude":"41.8286740000000000","longitude":"-89.389282000000000","publicwifi":"U","url":null,"broadband_type_id":6}
{"id":null,"anchorname":"KILKER-PINE ACRES GROUP HOME","address":"922 WASHINGTON AVENUE","bldgnbr":"922","predir":null,"streetname":"WASHINGTON","streettype":null,"suffdir":null,"city":"DIXON","state_code":"IL","zip5":"61021","latitude":"41.8585810000000000","longitude":"-89.479061000000000","publicwifi":"U","url":null,"broadband_type_id":6}
{"id":null,"anchorname":"ILLINOIS DEPT OF HUMAN SERVICES","address":"1120 WASHINGTON  ST","bldgnbr":"1120","predir":null,"streetname":"WASHINGTON","streettype":"ST","suffdir":null,"city":"DIXON","state_code":"IL","zip5":"61021","latitude":"41.8613640000000000","longitude":"-89.479399000000000","publicwifi":"U","url":null,"broadband_type_id":6}
{"id":null,"anchorname":"ASHTON-FRANKLIN CENTER ELEM SCH","address":"217 SOUTH ELM ST","bldgnbr":"217","predir":"S","streetname":"ELM","streettype":"ST","suffdir":null,"city":"FRANKLIN GROVE","state_code":"IL","zip5":"61031","latitude":"41.8385950000000000","longitude":"-89.299577000000000","publicwifi":"U","url":null,"broadband_type_id":null}
{"id":null,"anchorname":"HERITAGE SQUARE","address":"620 NORTH OTTAWA AVENUE","bldgnbr":"620","predir":"N","streetname":"OTTAWA","streettype":"AVE","suffdir":null,"city":"DIXON","state_code":"IL","zip5":"61021","latitude":"41.8518510000000000","longitude":"-89.484773000000000","publicwifi":"U","url":null,"broadband_type_id":1}
{"id":null,"anchorname":"NEW MAIN GROUP HOME","address":"1201 MIDDLE ROAD","bldgnbr":"1201","predir":null,"streetname":"MIDDLE","streettype":null,"suffdir":null,"city":"DIXON","state_code":"IL","zip5":"61021","latitude":"41.8394460000000000","longitude":"-89.464323000000000","publicwifi":"U","url":null,"broadband_type_id":null}
{"id":null,"anchorname":"ILLINOIS DEPT OF CORRECTIONS","address":"2600 NORTH BRINTON  AVENUE","bldgnbr":"2600","predir":"N","streetname":"BRINTON","streettype":"AVE","suffdir":null,"city":"DIXON","state_code":"IL","zip5":"61021","latitude":"41.8736680000000000","longitude":"-89.486316000000000","publicwifi":"U","url":null,"broadband_type_id":6}
{"id":null,"anchorname":"ILLINOIS DEPT OF CENTRAL MANAGEMENT SERVICES","address":"819 DEPOT  AVENUE","bldgnbr":"819","predir":null,"streetname":"DEPOT","streettype":"AVE","suffdir":null,"city":"DIXON","state_code":"IL","zip5":"61021","latitude":"41.8354790000000000","longitude":"-89.488709000000000","publicwifi":"U","url":null,"broadband_type_id":6}
{"id":null,"anchorname":"ILLINOIS DEPT OF TRANSPORTATION","address":"819 DEPOT  AVENUE","bldgnbr":"819","predir":null,"streetname":"DEPOT","streettype":"AVE","suffdir":null,"city":"DIXON","state_code":"IL","zip5":"61021","latitude":"41.8354790000000000","longitude":"-89.488709000000000","publicwifi":"U","url":null,"broadband_type_id":6}
{"id":null,"anchorname":"MABLEY DEVELOPMENTAL CENTER","address":"1120 WASHINGTON","bldgnbr":"1120","predir":null,"streetname":"WASHINGTON","streettype":null,"suffdir":null,"city":"DIXON","state_code":"IL","zip5":"61021","latitude":"41.8613640000000000","longitude":"-89.479399000000000","publicwifi":"U","url":null,"broadband_type_id":null}
{"id":null,"anchorname":"OTTAWA GROUP HOME","address":"726 NORTH OTTAWA","bldgnbr":"726","predir":"N","streetname":"OTTAWA","streettype":null,"suffdir":null,"city":"DIXON","state_code":"IL","zip5":"61021","latitude":"41.8532760000000000","longitude":"-89.485383000000000","publicwifi":"U","url":null,"broadband_type_id":null}
{"id":null,"anchorname":"BLACKHAWK GROUP HOME","address":"735 NORTH DIXON","bldgnbr":"735","predir":"N","streetname":"DIXON","streettype":null,"suffdir":null,"city":"DIXON","state_code":"IL","zip5":"61021","latitude":"41.8540070000000000","longitude":"-89.482986000000000","publicwifi":"U","url":null,"broadband_type_id":null}
{"id":null,"anchorname":"DIXON FAMILY YMCA","address":"110 N GALENA AVE","bldgnbr":"110","predir":"N","streetname":"GALENA","streettype":"AVE","suffdir":null,"city":"DIXON","state_code":"IL","zip5":"61021","latitude":"41.8467910000000000","longitude":"-89.483973000000000","publicwifi":"Y","url":null,"broadband_type_id":null}
{"id":null,"anchorname":"FRANKLIN GROVE NURSING CENTER","address":"502 NORTH STATE ST., BOX 402","bldgnbr":"502","predir":"N","streetname":"STATE","streettype":null,"suffdir":null,"city":"FRANKLIN GROVE","state_code":"IL","zip5":"61031","latitude":"41.8457770000000000","longitude":"-89.303263000000000","publicwifi":"U","url":null,"broadband_type_id":3}
{"id":null,"anchorname":"FRANKLIN GROVE FIRE DEPARTMENT","address":"128 WHITNEY ST","bldgnbr":"128","predir":null,"streetname":"WHITNEY","streettype":"ST","suffdir":null,"city":"FRANKLIN GROVE","state_code":"IL","zip5":"61031","latitude":"41.8412650000000000","longitude":"-89.299013000000000","publicwifi":"U","url":null,"broadband_type_id":5}
{"id":null,"anchorname":"FRANKLN GROVE PUBLIC LIBRARY","address":"112 SOUTH ELM ST","bldgnbr":"112","predir":"S","streetname":"ELM","streettype":"ST","suffdir":null,"city":"FRANKLIN GROVE","state_code":"IL","zip5":"61031","latitude":"41.8394600000000000","longitude":"-89.299410000000000","publicwifi":"Y","url":"http://www.franklingrovelibrary.org/","broadband_type_id":6}
{"id":null,"anchorname":"FRANKLIN GROVE POLICE DEPARTMENT","address":"321 HILLSIDE DRIVE","bldgnbr":"321","predir":null,"streetname":"HILLSIDE","streettype":"DR","suffdir":null,"city":"FRANKLIN GROVE","state_code":"IL","zip5":"61031","latitude":"41.8364360000000000","longitude":"-89.302655000000000","publicwifi":"U","url":null,"broadband_type_id":4}
{"id":null,"anchorname":"SAUK VALLEY COMMUNITY COLLEGE","address":"173 IL. RT. 2","bldgnbr":"173","predir":null,"streetname":"IL ROUTE 2","streettype":null,"suffdir":null,"city":"DIXON","state_code":"IL","zip5":"61021","latitude":"41.8877330000000000","longitude":"-89.423108000000000","publicwifi":"Y","url":null,"broadband_type_id":6}
{"id":null,"anchorname":"KATHERINE SHAW BETHEA HOSPITAL","address":"403 EAST FIRST ST","bldgnbr":"403","predir":"E","streetname":"FIRST","streettype":"ST","suffdir":null,"city":"DIXON","state_code":"IL","zip5":"61021","latitude":"41.8443020000000000","longitude":"-89.480190000000000","publicwifi":"U","url":null,"broadband_type_id":3}
{"id":null,"anchorname":"KSB HOSPITAL BEHAVIORAL","address":"403 E 1ST ST","bldgnbr":"403","predir":"E","streetname":"1ST","streettype":"ST","suffdir":null,"city":"DIXON","state_code":"IL","zip5":"61021","latitude":"41.8443020000000000","longitude":"-89.480190000000000","publicwifi":"Y","url":null,"broadband_type_id":3}
{"id":null,"anchorname":"DIXON FIRE DEPARTMENT","address":"210 SOUTH HENNEPIN AVENUE","bldgnbr":"210","predir":"S","streetname":"HENNEPIN","streettype":"AVE","suffdir":null,"city":"DIXON","state_code":"IL","zip5":"61020","latitude":"41.8422380000000000","longitude":"-89.483463000000000","publicwifi":"U","url":null,"broadband_type_id":5}
{"id":null,"anchorname":"DIXON POLICE DEPARTMENT","address":"220 SOUTH HENNEPIN AVENUE","bldgnbr":"220","predir":"S","streetname":"HENNEPIN","streettype":"AVE","suffdir":null,"city":"DIXON","state_code":"IL","zip5":"61021","latitude":"41.8421460000000000","longitude":"-89.483422000000000","publicwifi":"U","url":null,"broadband_type_id":4}
{"id":null,"anchorname":"LEE COUNTY SHERIFF'S OFFICE","address":"316 SOUTH HENNEPIN","bldgnbr":"316","predir":"S","streetname":"HENNEPIN","streettype":null,"suffdir":null,"city":"DIXON","state_code":"IL","zip5":"61021","latitude":"41.8412080000000000","longitude":"-89.483002000000000","publicwifi":"U","url":null,"broadband_type_id":4}
{"id":null,"anchorname":"ILLINOIS HEALTHCARE AND FAMILY SERVICES","address":"309 SOUTH GALENA","bldgnbr":"309","predir":"S","streetname":"GALENA","streettype":null,"suffdir":null,"city":"DIXON","state_code":"IL","zip5":"61021","latitude":"41.8415970000000000","longitude":"-89.481874000000000","publicwifi":"U","url":null,"broadband_type_id":3}
{"id":null,"anchorname":"ST MARY ELEMENTARY \u0026 JR HIGH SCHOOL","address":"704 S PEORIA AVE","bldgnbr":"704","predir":"\u003cNull\u003e","streetname":"PEORIA","streettype":null,"suffdir":null,"city":"DIXON","state_code":"IL","zip5":"61021","latitude":"41.8372730930000000","longitude":"-89.482727518000000","publicwifi":"U","url":null,"broadband_type_id":6}
{"id":null,"anchorname":"DIXON HEALTHCARE \u0026 REHAB CENTER","address":"800 DIVISION ST","bldgnbr":"800","predir":null,"streetname":"DIVISION","streettype":"ST","suffdir":null,"city":"DIXON","state_code":"IL","zip5":"61021","latitude":"41.8332160000000000","longitude":"-89.469264000000000","publicwifi":"U","url":null,"broadband_type_id":3}
{"id":null,"anchorname":"REAGAN MIDDLE SCHOOL","address":"620 DIVISION ST","bldgnbr":"620","predir":null,"streetname":"DIVISION","streettype":"ST","suffdir":null,"city":"DIXON","state_code":"IL","zip5":"61021","latitude":"41.8331800000000000","longitude":"-89.473800000000000","publicwifi":"U","url":null,"broadband_type_id":6}
{"id":null,"anchorname":"ST ANNE ELEMENTARY SCHOOL","address":"1112 N BRINTON AVE","bldgnbr":"1112","predir":"\u003cNull\u003e","streetname":"BRINTON AVE","streettype":null,"suffdir":null,"city":"DIXON","state_code":"IL","zip5":"61021","latitude":"41.8603076670000000","longitude":"-89.486666589000000","publicwifi":"U","url":null,"broadband_type_id":6}
{"id":null,"anchorname":"WASHINGTON ELEM SCHOOL","address":"703 EAST MORGAN ST","bldgnbr":"703","predir":"E","streetname":"MORGAN","streettype":"ST","suffdir":null,"city":"DIXON","state_code":"IL","zip5":"61021","latitude":"41.8533250000000000","longitude":"-89.477780000000000","publicwifi":"U","url":null,"broadband_type_id":6}
