{"id":null,"anchorname":"LAKE ELSINORE DIALYSIS","address":"32291 Mission Trl","bldgnbr":"32291","predir":null,"streetname":"Mission Trl","streettype":null,"suffdir":null,"city":"Lake Elsinore","state_code":"CA","zip5":"92530","latitude":"33.6530380000000000","longitude":"-117.29671700000000","publicwifi":"U","url":null,"broadband_type_id":6}
{"id":null,"anchorname":"Lakeside High","address":"32593 Riverside Drive","bldgnbr":"32593","predir":null,"streetname":"Riverside Drive","streettype":null,"suffdir":null,"city":"Lake Elsinore","state_code":"CA","zip5":"92530","latitude":"33.6685340000000000","longitude":"-117.38110000000000","publicwifi":"U","url":null,"broadband_type_id":6}
{"id":null,"anchorname":"Machado Elementary","address":"15150 Joy Street","bldgnbr":"15150","predir":null,"streetname":"Joy Street","streettype":null,"suffdir":null,"city":"Lake Elsinore","state_code":"CA","zip5":"92530","latitude":"33.6828360000000000","longitude":"-117.37605000000000","publicwifi":"U","url":null,"broadband_type_id":6}
{"id":null,"anchorname":"Temescal Canyon High","address":"28755 El Toro Road","bldgnbr":"28755","predir":null,"streetname":"El Toro","streettype":null,"suffdir":null,"city":"Lake Elsinore","state_code":"CA","zip5":"92532","latitude":"33.7029800000000000","longitude":"-117.34678000000000","publicwifi":"U","url":null,"broadband_type_id":6}
{"id":null,"anchorname":"Elsinore Elementary","address":"512 West Sumner Avenue","bldgnbr":"512","predir":null,"streetname":"West Sumner","streettype":null,"suffdir":null,"city":"Lake Elsinore","state_code":"CA","zip5":"92530","latitude":"33.6729590000000000","longitude":"-117.33138000000000","publicwifi":"U","url":null,"broadband_type_id":6}
{"id":null,"anchorname":"Elsinore Middle","address":"1203 West Graham Avenue","bldgnbr":"1203","predir":null,"streetname":"West Graham","streettype":null,"suffdir":null,"city":"Lake Elsinore","state_code":"CA","zip5":"92530","latitude":"33.6717470000000000","longitude":"-117.34074000000000","publicwifi":"U","url":null,"broadband_type_id":6}
{"id":null,"anchorname":"Community Access Network Inc.(600 Central Ave.)","address":"600 Central Ave., #E","bldgnbr":"600","predir":null,"streetname":"Central Ave. #E","streettype":null,"suffdir":null,"city":"Lake Elsinore","state_code":"CA","zip5":"92530","latitude":"33.6891560000000000","longitude":"-117.34024700000000","publicwifi":"U","url":null,"broadband_type_id":6}
{"id":null,"anchorname":"TAZEWELL ELEMENTARY","address":"101 PARKVIEW DRIVE","bldgnbr":"101","predir":"N/A","streetname":"PARKVIEW","streettype":"DRIVE","suffdir":"N/A","city":"TAZEWELL","state_code":"VA","zip5":"24651","latitude":"37.1265291290000000","longitude":"-81.508605531000000","publicwifi":"U","url":"N/A","broadband_type_id":6}
{"id":null,"anchorname":"SOUTHWEST VIRGINIA 4H CENTER","address":"25236 HILLMAN HIGHWAY","bldgnbr":"25236","predir":"N/A","streetname":"HILLMAN","streettype":"HIGHWAY","suffdir":"N/A","city":"ABINGDON","state_code":"VA","zip5":"24210","latitude":"36.7300820000000000","longitude":"-81.923594000000000","publicwifi":"U","url":"N/A","broadband_type_id":6}
{"id":null,"anchorname":"WISE COUNTY ALTERNATIVE EDUCATION CENTER","address":"515 HURRICANE ROAD","bldgnbr":"515","predir":"N/A","streetname":"HURRICANE","streettype":"ROAD","suffdir":"N/A","city":"WISE","state_code":"VA","zip5":"24293","latitude":"36.9805893250000000","longitude":"-82.570480902000000","publicwifi":"U","url":"N/A","broadband_type_id":6}
{"id":null,"anchorname":"APPALACHIA ELEMENTARY","address":"3965 KENT JUNCTION ROAD","bldgnbr":"3965","predir":"N/A","streetname":"KENT JUNCTION","streettype":"ROAD","suffdir":"N/A","city":"APPALACHIA","state_code":"VA","zip5":"24216","latitude":"36.9258081250000000","longitude":"-82.744936402000000","publicwifi":"U","url":"N/A","broadband_type_id":6}
{"id":null,"anchorname":"THERAPY PARTNERS","address":"25405 Hancock Ave","bldgnbr":"25405","predir":null,"streetname":"Hancock Ave","streettype":null,"suffdir":null,"city":"Murrieta","state_code":"CA","zip5":"92562","latitude":"33.5585100000000000","longitude":"-117.18584000000000","publicwifi":"U","url":null,"broadband_type_id":3}
{"id":null,"anchorname":"Keith McCarthy Academy","address":"520 Chaney Street","bldgnbr":"520","predir":null,"streetname":"Chaney Street","streettype":null,"suffdir":null,"city":"Lake Elsinore","state_code":"CA","zip5":"92530","latitude":"33.6803360000000000","longitude":"-117.33856000000000","publicwifi":"U","url":null,"broadband_type_id":6}
{"id":null,"anchorname":"Orleans Elementary","address":"38016 Highway 96","bldgnbr":"38016","predir":null,"streetname":"Highway 96","streettype":null,"suffdir":null,"city":"Orleans","state_code":"CA","zip5":"95556","latitude":"41.3014890000000000","longitude":"-123.54234000000000","publicwifi":"U","url":"www.humboldt.k12.ca.us/kt_usd/orleans/index","broadband_type_id":6}
{"id":null,"anchorname":"HOSPICE OF THE VALLEYS","address":"25240 Hancock Ave","bldgnbr":"25240","predir":null,"streetname":"Hancock Ave","streettype":null,"suffdir":null,"city":"Murrieta","state_code":"CA","zip5":"92562","latitude":"33.5632820000000000","longitude":"-117.18244600000000","publicwifi":"U","url":null,"broadband_type_id":null}
{"id":null,"anchorname":"Hospice of the Valleys","address":"25240 Hancock Avenue, Suite 120","bldgnbr":"25240","predir":null,"streetname":"Hancock Avenue","streettype":null,"suffdir":null,"city":"Murrieta","state_code":"CA","zip5":"92562","latitude":"33.5607110000000000","longitude":"-117.18483600000000","publicwifi":"U","url":null,"broadband_type_id":null}
{"id":null,"anchorname":"Cuddeback Elementary","address":"300 Wilder Road","bldgnbr":"300","predir":null,"streetname":"Wilder Road","streettype":null,"suffdir":null,"city":"Carlotta","state_code":"CA","zip5":"95528","latitude":"40.5366880000000000","longitude":"-124.04149000000000","publicwifi":"U","url":"www.humboldt.k12.ca.us/cuddeback_sd/","broadband_type_id":6}
{"id":null,"anchorname":"Temecula Valley Adult","address":"43000 Margarita Road","bldgnbr":"43000","predir":null,"streetname":"Margarita Road","streettype":null,"suffdir":null,"city":"Temecula","state_code":"CA","zip5":"92591","latitude":"33.4979300000000000","longitude":"-117.11590100000000","publicwifi":"U","url":null,"broadband_type_id":null}
{"id":null,"anchorname":"Riverside Recovery Resources","address":"600 Third Street","bldgnbr":"600","predir":null,"streetname":"Third Street","streettype":null,"suffdir":null,"city":"Lake Elsinore","state_code":"CA","zip5":"92531","latitude":"33.6872080000000000","longitude":"-117.33649800000000","publicwifi":"U","url":null,"broadband_type_id":6}
{"id":null,"anchorname":"Van Avery Prep","address":"29851 Santiago Road","bldgnbr":"29851","predir":null,"streetname":"Santiago Road","streettype":null,"suffdir":null,"city":"Temecula","state_code":"CA","zip5":"92592","latitude":"33.4877599810000000","longitude":"-117.13950977500000","publicwifi":"U","url":null,"broadband_type_id":null}
{"id":null,"anchorname":"Luiseno","address":"13500 Mountain Road","bldgnbr":"13500","predir":null,"streetname":"Mountain Road","streettype":null,"suffdir":null,"city":"Corona","state_code":"CA","zip5":"92883","latitude":"33.7255390000000000","longitude":"-117.42339000000000","publicwifi":"U","url":null,"broadband_type_id":6}
{"id":null,"anchorname":"Terra Cotta Middle","address":"29291 Lake Street","bldgnbr":"29291","predir":null,"streetname":"Lake Street","streettype":null,"suffdir":null,"city":"Lake Elsinore","state_code":"CA","zip5":"92530","latitude":"33.7008920000000000","longitude":"-117.39005000000000","publicwifi":"U","url":null,"broadband_type_id":6}
{"id":null,"anchorname":"Rice Canyon Elementary","address":"29535 Westwind Drive","bldgnbr":"29535","predir":null,"streetname":"Westwind Drive","streettype":null,"suffdir":null,"city":"Lake Elsinore","state_code":"CA","zip5":"92530","latitude":"33.6971800000000000","longitude":"-117.40012000000000","publicwifi":"U","url":null,"broadband_type_id":6}
{"id":null,"anchorname":"Withrow Elementary","address":"30100 Audelo Street","bldgnbr":"30100","predir":null,"streetname":"Audelo Street","streettype":null,"suffdir":null,"city":"Lake Elsinore","state_code":"CA","zip5":"92530","latitude":"33.6797330000000000","longitude":"-117.39480000000000","publicwifi":"U","url":null,"broadband_type_id":6}
{"id":null,"anchorname":"Sierra Springs Christian","address":"40960 California Oaks Road","bldgnbr":"40960","predir":null,"streetname":"California Oaks","streettype":null,"suffdir":null,"city":"Murrieta","state_code":"CA","zip5":"92562","latitude":"33.5677895960000000","longitude":"-117.20579663800000","publicwifi":"U","url":null,"broadband_type_id":6}
{"id":null,"anchorname":"Murrieta Mesa High","address":"24801 Monroe Avenue","bldgnbr":"24801","predir":null,"streetname":"Monroe Avenue","streettype":null,"suffdir":null,"city":"Murrieta","state_code":"CA","zip5":"92562","latitude":"33.5633660000000000","longitude":"-117.20106000000000","publicwifi":"U","url":"www.murrieta.k12.ca.us","broadband_type_id":6}
{"id":null,"anchorname":"TEMECULA PUBLIC LIBRARY","address":"30600 Pauba Road","bldgnbr":"30600","predir":null,"streetname":"Pauba Road","streettype":null,"suffdir":null,"city":"Temecula","state_code":"CA","zip5":"92592","latitude":"33.4964510000000000","longitude":"-117.12339900000000","publicwifi":"U","url":null,"broadband_type_id":6}
{"id":null,"anchorname":"Temecula Christian School","address":"29825 Santiago Road","bldgnbr":"29825","predir":null,"streetname":"Santiago Road","streettype":null,"suffdir":null,"city":"Temecula","state_code":"CA","zip5":"92592","latitude":"33.4886262910000000","longitude":"-117.13915548800000","publicwifi":"U","url":null,"broadband_type_id":6}
{"id":null,"anchorname":"Rancho Christian School","address":"31300 Rancho Community Way","bldgnbr":"31300","predir":null,"streetname":"Rancho Community Way","streettype":null,"suffdir":null,"city":"Temecula","state_code":"CA","zip5":"92592","latitude":"33.4780725050000000","longitude":"-117.11522080800000","publicwifi":"U","url":null,"broadband_type_id":6}
{"id":null,"anchorname":"SOUTHWEST HEALTHCARE SYSTEM-WILDOMAR","address":"36485 Inland Valley Dr","bldgnbr":"36485","predir":null,"streetname":"Inland Valley","streettype":null,"suffdir":null,"city":"Wildomar","state_code":"CA","zip5":"92595","latitude":"33.5912400000000000","longitude":"-117.23699000000000","publicwifi":"U","url":null,"broadband_type_id":3}
{"id":null,"anchorname":"MURRIETA PUBLIC LIBRARY","address":"EIGHT TOWN SQUARE","bldgnbr":"0","predir":null,"streetname":"EIGHT TOWN SQUARE","streettype":null,"suffdir":null,"city":"MURRIETA","state_code":"CA","zip5":"92562","latitude":"33.5750550000000000","longitude":"-117.20795000000000","publicwifi":"U","url":null,"broadband_type_id":6}
{"id":null,"anchorname":"COUNTRY VILLA MURRIETA HEALTHCARE CENTER","address":"24100 Monroe Ave","bldgnbr":"24100","predir":null,"streetname":"Monroe Ave","streettype":null,"suffdir":null,"city":"Murrieta","state_code":"CA","zip5":"92562","latitude":"33.5771010000000000","longitude":"-117.21182000000000","publicwifi":"U","url":null,"broadband_type_id":3}
{"id":null,"anchorname":"The Salvation Army (40270 Los Alamso Road)","address":"40270 Los Alamos Road","bldgnbr":"40270","predir":null,"streetname":"Los Alamos","streettype":null,"suffdir":null,"city":"Murrieta","state_code":"CA","zip5":"92562","latitude":"33.5681320000000000","longitude":"-117.18951300000000","publicwifi":"U","url":null,"broadband_type_id":6}
{"id":null,"anchorname":"MFI Recovery Center Inc. Murrieta Outpatient Services","address":"25186 Hancock Ave., #100","bldgnbr":"25186","predir":null,"streetname":"Hancock Ave. #100","streettype":null,"suffdir":null,"city":"Murrieta","state_code":"CA","zip5":"92562","latitude":"33.5632640000000000","longitude":"-117.18250200000000","publicwifi":"U","url":null,"broadband_type_id":6}
{"id":null,"anchorname":"MURRIETA DIALYSIS CENTER","address":"25100 Hancock Ave Ste 101","bldgnbr":"25100","predir":null,"streetname":"Hancock Ave","streettype":null,"suffdir":null,"city":"Murrieta","state_code":"CA","zip5":"92562","latitude":"33.5696590000000000","longitude":"-117.18263800000000","publicwifi":"U","url":null,"broadband_type_id":6}
{"id":null,"anchorname":"Alta Murrieta Elementary","address":"39475 Whitewood Road","bldgnbr":"39475","predir":null,"streetname":"Whitewood Road","streettype":null,"suffdir":null,"city":"Murrieta","state_code":"CA","zip5":"92563","latitude":"33.5669870000000000","longitude":"-117.16843000000000","publicwifi":"U","url":"www.murrieta.k12.ca.us/alta","broadband_type_id":6}
{"id":null,"anchorname":"Temecula Elementary","address":"41951 Moraga Road","bldgnbr":"41951","predir":null,"streetname":"Moraga Road","streettype":null,"suffdir":null,"city":"Temecula","state_code":"CA","zip5":"92591","latitude":"33.5100470000000000","longitude":"-117.14079000000000","publicwifi":"U","url":null,"broadband_type_id":6}
{"id":null,"anchorname":"Thessalonika Family Services, Inc.(29729 Valle Olvera)","address":"29729 Valle Olvera","bldgnbr":"29729","predir":null,"streetname":"Valle Olvera","streettype":null,"suffdir":null,"city":"Temecula","state_code":"CA","zip5":"92591","latitude":"33.5330440000000000","longitude":"-117.13898400000000","publicwifi":"U","url":null,"broadband_type_id":6}
{"id":null,"anchorname":"Rancho Elementary","address":"31530 La Serena Way","bldgnbr":"31530","predir":null,"streetname":"La Serena Way","streettype":null,"suffdir":null,"city":"Temecula","state_code":"CA","zip5":"92591","latitude":"33.5268440000000000","longitude":"-117.11309000000000","publicwifi":"U","url":null,"broadband_type_id":6}
{"id":null,"anchorname":"Margarita Middle","address":"30600 Margarita Road","bldgnbr":"30600","predir":null,"streetname":"Margarita Road","streettype":null,"suffdir":null,"city":"Temecula","state_code":"CA","zip5":"92591","latitude":"33.5167730000000000","longitude":"-117.12683000000000","publicwifi":"U","url":null,"broadband_type_id":6}
{"id":null,"anchorname":"Vail Elementary","address":"29835 Mira Loma Drive","bldgnbr":"29835","predir":null,"streetname":"Mira Loma","streettype":null,"suffdir":null,"city":"Temecula","state_code":"CA","zip5":"92592","latitude":"33.5027050000000000","longitude":"-117.13528000000000","publicwifi":"U","url":null,"broadband_type_id":6}
{"id":null,"anchorname":"Hillcrest Academy","address":"29275 Santiago Road","bldgnbr":"29275","predir":null,"streetname":"Santiago Road","streettype":null,"suffdir":null,"city":"Temecula","state_code":"CA","zip5":"92592","latitude":"33.4879659440000000","longitude":"-117.14209816100000","publicwifi":"U","url":null,"broadband_type_id":6}
{"id":null,"anchorname":"E. Hale Curran Elementary","address":"40855 Chaco Canyon Road","bldgnbr":"40855","predir":null,"streetname":"Chaco Canyon","streettype":null,"suffdir":null,"city":"Murrieta","state_code":"CA","zip5":"92562","latitude":"33.5785090000000000","longitude":"-117.21491000000000","publicwifi":"U","url":"www.murrieta.k12.ca.us/curran","broadband_type_id":6}
{"id":null,"anchorname":"Boys \u0026 Girls Clubs of Southwest County","address":"40550 California Oaks Road","bldgnbr":"40550","predir":null,"streetname":"California Oaks","streettype":null,"suffdir":null,"city":"Murrieta","state_code":"CA","zip5":"92562","latitude":"33.5737900000000000","longitude":"-117.20219800000000","publicwifi":"U","url":null,"broadband_type_id":6}
{"id":null,"anchorname":"Thessalonika Family Services, Inc.(37600 Glen Oaks Rd.)","address":"37600 Glen Oaks Road","bldgnbr":"37600","predir":null,"streetname":"Glen Oaks","streettype":null,"suffdir":null,"city":"Temecula","state_code":"CA","zip5":"92592","latitude":"33.5567550000000000","longitude":"-117.00350300000000","publicwifi":"U","url":null,"broadband_type_id":6}
{"id":null,"anchorname":"E. WILSON MORRISON ELEMENTARY","address":"40 CRESCENT STREET","bldgnbr":"40","predir":"N/A","streetname":"CRESCENT","streettype":"STREET","suffdir":"N/A","city":"FRONT ROYAL","state_code":"VA","zip5":"22630","latitude":"38.9197428510000000","longitude":"-78.192660101000000","publicwifi":"U","url":"N/A","broadband_type_id":6}
{"id":null,"anchorname":"GLADE SPRING MIDDLE","address":"33474 STAGE COACH ROAD","bldgnbr":"33474","predir":"N/A","streetname":"STAGE COACH","streettype":"ROAD","suffdir":"N/A","city":"GLADE SPRING","state_code":"VA","zip5":"24340","latitude":"36.7776840690000000","longitude":"-81.778958946000000","publicwifi":"U","url":"N/A","broadband_type_id":6}
{"id":null,"anchorname":"Temecula Valley Charter","address":"35755 Abelia Street","bldgnbr":"35755","predir":null,"streetname":"Abelia Street","streettype":null,"suffdir":null,"city":"Winchester","state_code":"CA","zip5":"92596","latitude":"33.6042300000000000","longitude":"-117.08575000000000","publicwifi":"U","url":null,"broadband_type_id":null}
{"id":null,"anchorname":"Temecula Preparatory","address":"35777 Abelia Street","bldgnbr":"35777","predir":null,"streetname":"Abelia Street","streettype":null,"suffdir":null,"city":"Winchester","state_code":"CA","zip5":"92596","latitude":"33.6042400000000000","longitude":"-117.08570000000000","publicwifi":"U","url":"www.temeculaprep.com","broadband_type_id":null}
{"id":null,"anchorname":"Big Lagoon Union Elementary","address":"269 Big Lagoon Park Road","bldgnbr":"269","predir":null,"streetname":"Big Lagoon Park","streettype":null,"suffdir":null,"city":"Trinidad","state_code":"CA","zip5":"95570","latitude":"41.1631800000000000","longitude":"-124.13065000000000","publicwifi":"U","url":"www.humboldt.k12.ca.us/blagoon_sd","broadband_type_id":6}
{"id":null,"anchorname":"Thessalonika Family Services, Inc.(37251 Glenoaks)","address":"37251 Glenoaks Road","bldgnbr":"37251","predir":null,"streetname":"Glenoaks Road","streettype":null,"suffdir":null,"city":"Temecula","state_code":"CA","zip5":"92592","latitude":"33.5542590000000000","longitude":"-117.00882400000000","publicwifi":"U","url":null,"broadband_type_id":6}
{"id":null,"anchorname":"Temecula Valley Unified","address":"31350 Rancho Vista Road","bldgnbr":"31350","predir":null,"streetname":"Rancho Vista","streettype":null,"suffdir":null,"city":"Temecula","state_code":"CA","zip5":"92592","latitude":"33.5033940000000000","longitude":"-117.11800000000000","publicwifi":"U","url":"www.tvusd.k12.ca.us","broadband_type_id":null}
{"id":null,"anchorname":"French Valley Elementary","address":"36680 Cady Road","bldgnbr":"36680","predir":null,"streetname":"Cady Road","streettype":null,"suffdir":null,"city":"Winchester","state_code":"CA","zip5":"92596","latitude":"33.5905860000000000","longitude":"-117.09671000000000","publicwifi":"U","url":null,"broadband_type_id":6}
{"id":null,"anchorname":"Susan H. Nelson","address":"32225 Pio Pico Road","bldgnbr":"32225","predir":null,"streetname":"Pio Pico","streettype":null,"suffdir":null,"city":"Temecula","state_code":"CA","zip5":"92592","latitude":"33.4880060000000000","longitude":"-117.10490000000000","publicwifi":"U","url":null,"broadband_type_id":null}
{"id":null,"anchorname":"Nicolas Valley Elementary","address":"39600 North General Kearney Road","bldgnbr":"39600","predir":null,"streetname":"North General Kearney","streettype":null,"suffdir":null,"city":"Temecula","state_code":"CA","zip5":"92591","latitude":"33.5470940000000000","longitude":"-117.12547000000000","publicwifi":"U","url":null,"broadband_type_id":6}
{"id":null,"anchorname":"Saint Jeanne de Lestonnac","address":"32650 Avenida Lestonnac","bldgnbr":"32650","predir":null,"streetname":"Avenida Lestonnac","streettype":null,"suffdir":null,"city":"Temecula","state_code":"CA","zip5":"92592","latitude":"33.5174502830000000","longitude":"-117.09003209700000","publicwifi":"U","url":null,"broadband_type_id":6}
{"id":null,"anchorname":"MEDCARE - TEMECULA HOME HEALTH AGENCY, INC.","address":"31285 Sthy 79","bldgnbr":"31285","predir":null,"streetname":"Sthy 79","streettype":null,"suffdir":null,"city":"Temecula","state_code":"CA","zip5":"92592","latitude":"33.4761580000000000","longitude":"-117.11735000000000","publicwifi":"U","url":null,"broadband_type_id":3}
{"id":null,"anchorname":"Linfield Christian School","address":"31950 Pauba Road","bldgnbr":"31950","predir":null,"streetname":"Pauba Road","streettype":null,"suffdir":null,"city":"Temecula","state_code":"CA","zip5":"92592","latitude":"33.5049220230000000","longitude":"-117.10885319800000","publicwifi":"U","url":null,"broadband_type_id":6}
{"id":null,"anchorname":"MAXIM HEALTHCARE SERVICES, INC.","address":"One Ridge Gate","bldgnbr":"One","predir":null,"streetname":"Ridge Gate","streettype":null,"suffdir":null,"city":"Temecula","state_code":"CA","zip5":"92591","latitude":"33.5080710000000000","longitude":"-117.12466900000000","publicwifi":"U","url":null,"broadband_type_id":3}
{"id":null,"anchorname":"California Lutheran High School","address":"31970 Central Avenue","bldgnbr":"31970","predir":null,"streetname":"Central Avenue","streettype":null,"suffdir":null,"city":"Wildomar","state_code":"CA","zip5":"92595","latitude":"33.6075644810000000","longitude":"-117.26778819600000","publicwifi":"U","url":null,"broadband_type_id":6}
{"id":null,"anchorname":"Crowne Hill Elementary","address":"33535 Old Kent Road","bldgnbr":"33535","predir":null,"streetname":"Old Kent","streettype":null,"suffdir":null,"city":"Temecula","state_code":"CA","zip5":"92592","latitude":"33.4971600000000000","longitude":"-117.07539000000000","publicwifi":"U","url":null,"broadband_type_id":6}
{"id":null,"anchorname":"Bella Vista Middle","address":"31650 Browning Street","bldgnbr":"31650","predir":null,"streetname":"Browning Street","streettype":null,"suffdir":null,"city":"Murrieta","state_code":"CA","zip5":"92563","latitude":"33.5620550000000000","longitude":"-117.10710000000000","publicwifi":"U","url":null,"broadband_type_id":6}
{"id":null,"anchorname":"Alamos Elementary","address":"38200 Pacific Park Drive","bldgnbr":"38200","predir":null,"streetname":"Pacific Park","streettype":null,"suffdir":null,"city":"Murrieta","state_code":"CA","zip5":"92563","latitude":"33.5634600000000000","longitude":"-117.11065000000000","publicwifi":"U","url":null,"broadband_type_id":6}
{"id":null,"anchorname":"Pauba Valley Elementary","address":"33125 Regina Drive","bldgnbr":"33125","predir":null,"streetname":"Regina Drive","streettype":null,"suffdir":null,"city":"Temecula","state_code":"CA","zip5":"92592","latitude":"33.4729600000000000","longitude":"-117.08103000000000","publicwifi":"U","url":null,"broadband_type_id":6}
{"id":null,"anchorname":"Boys \u0026 Girls Clubs of Southwest County","address":"31465 Via Cordoba","bldgnbr":"31465","predir":null,"streetname":"Via Cordoba","streettype":null,"suffdir":null,"city":"Temecula","state_code":"CA","zip5":"92592","latitude":"33.4693220000000000","longitude":"-117.10586500000000","publicwifi":"U","url":null,"broadband_type_id":6}
{"id":null,"anchorname":"Red Hawk Elementary","address":"32045 Camino San Jose","bldgnbr":"32045","predir":null,"streetname":"Camino San Jose","streettype":null,"suffdir":null,"city":"Temecula","state_code":"CA","zip5":"92592","latitude":"33.4694550000000000","longitude":"-117.09943000000000","publicwifi":"U","url":null,"broadband_type_id":6}
{"id":null,"anchorname":"Erle Stanley Gardner Middle","address":"45125 Via Del Coronado","bldgnbr":"45125","predir":null,"streetname":"Via Del Coronado","streettype":null,"suffdir":null,"city":"Temecula","state_code":"CA","zip5":"92592","latitude":"33.4703640000000000","longitude":"-117.10926000000000","publicwifi":"U","url":null,"broadband_type_id":6}
{"id":null,"anchorname":"Temecula Luiseno Elementary","address":"45754 Wolf Creek Drive, North","bldgnbr":"45754","predir":null,"streetname":"Wolf Creek","streettype":null,"suffdir":null,"city":"Temecula","state_code":"CA","zip5":"92592","latitude":"33.4595000000000000","longitude":"-117.10270000000000","publicwifi":"U","url":null,"broadband_type_id":6}
{"id":null,"anchorname":"Helen Hunt Jackson Elementary","address":"32400 Camino San Dimas","bldgnbr":"32400","predir":null,"streetname":"Camino San Dimas","streettype":null,"suffdir":null,"city":"Temecula","state_code":"CA","zip5":"92592","latitude":"33.4595110000000000","longitude":"-117.09064000000000","publicwifi":"U","url":null,"broadband_type_id":6}
{"id":null,"anchorname":"Great Oak High","address":"32555 Deer Hollow Way","bldgnbr":"32555","predir":null,"streetname":"Deer Hollow Way","streettype":null,"suffdir":null,"city":"Temecula","state_code":"CA","zip5":"92592","latitude":"33.4524300000000000","longitude":"-117.09213000000000","publicwifi":"U","url":null,"broadband_type_id":6}
{"id":null,"anchorname":"Vail Ranch Middle","address":"33340 Camino Piedra Rojo","bldgnbr":"33340","predir":null,"streetname":"Camino Piedra Rojo","streettype":null,"suffdir":null,"city":"Temecula","state_code":"CA","zip5":"92592","latitude":"33.4809090000000000","longitude":"-117.07742000000000","publicwifi":"U","url":null,"broadband_type_id":6}
{"id":null,"anchorname":"Tony Tobin Elementary","address":"45200 Morgan Hill Drive","bldgnbr":"45200","predir":null,"streetname":"Morgan Hill","streettype":null,"suffdir":null,"city":"Temecula","state_code":"CA","zip5":"92592","latitude":"33.4693800000000000","longitude":"-117.06816000000000","publicwifi":"U","url":null,"broadband_type_id":6}
{"id":null,"anchorname":"Vintage Hills Elementary","address":"42240 Camino Romo","bldgnbr":"42240","predir":null,"streetname":"Camino Romo","streettype":null,"suffdir":null,"city":"Temecula","state_code":"CA","zip5":"92592","latitude":"33.5083660000000000","longitude":"-117.10027000000000","publicwifi":"U","url":null,"broadband_type_id":6}
{"id":null,"anchorname":"Temecula Valley High","address":"31555 Rancho Vista Road","bldgnbr":"31555","predir":null,"streetname":"Rancho Vista","streettype":null,"suffdir":null,"city":"Temecula","state_code":"CA","zip5":"92592","latitude":"33.5036450000000000","longitude":"-117.11659000000000","publicwifi":"U","url":null,"broadband_type_id":6}
{"id":null,"anchorname":"Paloma Elementary","address":"42940 Via Rami","bldgnbr":"42940","predir":null,"streetname":"Via Rami","streettype":null,"suffdir":null,"city":"Temecula","state_code":"CA","zip5":"92592","latitude":"33.5005170000000000","longitude":"-117.10652000000000","publicwifi":"U","url":null,"broadband_type_id":6}
{"id":null,"anchorname":"Temecula Middle","address":"42075 Meadows Parkway","bldgnbr":"42075","predir":null,"streetname":"Meadows Parkway","streettype":null,"suffdir":null,"city":"Temecula","state_code":"CA","zip5":"92592","latitude":"33.5026450000000000","longitude":"-117.09718000000000","publicwifi":"U","url":"www.tvusd.k12.ca.us","broadband_type_id":6}
{"id":null,"anchorname":"Abby Reinke Elementary","address":"43799 Sunny Meadows Drive","bldgnbr":"43799","predir":null,"streetname":"Sunny Meadows","streettype":null,"suffdir":null,"city":"Temecula","state_code":"CA","zip5":"92592","latitude":"33.4918010000000000","longitude":"-117.08607000000000","publicwifi":"U","url":null,"broadband_type_id":6}
{"id":null,"anchorname":"Donald Graham Elementary","address":"35450 Frederick Street","bldgnbr":"35450","predir":null,"streetname":"Frederick Street","streettype":null,"suffdir":null,"city":"Wildomar","state_code":"CA","zip5":"92595","latitude":"33.6058930000000000","longitude":"-117.25812000000000","publicwifi":"U","url":null,"broadband_type_id":6}
{"id":null,"anchorname":"Wildomar Elementary","address":"21575 Palomar Road","bldgnbr":"21575","predir":null,"streetname":"Palomar Road","streettype":null,"suffdir":null,"city":"Wildomar","state_code":"CA","zip5":"92595","latitude":"33.6035480000000000","longitude":"-117.27261000000000","publicwifi":"U","url":null,"broadband_type_id":6}
{"id":null,"anchorname":"David A. Brown Middle","address":"21861 Grand Avenue","bldgnbr":"21861","predir":null,"streetname":"Grand Avenue","streettype":null,"suffdir":null,"city":"Wildomar","state_code":"CA","zip5":"92595","latitude":"33.5941440000000000","longitude":"-117.27235000000000","publicwifi":"U","url":null,"broadband_type_id":6}
{"id":null,"anchorname":"Cottonwood Canyon Elementary","address":"32100 Lost Road","bldgnbr":"32100","predir":null,"streetname":"Lost Road","streettype":null,"suffdir":null,"city":"Lake Elsinore","state_code":"CA","zip5":"92532","latitude":"33.6581900000000000","longitude":"-117.25642000000000","publicwifi":"U","url":null,"broadband_type_id":6}
{"id":null,"anchorname":"Canyon Lake Middle","address":"33005 Canyon Hills Road","bldgnbr":"33005","predir":null,"streetname":"Canyon Hills","streettype":null,"suffdir":null,"city":"Lake Elsinore","state_code":"CA","zip5":"92532","latitude":"33.6591000000000000","longitude":"-117.25369000000000","publicwifi":"U","url":null,"broadband_type_id":6}
{"id":null,"anchorname":"Ronald Reagan Elementary","address":"35445 Porras Road","bldgnbr":"35445","predir":null,"streetname":"Porras Road","streettype":null,"suffdir":null,"city":"Wildomar","state_code":"CA","zip5":"92595","latitude":"33.6063200000000000","longitude":"-117.24083000000000","publicwifi":"U","url":null,"broadband_type_id":6}
{"id":null,"anchorname":"Bundy Canyon Christian","address":"23411 Bundy Canyon Road","bldgnbr":"23411","predir":null,"streetname":"Bundy Canyon","streettype":null,"suffdir":null,"city":"Wildomar","state_code":"CA","zip5":"92595","latitude":"33.6251853820000000","longitude":"-117.25007155300000","publicwifi":"U","url":null,"broadband_type_id":6}
{"id":null,"anchorname":"Cornerstone Christian","address":"34570 Monte Vista Drive","bldgnbr":"34570","predir":null,"streetname":"Monte Vista","streettype":null,"suffdir":null,"city":"Wildomar","state_code":"CA","zip5":"92595","latitude":"33.6184773710000000","longitude":"-117.26351391200000","publicwifi":"U","url":null,"broadband_type_id":6}
{"id":null,"anchorname":"Diamond Valley Middle","address":"291 West Chambers Street","bldgnbr":"291","predir":null,"streetname":"West Chambers","streettype":null,"suffdir":null,"city":"Hemet","state_code":"CA","zip5":"92543","latitude":"33.7225530000000000","longitude":"-116.96960000000000","publicwifi":"U","url":null,"broadband_type_id":6}
{"id":null,"anchorname":"Dows Prairie Elementary","address":"3940 Dows Prairie Road","bldgnbr":"3940","predir":null,"streetname":"Dows Prairie","streettype":null,"suffdir":null,"city":"McKinleyville","state_code":"CA","zip5":"95519","latitude":"40.9771340000000000","longitude":"-124.09576000000000","publicwifi":"U","url":"www.nohum.k12.ca.us/msd","broadband_type_id":6}
{"id":null,"anchorname":"W.N. NEFF CENTER FOR SCIENCE AND TECHNOLOGY","address":"255 STANLEY STREET","bldgnbr":"255","predir":"N/A","streetname":"STANLEY","streettype":"STREET","suffdir":"N/A","city":"ABINGDON","state_code":"VA","zip5":"24210","latitude":"36.7227430300000000","longitude":"-81.951915282000000","publicwifi":"U","url":"N/A","broadband_type_id":1}
{"id":null,"anchorname":"Little Lake Elementary","address":"26091 South Meridian Street","bldgnbr":"26091","predir":null,"streetname":"South Meridian","streettype":null,"suffdir":null,"city":"Hemet","state_code":"CA","zip5":"92544","latitude":"33.7427950000000000","longitude":"-116.92821000000000","publicwifi":"U","url":null,"broadband_type_id":6}
{"id":null,"anchorname":"SOUTHWEST DISTRICT COOPERATIVE EXTENSION OFFICE","address":"1 PARTNERSHIP CIRCLE","bldgnbr":"1","predir":"N/A","streetname":"PARTNERSHIP","streettype":"CIRCLE","suffdir":"N/A","city":"ABINGDON","state_code":"VA","zip5":"24210","latitude":"36.6965596250000000","longitude":"-82.000242145000000","publicwifi":"U","url":"N/A","broadband_type_id":6}
{"id":null,"anchorname":"Dartmouth Middle","address":"41535 Mayberry Avenue","bldgnbr":"41535","predir":null,"streetname":"Mayberry Avenue","streettype":null,"suffdir":null,"city":"Hemet","state_code":"CA","zip5":"92544","latitude":"33.7404150000000000","longitude":"-116.93628000000000","publicwifi":"U","url":null,"broadband_type_id":6}
{"id":null,"anchorname":"Ramona Elementary","address":"41051 Whittier Avenue","bldgnbr":"41051","predir":null,"streetname":"Whittier Avenue","streettype":null,"suffdir":null,"city":"Hemet","state_code":"CA","zip5":"92544","latitude":"33.7367680000000000","longitude":"-116.94474000000000","publicwifi":"U","url":null,"broadband_type_id":6}
{"id":null,"anchorname":"Hemet High","address":"41701 Stetson Avenue","bldgnbr":"41701","predir":null,"streetname":"Stetson Avenue","streettype":null,"suffdir":null,"city":"Hemet","state_code":"CA","zip5":"92544","latitude":"33.7294720000000000","longitude":"-116.93247000000000","publicwifi":"U","url":null,"broadband_type_id":6}
{"id":null,"anchorname":"REGIONAL ALTERNATIVE EDUCATION / WYTHE COUNTY","address":"1570 WEST RESERVOIR STREET","bldgnbr":"1570","predir":"WEST","streetname":"RESERVOIR","streettype":"STREET","suffdir":"N/A","city":"WYTHEVILLE","state_code":"VA","zip5":"24382","latitude":"36.9421635950000000","longitude":"-81.103690515000000","publicwifi":"U","url":"N/A","broadband_type_id":6}
{"id":null,"anchorname":"West Valley High","address":"3401 Mustang Way","bldgnbr":"3401","predir":null,"streetname":"Mustang Way","streettype":null,"suffdir":null,"city":"Hemet","state_code":"CA","zip5":"92545","latitude":"33.7197030000000000","longitude":"-117.00962000000000","publicwifi":"U","url":null,"broadband_type_id":6}
{"id":null,"anchorname":"Habitat For Humanity International Inc.(N. State St.)","address":"328 N. State Street, Unit D","bldgnbr":"328","predir":null,"streetname":"N. State","streettype":null,"suffdir":null,"city":"Hemet","state_code":"CA","zip5":"92543","latitude":"33.7518040000000000","longitude":"-116.97170700000000","publicwifi":"U","url":null,"broadband_type_id":1}
{"id":null,"anchorname":"V.I.P. Tots","address":"41915 Acacia Avenue","bldgnbr":"41915","predir":null,"streetname":"Acacia Avenue","streettype":null,"suffdir":null,"city":"Hemet","state_code":"CA","zip5":"92544","latitude":"33.7437590000000000","longitude":"-116.92964100000000","publicwifi":"U","url":null,"broadband_type_id":null}
{"id":null,"anchorname":"Western Center Academy","address":"2345 Searl Parkway","bldgnbr":"2345","predir":null,"streetname":"Searl Parkway","streettype":null,"suffdir":null,"city":"Hemet","state_code":"CA","zip5":"92543","latitude":"33.7068320000000000","longitude":"-116.99217000000000","publicwifi":"U","url":"www.hemetusd.org","broadband_type_id":6}
{"id":null,"anchorname":"St. John's Lutheran","address":"26410 Columbia Street","bldgnbr":"26410","predir":null,"streetname":"Columbia Street","streettype":null,"suffdir":null,"city":"Hemet","state_code":"CA","zip5":"92544","latitude":"33.7381473100000000","longitude":"-116.94438404900000","publicwifi":"U","url":null,"broadband_type_id":null}
{"id":null,"anchorname":"Harmony Elementary","address":"1500 South Cawston Street","bldgnbr":"1500","predir":null,"streetname":"South Cawston","streettype":null,"suffdir":null,"city":"Hemet","state_code":"CA","zip5":"92545","latitude":"33.7092340000000000","longitude":"-117.01519000000000","publicwifi":"U","url":null,"broadband_type_id":6}
{"id":null,"anchorname":"Jacob Wiens Elementary","address":"935 East Campus Way","bldgnbr":"935","predir":null,"streetname":"East Campus Way","streettype":null,"suffdir":null,"city":"Hemet","state_code":"CA","zip5":"92543","latitude":"33.7539150000000000","longitude":"-116.96257000000000","publicwifi":"U","url":null,"broadband_type_id":6}
{"id":null,"anchorname":"Western Center Community Foundation","address":"2345 Searl Parkway","bldgnbr":"2345","predir":null,"streetname":"Searl Parkway","streettype":null,"suffdir":null,"city":"Hemet","state_code":"CA","zip5":"92543","latitude":"33.7072900000000000","longitude":"-116.99222100000000","publicwifi":"U","url":null,"broadband_type_id":6}
{"id":null,"anchorname":"Hemet Adult Education","address":"831 East Devonshire Avenue","bldgnbr":"831","predir":null,"streetname":"East Devonshire","streettype":null,"suffdir":null,"city":"Hemet","state_code":"CA","zip5":"92543","latitude":"33.7512010000000000","longitude":"-116.96250200000000","publicwifi":"U","url":null,"broadband_type_id":6}
{"id":null,"anchorname":"Alessandro High","address":"831 East Devonshire Avenue","bldgnbr":"831","predir":null,"streetname":"East Devonshire","streettype":null,"suffdir":null,"city":"Hemet","state_code":"CA","zip5":"92543","latitude":"33.7508780000000000","longitude":"-116.96393000000000","publicwifi":"U","url":null,"broadband_type_id":6}
{"id":null,"anchorname":"Helen Hunt Jackson Alternative High","address":"258 North Thompson","bldgnbr":"258","predir":null,"streetname":"North Thompson","streettype":null,"suffdir":null,"city":"Hemet","state_code":"CA","zip5":"92543","latitude":"33.7504230000000000","longitude":"-116.96511000000000","publicwifi":"U","url":null,"broadband_type_id":6}
{"id":null,"anchorname":"Family Tree Learning Center","address":"258 North Thompson St","bldgnbr":"258","predir":null,"streetname":"North Thompson","streettype":null,"suffdir":null,"city":"Hemet","state_code":"CA","zip5":"92543","latitude":"33.7504230000000000","longitude":"-116.96511000000000","publicwifi":"U","url":null,"broadband_type_id":6}
{"id":null,"anchorname":"DIAMOND VALLEY DIALYSIS","address":"1030 E Florida Ave","bldgnbr":"1030","predir":null,"streetname":"E Florida","streettype":null,"suffdir":null,"city":"Hemet","state_code":"CA","zip5":"92543","latitude":"33.7477370000000000","longitude":"-116.96167600000000","publicwifi":"U","url":null,"broadband_type_id":6}
{"id":null,"anchorname":"The Salvation Army (1400 W Florida Ave)","address":"1400 W Florida Ave.","bldgnbr":"1400","predir":null,"streetname":"W Florida","streettype":null,"suffdir":null,"city":"Hemet","state_code":"CA","zip5":"92543","latitude":"33.7479880000000000","longitude":"-116.98667800000000","publicwifi":"U","url":null,"broadband_type_id":null}
{"id":null,"anchorname":"Hemet Unified","address":"1791 West Acacia Avenue","bldgnbr":"1791","predir":null,"streetname":"West Acacia","streettype":null,"suffdir":null,"city":"Hemet","state_code":"CA","zip5":"92545","latitude":"33.7437420000000000","longitude":"-116.98901000000000","publicwifi":"U","url":"www.hemetusd.org","broadband_type_id":null}
{"id":null,"anchorname":"The Salvation Army,(CorpsCom.Ctr) 340 Palm Ave.","address":"340 Palm Avenue","bldgnbr":"340","predir":null,"streetname":"Palm Avenue","streettype":null,"suffdir":null,"city":"Hemet","state_code":"CA","zip5":"92543","latitude":"33.7518540000000000","longitude":"-116.98042500000000","publicwifi":"U","url":null,"broadband_type_id":null}
{"id":null,"anchorname":"MEADOWBROOK HEALTH CARE CENTER - HEMET","address":"461 E Johnston Ave","bldgnbr":"461","predir":null,"streetname":"E Johnston","streettype":null,"suffdir":null,"city":"Hemet","state_code":"CA","zip5":"92343","latitude":"33.7329700000000000","longitude":"-116.96763000000000","publicwifi":"U","url":null,"broadband_type_id":3}
{"id":null,"anchorname":"RAMONA MANOR CONVALESCENT HOSPITAL","address":"485 W Johnston Ave","bldgnbr":"485","predir":null,"streetname":"W Johnston","streettype":null,"suffdir":null,"city":"Hemet","state_code":"CA","zip5":"92543","latitude":"33.7328630000000000","longitude":"-116.97561600000000","publicwifi":"U","url":null,"broadband_type_id":3}
{"id":null,"anchorname":"Baptist Christian School","address":"26089 Girard Street","bldgnbr":"26089","predir":null,"streetname":"Girard Street","streettype":null,"suffdir":null,"city":"Hemet","state_code":"CA","zip5":"92544","latitude":"33.7428293990000000","longitude":"-116.95653820700000","publicwifi":"U","url":null,"broadband_type_id":6}
{"id":null,"anchorname":"VISITING NURSE ASSN OF THE INLAND CO - HEMET - BRANCH","address":"1800 E Florida Ave","bldgnbr":"1800","predir":null,"streetname":"E Florida","streettype":null,"suffdir":null,"city":"Hemet","state_code":"CA","zip5":"92544","latitude":"33.7476280000000000","longitude":"-116.95267300000000","publicwifi":"U","url":null,"broadband_type_id":3}
{"id":null,"anchorname":"DEVONSHIRE CARE CENTER","address":"1350 E Devonshire Ave","bldgnbr":"1350","predir":null,"streetname":"E Devonshire","streettype":null,"suffdir":null,"city":"Hemet","state_code":"CA","zip5":"92343","latitude":"33.7513400000000000","longitude":"-116.95807000000000","publicwifi":"U","url":null,"broadband_type_id":3}
{"id":null,"anchorname":"Hemet Adventist Christian School","address":"26312 Hemet Street","bldgnbr":"26312","predir":null,"streetname":"Hemet Street","streettype":null,"suffdir":null,"city":"Hemet","state_code":"CA","zip5":"92544","latitude":"33.7394126680000000","longitude":"-116.92267660400000","publicwifi":"U","url":null,"broadband_type_id":6}
{"id":null,"anchorname":"Community Christian School","address":"41762 Stetson Avenue","bldgnbr":"41762","predir":null,"streetname":"Stetson Avenue","streettype":null,"suffdir":null,"city":"Hemet","state_code":"CA","zip5":"92544","latitude":"33.7303123730000000","longitude":"-116.93132540500000","publicwifi":"U","url":null,"broadband_type_id":6}
{"id":null,"anchorname":"MANORCARE HEALTH SERVICES (HEMET)","address":"1717 West Stetson Avenue","bldgnbr":"1717","predir":null,"streetname":"West Stetson","streettype":null,"suffdir":null,"city":"Hemet","state_code":"CA","zip5":"92545","latitude":"33.7292930000000000","longitude":"-116.98953200000000","publicwifi":"U","url":null,"broadband_type_id":3}
{"id":null,"anchorname":"HEMET VALLEY HEALTH CARE CENTER","address":"371 N Weston Pl","bldgnbr":"371","predir":null,"streetname":"N Weston","streettype":null,"suffdir":null,"city":"Hemet","state_code":"CA","zip5":"92543","latitude":"33.7525300000000000","longitude":"-116.95988000000000","publicwifi":"U","url":null,"broadband_type_id":3}
{"id":null,"anchorname":"SAN JACINTO HEALTHCARE","address":"275 N San Jacinto St","bldgnbr":"275","predir":null,"streetname":"N San Jacinto","streettype":null,"suffdir":null,"city":"Hemet","state_code":"CA","zip5":"92543","latitude":"33.7507760000000000","longitude":"-116.95915000000000","publicwifi":"U","url":null,"broadband_type_id":3}
{"id":null,"anchorname":"HEMET VALLEY MEDICAL CENTER","address":"1117 E Devonshire Ave","bldgnbr":"1117","predir":null,"streetname":"E Devonshire","streettype":null,"suffdir":null,"city":"Hemet","state_code":"CA","zip5":"92543","latitude":"33.7511300000000000","longitude":"-116.95958000000000","publicwifi":"U","url":null,"broadband_type_id":3}
{"id":null,"anchorname":"HEMET PUBLIC LIBRARY","address":"300 E. LATHAM AVE","bldgnbr":"300","predir":null,"streetname":"E. LATHAM","streettype":null,"suffdir":null,"city":"HEMET","state_code":"CA","zip5":"92543","latitude":"33.7494070000000000","longitude":"-116.96945100000000","publicwifi":"U","url":null,"broadband_type_id":6}
{"id":null,"anchorname":"HEMET HOME HEALTH CARE","address":"414 S Palm Ave","bldgnbr":"414","predir":null,"streetname":"S Palm","streettype":null,"suffdir":null,"city":"Hemet","state_code":"CA","zip5":"92543","latitude":"33.7417650000000000","longitude":"-116.98031800000000","publicwifi":"U","url":null,"broadband_type_id":3}
{"id":null,"anchorname":"Family Service Association of Western Riverside County(E. Devonshire Ave.)","address":"305 E. Devonshire Avenue","bldgnbr":"305","predir":null,"streetname":"E. Devonshire","streettype":null,"suffdir":null,"city":"Hemet","state_code":"CA","zip5":"92543","latitude":"33.7511710000000000","longitude":"-116.96946700000000","publicwifi":"U","url":null,"broadband_type_id":6}
{"id":null,"anchorname":"Family Service Association of Western Riverside County (W. Acacia Avenue)","address":"790 W. Acacia Avenue","bldgnbr":"790","predir":null,"streetname":"W. Acacia","streettype":null,"suffdir":null,"city":"Hemet","state_code":"CA","zip5":"92543","latitude":"33.7438460000000000","longitude":"-116.97918500000000","publicwifi":"U","url":null,"broadband_type_id":6}
{"id":null,"anchorname":"Whittier Elementary","address":"400 West Whittier Avenue","bldgnbr":"400","predir":null,"streetname":"West Whittier","streettype":null,"suffdir":null,"city":"Hemet","state_code":"CA","zip5":"92543","latitude":"33.7367100000000000","longitude":"-116.97513000000000","publicwifi":"U","url":null,"broadband_type_id":6}
{"id":null,"anchorname":"Tsurai High (Continuation)","address":"1300 Murray Road","bldgnbr":"1300","predir":null,"streetname":"Murray Road","streettype":null,"suffdir":null,"city":"McKinleyville","state_code":"CA","zip5":"95521","latitude":"40.9561980000000000","longitude":"-124.11031000000000","publicwifi":"U","url":null,"broadband_type_id":6}
{"id":null,"anchorname":"DAMASCUS MIDDLE","address":"32101 GOVERNMENT ROAD","bldgnbr":"32101","predir":"N/A","streetname":"GOVERNMENT","streettype":"ROAD","suffdir":"N/A","city":"DAMASCUS","state_code":"VA","zip5":"24236","latitude":"36.6397409150000000","longitude":"-81.803940512000000","publicwifi":"U","url":"N/A","broadband_type_id":6}
{"id":null,"anchorname":"DEPARTMENT OF SOCIAL SERVICES","address":"18849 KINGS HIGHWAY","bldgnbr":"18849","predir":"N/A","streetname":"KINGS","streettype":"HIGHWAY","suffdir":"N/A","city":"MONTROSS","state_code":"VA","zip5":"22520","latitude":"38.0775720000000000","longitude":"-76.781706000000000","publicwifi":"U","url":"N/A","broadband_type_id":6}
{"id":null,"anchorname":"THE BRADLEY GARDENS","address":"980 West 7Th Street","bldgnbr":"980","predir":null,"streetname":"West 7Th","streettype":null,"suffdir":null,"city":"San Jacinto","state_code":"CA","zip5":"92582","latitude":"33.7801520000000000","longitude":"-116.97791400000000","publicwifi":"U","url":null,"broadband_type_id":null}
{"id":null,"anchorname":"San Jacinto Unified","address":"2045 South San Jacinto Avenue","bldgnbr":"2045","predir":null,"streetname":"South San Jacinto","streettype":null,"suffdir":null,"city":"San Jacinto","state_code":"CA","zip5":"92583","latitude":"33.7655560000000000","longitude":"-116.95869000000000","publicwifi":"U","url":"www.sanjacinto.k12.ca.us","broadband_type_id":null}
{"id":null,"anchorname":"Hoopa Valley High","address":"11400 State Highway 96","bldgnbr":"11400","predir":null,"streetname":"State Highway 96","streettype":null,"suffdir":null,"city":"Hoopa","state_code":"CA","zip5":"95546","latitude":"41.0489700000000000","longitude":"-123.67547000000000","publicwifi":"U","url":null,"broadband_type_id":6}
{"id":null,"anchorname":"Cawston Elementary","address":"4000 West Menlo Avenue","bldgnbr":"4000","predir":null,"streetname":"West Menlo","streettype":null,"suffdir":null,"city":"Hemet","state_code":"CA","zip5":"92545","latitude":"33.7582570000000000","longitude":"-117.01425000000000","publicwifi":"U","url":null,"broadband_type_id":6}
{"id":null,"anchorname":"Tahquitz High","address":"4425 Titan Trail","bldgnbr":"4425","predir":null,"streetname":"Titan Trail","streettype":null,"suffdir":null,"city":"Hemet","state_code":"CA","zip5":"92545","latitude":"33.7673010000000000","longitude":"-117.01759000000000","publicwifi":"U","url":null,"broadband_type_id":6}
{"id":null,"anchorname":"Fruitvale Elementary","address":"2800 West Fruitvale Avenue","bldgnbr":"2800","predir":null,"streetname":"West Fruitvale","streettype":null,"suffdir":null,"city":"Hemet","state_code":"CA","zip5":"92545","latitude":"33.7619560000000000","longitude":"-117.00182000000000","publicwifi":"U","url":null,"broadband_type_id":6}
{"id":null,"anchorname":"MFI Recovery Center Inc. Valley Wide Counciling Services","address":"1604 S. Santa Fe Ave., #403","bldgnbr":"1604","predir":null,"streetname":"S. Santa Fe","streettype":null,"suffdir":null,"city":"San Jacinto","state_code":"CA","zip5":"92583","latitude":"33.7710440000000000","longitude":"-116.96317600000000","publicwifi":"U","url":null,"broadband_type_id":6}
{"id":null,"anchorname":"Family Service Association of Western Riverside County(N. State St.)","address":"1075 N. State Street","bldgnbr":"1075","predir":null,"streetname":"N. State","streettype":null,"suffdir":null,"city":"Hemet","state_code":"CA","zip5":"92543","latitude":"33.7651010000000000","longitude":"-116.97248100000000","publicwifi":"U","url":null,"broadband_type_id":6}
{"id":null,"anchorname":"Alpha Omega Christian","address":"2363 South San Jacinto Street","bldgnbr":"2363","predir":null,"streetname":"South San Jacinto","streettype":null,"suffdir":null,"city":"San Jacinto","state_code":"CA","zip5":"92583","latitude":"33.7623879440000000","longitude":"-116.95875010500000","publicwifi":"U","url":null,"broadband_type_id":6}
{"id":null,"anchorname":"Hyatt Elementary","address":"400 East Shaver Street","bldgnbr":"400","predir":null,"streetname":"East Shaver","streettype":null,"suffdir":null,"city":"San Jacinto","state_code":"CA","zip5":"92583","latitude":"33.7777570000000000","longitude":"-116.95380000000000","publicwifi":"U","url":"www.sanjacinto.k12.ca.us","broadband_type_id":6}
{"id":null,"anchorname":"Estudillo Elementary","address":"900 Las Rosas Drive","bldgnbr":"900","predir":null,"streetname":"Las Rosas","streettype":null,"suffdir":null,"city":"San Jacinto","state_code":"CA","zip5":"92583","latitude":"33.7802810000000000","longitude":"-116.94191000000000","publicwifi":"U","url":"www.sanjacinto.k12.ca.us","broadband_type_id":6}
{"id":null,"anchorname":"North Mountain Middle","address":"1202 East Seventh Street","bldgnbr":"1202","predir":null,"streetname":"East Seventh","streettype":null,"suffdir":null,"city":"San Jacinto","state_code":"CA","zip5":"92583","latitude":"33.7803000000000000","longitude":"-116.93913000000000","publicwifi":"U","url":"www.sanjacinto.k12.ca.us","broadband_type_id":2}
{"id":null,"anchorname":"San Jacinto High","address":"500 Idyllwild Drive","bldgnbr":"500","predir":null,"streetname":"Idyllwild Drive","streettype":null,"suffdir":null,"city":"San Jacinto","state_code":"CA","zip5":"92583","latitude":"33.7940730000000000","longitude":"-116.96513000000000","publicwifi":"U","url":"www.sanjacinto.k12.ca.us","broadband_type_id":6}
{"id":null,"anchorname":"Beaumont Adult","address":"1575 Cherry Avenue","bldgnbr":"1575","predir":null,"streetname":"Cherry Avenue","streettype":null,"suffdir":null,"city":"Beaumont","state_code":"CA","zip5":"92223","latitude":"33.9533570000000000","longitude":"-116.96428600000000","publicwifi":"U","url":"www.beaumontadultschool.org","broadband_type_id":null}
{"id":null,"anchorname":"Monte Vista Middle","address":"181 North Ramona Boulevard","bldgnbr":"181","predir":null,"streetname":"North Ramona","streettype":null,"suffdir":null,"city":"San Jacinto","state_code":"CA","zip5":"92583","latitude":"33.7880380000000000","longitude":"-116.96383000000000","publicwifi":"U","url":"www.sanjacinto.k12.ca.us","broadband_type_id":6}
{"id":null,"anchorname":"SOBOBA INDIAN HEALTH CLINIC","address":"607 Donna Way","bldgnbr":"607","predir":null,"streetname":"Donna Way","streettype":null,"suffdir":null,"city":"San Jacinto","state_code":"CA","zip5":"93583","latitude":"33.7821900000000000","longitude":"-116.93736000000000","publicwifi":"U","url":null,"broadband_type_id":3}
{"id":null,"anchorname":"Soboba Indian Health Clinic (607 Donna Way)","address":"607 Donna Way","bldgnbr":"607","predir":null,"streetname":"Donna Way","streettype":null,"suffdir":null,"city":"San Jacinto","state_code":"CA","zip5":"92583","latitude":"33.7819460000000000","longitude":"-116.93669500000000","publicwifi":"U","url":null,"broadband_type_id":3}
{"id":null,"anchorname":"SAN JACINTO BRANCH LIBRARY","address":"500 IDYLLWILD DR.","bldgnbr":"500","predir":null,"streetname":"IDYLLWILD DR.","streettype":null,"suffdir":null,"city":"SAN JACINTO","state_code":"CA","zip5":"92583","latitude":"33.7941100000000000","longitude":"-116.96510600000000","publicwifi":"U","url":null,"broadband_type_id":6}
{"id":null,"anchorname":"VALLE VISTA LIBRARY","address":"25757 FAIRVIEW AVE.","bldgnbr":"25757","predir":null,"streetname":"FAIRVIEW AVE.","streettype":null,"suffdir":null,"city":"HEMET","state_code":"CA","zip5":"92544","latitude":"33.7476500000000000","longitude":"-116.89314200000000","publicwifi":"U","url":null,"broadband_type_id":6}
{"id":null,"anchorname":"CALIMESA LIBRARY","address":"974 Calimesa Blvd","bldgnbr":"974","predir":null,"streetname":"Calimesa Blvd","streettype":null,"suffdir":null,"city":"Calimesa","state_code":"CA","zip5":"92320","latitude":"34.0019470000000000","longitude":"-117.06136800000000","publicwifi":"U","url":null,"broadband_type_id":6}
{"id":null,"anchorname":"Cherry Valley Brethren School","address":"39205 Vineland Street","bldgnbr":"39205","predir":null,"streetname":"Vineland Street","streettype":null,"suffdir":null,"city":"Cherry Valley","state_code":"CA","zip5":"92223","latitude":"33.9723058330000000","longitude":"-116.97667834900000","publicwifi":"U","url":null,"broadband_type_id":6}
{"id":null,"anchorname":"Beaumont Cherry Val.Rec.\u0026Park Dist.-Cherry Val. Grange","address":"10478 Beaumont Avenue","bldgnbr":"10478","predir":null,"streetname":"Beaumont Avenue","streettype":null,"suffdir":null,"city":"Cherry Valley","state_code":"CA","zip5":"92223","latitude":"33.9690770000000000","longitude":"-116.97678400000000","publicwifi":"U","url":null,"broadband_type_id":2}
{"id":null,"anchorname":"BEAUMONT CARE CENTER","address":"1441 Michigan Ave","bldgnbr":"1441","predir":null,"streetname":"Michigan Ave","streettype":null,"suffdir":null,"city":"Beaumont","state_code":"CA","zip5":"92501","latitude":"33.9479200000000000","longitude":"-116.96907000000000","publicwifi":"U","url":null,"broadband_type_id":3}
{"id":null,"anchorname":"MIRAVILLA CARE CENTER","address":"9246 Avenida Miravilla","bldgnbr":"9246","predir":null,"streetname":"Avenida Miravilla","streettype":null,"suffdir":null,"city":"Cherry Valley","state_code":"CA","zip5":"92223","latitude":"33.9870100000000000","longitude":"-116.96027000000000","publicwifi":"U","url":null,"broadband_type_id":3}
{"id":null,"anchorname":"Childhelp, Inc.(14700 Manzanita Park Road)","address":"14700 Manzanita Park Road","bldgnbr":"14700","predir":null,"streetname":"Manzanita Park","streettype":null,"suffdir":null,"city":"Beaumont","state_code":"CA","zip5":"92223","latitude":"33.9095820000000000","longitude":"-116.97115500000000","publicwifi":"U","url":null,"broadband_type_id":2}
{"id":null,"anchorname":"San Jacinto Early Childhood Education Center","address":"257 Grand Army","bldgnbr":"257","predir":null,"streetname":"Grand Army","streettype":null,"suffdir":null,"city":"San Jacinto","state_code":"CA","zip5":"92583","latitude":"33.7876910000000000","longitude":"-116.96451000000000","publicwifi":"U","url":"www.sanjacinto.k12.ca.us","broadband_type_id":6}
{"id":null,"anchorname":"San Jacinto Elementary","address":"136  North Ramona Boulevard","bldgnbr":"136","predir":null,"streetname":"North Ramona","streettype":null,"suffdir":null,"city":"San Jacinto","state_code":"CA","zip5":"92583","latitude":"33.7877360000000000","longitude":"-116.96356000000000","publicwifi":"U","url":"www.sanjacinto.k12.ca.us","broadband_type_id":6}
{"id":null,"anchorname":"Valle Vista Elementary","address":"43900 Mayberry Avenue","bldgnbr":"43900","predir":null,"streetname":"Mayberry Avenue","streettype":null,"suffdir":null,"city":"Hemet","state_code":"CA","zip5":"92544","latitude":"33.7406220000000000","longitude":"-116.89506000000000","publicwifi":"U","url":null,"broadband_type_id":6}
{"id":null,"anchorname":"Bautista Creek Elementary","address":"441 Lake Street","bldgnbr":"441","predir":null,"streetname":"Lake Street","streettype":null,"suffdir":null,"city":"Hemet","state_code":"CA","zip5":"92544","latitude":"33.7535060000000000","longitude":"-116.91619000000000","publicwifi":"U","url":null,"broadband_type_id":6}
{"id":null,"anchorname":"Mesa Grande SDA Academy","address":"975 Fremont Street","bldgnbr":"975","predir":null,"streetname":"Fremont Street","streettype":null,"suffdir":null,"city":"Calimesa","state_code":"CA","zip5":"92320","latitude":"34.0032385640000000","longitude":"-117.02575654700000","publicwifi":"U","url":null,"broadband_type_id":6}
{"id":null,"anchorname":"Family Service Association of Western Riverside County(Calimesa, CA)","address":"908 Park Avenue","bldgnbr":"908","predir":null,"streetname":"Park Avenue","streettype":null,"suffdir":null,"city":"Calimesa","state_code":"CA","zip5":"92320","latitude":"34.0038320000000000","longitude":"-117.05842300000000","publicwifi":"U","url":null,"broadband_type_id":6}
{"id":null,"anchorname":"San Gorgonio Middle","address":"1591 Cherry Ave","bldgnbr":"1591","predir":null,"streetname":"Cherry Ave","streettype":null,"suffdir":null,"city":"Beaumont","state_code":"CA","zip5":"92223","latitude":"33.9499380000000000","longitude":"-116.96442000000000","publicwifi":"U","url":"www.beaumontusd.k12.ca.us/sang","broadband_type_id":6}
{"id":null,"anchorname":"Brookside Elementary","address":"38755 Brookside Avenue","bldgnbr":"38755","predir":null,"streetname":"Brookside Avenue","streettype":null,"suffdir":null,"city":"Beaumont","state_code":"CA","zip5":"92223","latitude":"33.9614350000000000","longitude":"-116.98612000000000","publicwifi":"U","url":"www.beaumontusd.k12.ca.us/brookside","broadband_type_id":6}
{"id":null,"anchorname":"Beaumont Senior High","address":"39139 Cherry Valley Blvd","bldgnbr":"39139","predir":null,"streetname":"Cherry Valley","streettype":null,"suffdir":null,"city":"Beaumont","state_code":"CA","zip5":"92223","latitude":"33.9687170000000000","longitude":"-116.97914000000000","publicwifi":"U","url":"www.beaumontusd.k12.ca.us/bhs","broadband_type_id":6}
{"id":null,"anchorname":"Northern Humboldt Union High","address":"2755 McKinleyville Avenue","bldgnbr":"2755","predir":null,"streetname":"McKinleyville Avenue","streettype":null,"suffdir":null,"city":"McKinleyville","state_code":"CA","zip5":"95519","latitude":"40.9530700000000000","longitude":"-124.11040000000000","publicwifi":"U","url":"www.nohum.k12.ca.us/nhuhsd/nhuhsd.htm","broadband_type_id":6}
{"id":null,"anchorname":"MINNICK EDUCATION CENTER - WISE","address":"515 HURRICANE ROAD","bldgnbr":"515","predir":"N/A","streetname":"HURRICANE","streettype":"ROAD","suffdir":"N/A","city":"WISE","state_code":"VA","zip5":"24293","latitude":"36.9791587380000000","longitude":"-82.569264131000000","publicwifi":"U","url":"N/A","broadband_type_id":6}
{"id":null,"anchorname":"MINNICK EDUCATION CENTER - WYTHEVILLE","address":"425 GRAYSON ROAD","bldgnbr":"425","predir":"N/A","streetname":"GRAYSON","streettype":"ROAD","suffdir":"N/A","city":"WYTHEVILLE","state_code":"VA","zip5":"24382","latitude":"36.9336050000000000","longitude":"-81.099854000000000","publicwifi":"U","url":"N/A","broadband_type_id":6}
{"id":null,"anchorname":"Cuddeback Union Elementary","address":"300 Wilder Road","bldgnbr":"300","predir":null,"streetname":"Wilder Road","streettype":null,"suffdir":null,"city":"Carlotta","state_code":"CA","zip5":"95528","latitude":"40.5366880000000000","longitude":"-124.04149000000000","publicwifi":"U","url":"www.humboldt.k12.ca.us/cuddeback_sd","broadband_type_id":6}
{"id":null,"anchorname":"MOUNT VERNON ELEMENTARY","address":"310 MOUNT VERNON DRIVE","bldgnbr":"310","predir":"N/A","streetname":"MOUNT VERNON","streettype":"DRIVE","suffdir":"N/A","city":"YORKTOWN","state_code":"VA","zip5":"23693","latitude":"37.1318484030000000","longitude":"-76.447321503000000","publicwifi":"U","url":"N/A","broadband_type_id":6}
{"id":null,"anchorname":"Norman G. Ambrosini Elementary","address":"3850 Rohnerville Road","bldgnbr":"3850","predir":null,"streetname":"Rohnerville Road","streettype":null,"suffdir":null,"city":"Fortuna","state_code":"CA","zip5":"95540","latitude":"40.5619000000000000","longitude":"-124.12699000000000","publicwifi":"U","url":null,"broadband_type_id":6}
{"id":null,"anchorname":"Family Service Association of Western Riverside County (Cabazon,CA)","address":"14580 Broadway Street","bldgnbr":"14580","predir":null,"streetname":"Broadway Street","streettype":null,"suffdir":null,"city":"Cabazon","state_code":"CA","zip5":"92230","latitude":"33.9097950000000000","longitude":"-116.78163100000000","publicwifi":"U","url":null,"broadband_type_id":6}
{"id":null,"anchorname":"Sundance Elementary","address":"1520 East Eighth Street","bldgnbr":"1520","predir":null,"streetname":"East Eighth","streettype":null,"suffdir":null,"city":"Beaumont","state_code":"CA","zip5":"92223","latitude":"33.9325970000000000","longitude":"-116.95367000000000","publicwifi":"U","url":"www.beaumontusd.k12.ca.us/sundance","broadband_type_id":6}
{"id":null,"anchorname":"RAI E 6TH STREET BEAUMONT","address":"1536 E 6Th St","bldgnbr":"1536","predir":null,"streetname":"E 6Th","streettype":null,"suffdir":null,"city":"Beaumont","state_code":"CA","zip5":"92223","latitude":"33.9294890000000000","longitude":"-116.95092800000000","publicwifi":"U","url":null,"broadband_type_id":null}
{"id":null,"anchorname":"Tournament Hills Elementary","address":"36611 Champions Drive","bldgnbr":"36611","predir":null,"streetname":"Champions Drive","streettype":null,"suffdir":null,"city":"Beaumont","state_code":"CA","zip5":"92223","latitude":"33.9534400000000000","longitude":"-117.02106000000000","publicwifi":"U","url":"www.beaumontusd.k12.ca.us/thills","broadband_type_id":6}
{"id":null,"anchorname":"Beaumont Unified","address":"350 West Brookside","bldgnbr":"350","predir":null,"streetname":"West Brookside","streettype":null,"suffdir":null,"city":"Beaumont","state_code":"CA","zip5":"92223","latitude":"33.9358900000000000","longitude":"-116.98800000000000","publicwifi":"U","url":"www.beaumontusd.k12.ca.us","broadband_type_id":null}
{"id":null,"anchorname":"Mesa View Middle","address":"800 Mustang Way","bldgnbr":"800","predir":null,"streetname":"Mustang Way","streettype":null,"suffdir":null,"city":"Calimesa","state_code":"CA","zip5":"92399","latitude":"33.9982890000000000","longitude":"-117.07029000000000","publicwifi":"U","url":"www.yucaipaschools.com","broadband_type_id":6}
{"id":null,"anchorname":"Glen View High","address":"905 Michigan Avenue","bldgnbr":"905","predir":null,"streetname":"Michigan Avenue","streettype":null,"suffdir":null,"city":"Beaumont","state_code":"CA","zip5":"92223","latitude":"33.9341560000000000","longitude":"-116.96895000000000","publicwifi":"U","url":"www.beaumontusd.k12.ca.us/glenview","broadband_type_id":6}
{"id":null,"anchorname":"Palm Elementary","address":"751 Palm Avenue","bldgnbr":"751","predir":null,"streetname":"Palm Avenue","streettype":null,"suffdir":null,"city":"Beaumont","state_code":"CA","zip5":"92223","latitude":"33.9318370000000000","longitude":"-116.97182000000000","publicwifi":"U","url":"www.beaumontusd.k12.ca.us/palm","broadband_type_id":6}
{"id":null,"anchorname":"Highland Academy","address":"715 Wellwood Avenue","bldgnbr":"715","predir":null,"streetname":"Wellwood Avenue","streettype":null,"suffdir":null,"city":"Beaumont","state_code":"CA","zip5":"92223","latitude":"33.9316030000000000","longitude":"-116.98283000000000","publicwifi":"U","url":null,"broadband_type_id":6}
{"id":null,"anchorname":"Banning PreK","address":"161 West Willams","bldgnbr":"161","predir":null,"streetname":"West Willams","streettype":null,"suffdir":null,"city":"Banning","state_code":"CA","zip5":"92220","latitude":"33.9271830000000000","longitude":"-116.87846000000000","publicwifi":"U","url":"www.banning.k12.ca.us","broadband_type_id":null}
{"id":null,"anchorname":"Banning Unified","address":"161 West Williams Street","bldgnbr":"161","predir":null,"streetname":"West Williams","streettype":null,"suffdir":null,"city":"Banning","state_code":"CA","zip5":"92220","latitude":"33.9272540000000000","longitude":"-116.87845000000000","publicwifi":"U","url":"www.banning.k12.ca.us","broadband_type_id":null}
{"id":null,"anchorname":"Hemmerling Elementary","address":"1928 West Nicolet Street","bldgnbr":"1928","predir":null,"streetname":"West Nicolet","streettype":null,"suffdir":null,"city":"Banning","state_code":"CA","zip5":"92220","latitude":"33.9288720000000000","longitude":"-116.89892000000000","publicwifi":"U","url":null,"broadband_type_id":6}
{"id":null,"anchorname":"Banning Adult","address":"1151 West Wilson Street","bldgnbr":"1151","predir":null,"streetname":"West Wilson","streettype":null,"suffdir":null,"city":"Banning","state_code":"CA","zip5":"92220","latitude":"33.9325600000000000","longitude":"-116.88892100000000","publicwifi":"U","url":null,"broadband_type_id":null}
{"id":null,"anchorname":"MFI Recovery Center Inc. Banning Outpatient Services","address":"2781 West Ramsey St., #1","bldgnbr":"2781","predir":null,"streetname":"West Ramsey","streettype":null,"suffdir":null,"city":"Banning","state_code":"CA","zip5":"92220","latitude":"33.9262020000000000","longitude":"-116.90679500000000","publicwifi":"U","url":null,"broadband_type_id":6}
{"id":null,"anchorname":"Central Elementary","address":"295 North San Gorgonio Avenue","bldgnbr":"295","predir":null,"streetname":"North San Gorgonio","streettype":null,"suffdir":null,"city":"Banning","state_code":"CA","zip5":"92220","latitude":"33.9283290000000000","longitude":"-116.87681000000000","publicwifi":"U","url":null,"broadband_type_id":6}
{"id":null,"anchorname":"Happy Faces Foster Family Agency","address":"50 N. First Street","bldgnbr":"50","predir":null,"streetname":"N. First","streettype":null,"suffdir":null,"city":"Banning","state_code":"CA","zip5":"92220","latitude":"33.9258540000000000","longitude":"-116.87749900000000","publicwifi":"U","url":null,"broadband_type_id":6}
{"id":null,"anchorname":"Banning Independent Study","address":"1151 West Wilson Street","bldgnbr":"1151","predir":null,"streetname":"West Wilson","streettype":null,"suffdir":null,"city":"Banning","state_code":"CA","zip5":"92220","latitude":"33.9325730000000000","longitude":"-116.88878000000000","publicwifi":"U","url":null,"broadband_type_id":6}
{"id":null,"anchorname":"Banning Science and Technology Center, Inc.(1151 W. Wilson Street)","address":"1151 W. Wilson Street","bldgnbr":"1151","predir":null,"streetname":"W. Wilson","streettype":null,"suffdir":null,"city":"Banning","state_code":"CA","zip5":"92220","latitude":"33.9325600000000000","longitude":"-116.88892100000000","publicwifi":"U","url":null,"broadband_type_id":1}
{"id":null,"anchorname":"BANNING DIALYSIS","address":"6090 W Ramsey St","bldgnbr":"6090","predir":null,"streetname":"W Ramsey","streettype":null,"suffdir":null,"city":"Banning","state_code":"CA","zip5":"92220","latitude":"33.9289630000000000","longitude":"-116.93830000000000","publicwifi":"U","url":null,"broadband_type_id":6}
{"id":null,"anchorname":"Susan B. Coombs Intermediate","address":"1151 West Wilson Street","bldgnbr":"1151","predir":null,"streetname":"West Wilson","streettype":null,"suffdir":null,"city":"Banning","state_code":"CA","zip5":"92220","latitude":"33.9326070000000000","longitude":"-116.88889000000000","publicwifi":"U","url":"www.banning.k12.ca.us","broadband_type_id":null}
{"id":null,"anchorname":"CABAZON LIBRARY","address":"50425 Carmen Ave","bldgnbr":"50425","predir":null,"streetname":"Carmen Ave","streettype":null,"suffdir":null,"city":"Cabazon","state_code":"CA","zip5":"92230","latitude":"33.9106500000000000","longitude":"-116.78173000000000","publicwifi":"U","url":null,"broadband_type_id":6}
{"id":null,"anchorname":"Morongo Indian Health Clinic(11555 1/2 Potrero Rd.)","address":"11555 1/2 Potrero Road","bldgnbr":"11555","predir":null,"streetname":"2-Jan Potrero","streettype":null,"suffdir":null,"city":"Banning","state_code":"CA","zip5":"92220","latitude":"33.9543220000000000","longitude":"-116.82898600000000","publicwifi":"U","url":null,"broadband_type_id":3}
{"id":null,"anchorname":"Morongo School","address":"12130 Santiago Road","bldgnbr":"12130","predir":null,"streetname":"Santiago Road","streettype":null,"suffdir":null,"city":"Banning","state_code":"CA","zip5":"92220","latitude":"33.9451058140000000","longitude":"-116.83140703700000","publicwifi":"U","url":null,"broadband_type_id":6}
{"id":null,"anchorname":"Beaumont-Cherry Valley Rec. \u0026 Parks Dist. (390 W. Oak)","address":"390 W. Oak Valley Parkway","bldgnbr":"390","predir":null,"streetname":"W. Oak Valley","streettype":null,"suffdir":null,"city":"Beaumont","state_code":"CA","zip5":"92223","latitude":"33.9469750000000000","longitude":"-116.98857600000000","publicwifi":"U","url":null,"broadband_type_id":2}
{"id":null,"anchorname":"BEAUMONT LIBRARY DISTRICT","address":"125 E. EIGHTH ST.","bldgnbr":"125","predir":null,"streetname":"E. EIGHTH","streettype":null,"suffdir":null,"city":"BEAUMONT","state_code":"CA","zip5":"92223","latitude":"33.9324420000000000","longitude":"-116.98100700000000","publicwifi":"U","url":null,"broadband_type_id":6}
{"id":null,"anchorname":"BANNING LIBRARY DISTRICT","address":"21 W. NICOLET ST.","bldgnbr":"21","predir":null,"streetname":"W. NICOLET","streettype":null,"suffdir":null,"city":"BANNING","state_code":"CA","zip5":"92220","latitude":"33.9288990000000000","longitude":"-116.87700000000000","publicwifi":"U","url":null,"broadband_type_id":6}
{"id":null,"anchorname":"Renu Hope Preschool","address":"771 West Williams","bldgnbr":"771","predir":null,"streetname":"West Williams","streettype":null,"suffdir":null,"city":"Banning","state_code":"CA","zip5":"92220","latitude":"33.9272770000000000","longitude":"-116.88520000000000","publicwifi":"U","url":null,"broadband_type_id":6}
{"id":null,"anchorname":"Calvary Christian School","address":"1325 Mountain Avenue","bldgnbr":"1325","predir":null,"streetname":"Mountain Avenue","streettype":null,"suffdir":null,"city":"Banning","state_code":"CA","zip5":"92220","latitude":"33.9373760570000000","longitude":"-116.92219427700000","publicwifi":"U","url":null,"broadband_type_id":6}
{"id":null,"anchorname":"Pass Christian School","address":"5297 West Wilson Street","bldgnbr":"5297","predir":null,"streetname":"West Wilson","streettype":null,"suffdir":null,"city":"Banning","state_code":"CA","zip5":"92220","latitude":"33.9330818010000000","longitude":"-116.93535902400000","publicwifi":"U","url":null,"broadband_type_id":6}
{"id":null,"anchorname":"BANNING HEALTHCARE","address":"3476 W Wilson St","bldgnbr":"3476","predir":null,"streetname":"W Wilson","streettype":null,"suffdir":null,"city":"Banning","state_code":"CA","zip5":"92220","latitude":"33.9323630000000000","longitude":"-116.91364800000000","publicwifi":"U","url":null,"broadband_type_id":3}
{"id":null,"anchorname":"SAN GORGONIO MEMORIAL HOSPITAL","address":"600 N Highland Springs Ave","bldgnbr":"600","predir":null,"streetname":"N Highland Springs","streettype":null,"suffdir":null,"city":"Banning","state_code":"CA","zip5":"92220","latitude":"33.9295000000000000","longitude":"-116.94678000000000","publicwifi":"U","url":null,"broadband_type_id":3}
{"id":null,"anchorname":"VISITING NURSE ASSN OF THE INLAND CO-BANNING-BRANCH","address":"264 N Highland Springs Ave","bldgnbr":"264","predir":null,"streetname":"N Highland Springs","streettype":null,"suffdir":null,"city":"Banning","state_code":"CA","zip5":"92220","latitude":"33.9305140000000000","longitude":"-116.94577500000000","publicwifi":"U","url":null,"broadband_type_id":3}
{"id":null,"anchorname":"CHERRY VALLEY HEALTHCARE","address":"5800 W Wilson St","bldgnbr":"5800","predir":null,"streetname":"W Wilson","streettype":null,"suffdir":null,"city":"Banning","state_code":"CA","zip5":"92220","latitude":"33.9325750000000000","longitude":"-116.94090200000000","publicwifi":"U","url":null,"broadband_type_id":3}
{"id":null,"anchorname":"New Horizon High","address":"1151 West Wilson Street","bldgnbr":"1151","predir":null,"streetname":"West Wilson","streettype":null,"suffdir":null,"city":"Banning","state_code":"CA","zip5":"92220","latitude":"33.9326070000000000","longitude":"-116.88889000000000","publicwifi":"U","url":null,"broadband_type_id":6}
{"id":null,"anchorname":"DEPARTMENT OF FORESTRY","address":"303 EAST TWENTY-NINETH STREET","bldgnbr":"303","predir":"EAST","streetname":"TWENTY-NINETH","streettype":"STREET","suffdir":"N/A","city":"BIG STONE GAP","state_code":"VA","zip5":"24219","latitude":"36.8797670000000000","longitude":"-82.741313000000000","publicwifi":"U","url":"N/A","broadband_type_id":2}
{"id":null,"anchorname":"Morris Elementary","address":"2395 McKinleyville Avenue","bldgnbr":"2395","predir":null,"streetname":"McKinleyville Avenue","streettype":null,"suffdir":null,"city":"McKinleyville","state_code":"CA","zip5":"95519","latitude":"40.9474060000000000","longitude":"-124.11056000000000","publicwifi":"U","url":"www.nohum.k12.ca.us/msd","broadband_type_id":6}
{"id":null,"anchorname":"Nicolet Middle","address":"101 East Nicolet Street","bldgnbr":"101","predir":null,"streetname":"East Nicolet","streettype":null,"suffdir":null,"city":"Banning","state_code":"CA","zip5":"92220","latitude":"33.9289780000000000","longitude":"-116.87564000000000","publicwifi":"U","url":null,"broadband_type_id":6}
{"id":null,"anchorname":"Cottonwood Elementary","address":"44260 Sage Road","bldgnbr":"44260","predir":null,"streetname":"Sage Road","streettype":null,"suffdir":null,"city":"Aguanga","state_code":"CA","zip5":"92536","latitude":"33.4824820000000000","longitude":"-116.91213000000000","publicwifi":"U","url":null,"broadband_type_id":6}
{"id":null,"anchorname":"Hamilton Elementary","address":"57550 Mitchell Road","bldgnbr":"57550","predir":null,"streetname":"Mitchell Road","streettype":null,"suffdir":null,"city":"Anza","state_code":"CA","zip5":"92539","latitude":"33.5698800000000000","longitude":"-116.65652000000000","publicwifi":"U","url":null,"broadband_type_id":6}
{"id":null,"anchorname":"Hamilton High","address":"57430 Mitchell Road","bldgnbr":"57430","predir":null,"streetname":"Mitchell Road","streettype":null,"suffdir":null,"city":"Anza","state_code":"CA","zip5":"92539","latitude":"33.5698820000000000","longitude":"-116.65862000000000","publicwifi":"U","url":null,"broadband_type_id":6}
{"id":null,"anchorname":"Della S. Lindley Elementary","address":"31-495 Robert Road","bldgnbr":"31-495","predir":null,"streetname":"Robert Road","streettype":null,"suffdir":null,"city":"Thousand Palms","state_code":"CA","zip5":"92276","latitude":"33.8201340000000000","longitude":"-116.39691000000000","publicwifi":"U","url":null,"broadband_type_id":6}
{"id":null,"anchorname":"Bella Vista Elementary","address":"65750 Avenida Jalisco","bldgnbr":"65750","predir":null,"streetname":"Avenida Jalisco","streettype":null,"suffdir":null,"city":"Desert Hot Springs","state_code":"CA","zip5":"92240","latitude":"33.9611240000000000","longitude":"-116.50167000000000","publicwifi":"U","url":"www.psusd.us","broadband_type_id":6}
{"id":null,"anchorname":"DESERT HOT SPRINGS","address":"11691 West Drive","bldgnbr":"11691","predir":null,"streetname":"West Drive","streettype":null,"suffdir":null,"city":"Desert Hot Springs","state_code":"CA","zip5":"92240","latitude":"33.9632300000000000","longitude":"-116.51012100000000","publicwifi":"U","url":null,"broadband_type_id":6}
{"id":null,"anchorname":"Idyllwild","address":"26700 State Highway 243","bldgnbr":"26700","predir":null,"streetname":"State Highway 243","streettype":null,"suffdir":null,"city":"Idyllwild","state_code":"CA","zip5":"92549","latitude":"33.7381760000000000","longitude":"-116.72127000000000","publicwifi":"U","url":null,"broadband_type_id":null}
{"id":null,"anchorname":"Desert Hot Springs High","address":"65850 Pierson Boulevard","bldgnbr":"65850","predir":null,"streetname":"Pierson Boulevard","streettype":null,"suffdir":null,"city":"Desert Hot Springs","state_code":"CA","zip5":"92240","latitude":"33.9615460000000000","longitude":"-116.51344000000000","publicwifi":"U","url":"www.psusd.us","broadband_type_id":6}
{"id":null,"anchorname":"Fleming-Heimark House","address":"30400 Desert Palm Drive","bldgnbr":"30400","predir":null,"streetname":"Desert Palm","streettype":null,"suffdir":null,"city":"Thousand Palms","state_code":"CA","zip5":"92276","latitude":"33.8279880000000000","longitude":"-116.38046100000000","publicwifi":"U","url":null,"broadband_type_id":null}
{"id":null,"anchorname":"Jack Surnow House","address":"13785 Via Real","bldgnbr":"13785","predir":null,"streetname":"Via Real","streettype":null,"suffdir":null,"city":"Desert Hot Springs","state_code":"CA","zip5":"92240","latitude":"33.9484020000000000","longitude":"-116.51253200000000","publicwifi":"U","url":null,"broadband_type_id":null}
{"id":null,"anchorname":"JACK SURNOW HOUSE","address":"13785 Via Real","bldgnbr":"13785","predir":null,"streetname":"Via Real","streettype":null,"suffdir":null,"city":"Desert Hot Springs","state_code":"CA","zip5":"92240","latitude":"33.9481590000000000","longitude":"-116.51225600000000","publicwifi":"U","url":null,"broadband_type_id":null}
{"id":null,"anchorname":"Melvyn Haber House","address":"12840 Cactus Drive","bldgnbr":"12840","predir":null,"streetname":"Cactus Drive","streettype":null,"suffdir":null,"city":"Desert Hot Springs","state_code":"CA","zip5":"92240","latitude":"33.9553270000000000","longitude":"-116.50539400000000","publicwifi":"U","url":null,"broadband_type_id":null}
{"id":null,"anchorname":"Adelstein House","address":"66145 Granada Street","bldgnbr":"66145","predir":null,"streetname":"Granada Street","streettype":null,"suffdir":null,"city":"Desert Hot Springs","state_code":"CA","zip5":"92240","latitude":"33.9547940000000000","longitude":"-116.50763400000000","publicwifi":"U","url":null,"broadband_type_id":null}
{"id":null,"anchorname":"Huckabee House","address":"11270 Verbena Ave.","bldgnbr":"11270","predir":null,"streetname":"Verbena Ave.","streettype":null,"suffdir":null,"city":"Palm Springs","state_code":"CA","zip5":"92240","latitude":"33.9665700000000000","longitude":"-116.49228900000000","publicwifi":"U","url":null,"broadband_type_id":null}
{"id":null,"anchorname":"The Helene Kalfuss House","address":"66811 Fourth Street","bldgnbr":"66811","predir":null,"streetname":"Fourth Street","streettype":null,"suffdir":null,"city":"Desert Hot Springs","state_code":"CA","zip5":"92240","latitude":"33.9652160000000000","longitude":"-116.49537200000000","publicwifi":"U","url":null,"broadband_type_id":null}
{"id":null,"anchorname":"Joel's House","address":"67440 Desert View Avenue","bldgnbr":"67440","predir":null,"streetname":"Desert View","streettype":null,"suffdir":null,"city":"Desert Hot Springs","state_code":"CA","zip5":"92240","latitude":"33.9577500000000000","longitude":"-116.48479100000000","publicwifi":"U","url":null,"broadband_type_id":null}
{"id":null,"anchorname":"Angel View Crippled Children's Foundation, Inc.","address":"12379 Miracle Hill Road","bldgnbr":"12379","predir":null,"streetname":"Miracle Hill","streettype":null,"suffdir":null,"city":"Desert Hot Springs","state_code":"CA","zip5":"92240","latitude":"33.9595110000000000","longitude":"-116.48444100000000","publicwifi":"U","url":null,"broadband_type_id":null}
{"id":null,"anchorname":"The John Furbee House","address":"66897 Cahuilla Ave.","bldgnbr":"66897","predir":null,"streetname":"Cahuilla Ave.","streettype":null,"suffdir":null,"city":"Desert Hot Springs","state_code":"CA","zip5":"92240","latitude":"33.9584380000000000","longitude":"-116.49406300000000","publicwifi":"U","url":null,"broadband_type_id":null}
{"id":null,"anchorname":"Family Service Association (11-777 West Dr)","address":"11777 West Dr","bldgnbr":"11777","predir":null,"streetname":"West Dr","streettype":null,"suffdir":null,"city":"Desert Hot Springs","state_code":"CA","zip5":"92240","latitude":"33.9625760000000000","longitude":"-116.51087800000000","publicwifi":"U","url":null,"broadband_type_id":6}
{"id":null,"anchorname":"Marian \u0026 Robert Kuster House","address":"66863 Flora Avenue","bldgnbr":"66863","predir":null,"streetname":"Flora Avenue","streettype":null,"suffdir":null,"city":"Desert Hot Springs","state_code":"CA","zip5":"92240","latitude":"33.9556820000000000","longitude":"-116.49523300000000","publicwifi":"U","url":null,"broadband_type_id":null}
{"id":null,"anchorname":"Friedman House","address":"66635 Granada Street","bldgnbr":"66635","predir":null,"streetname":"Granada Street","streettype":null,"suffdir":null,"city":"Desert Hot Springs","state_code":"CA","zip5":"92240","latitude":"33.9550660000000000","longitude":"-116.49868000000000","publicwifi":"U","url":null,"broadband_type_id":null}
{"id":null,"anchorname":"Betty \u0026 Martin Russell House","address":"66770 Hacienda Blvd.","bldgnbr":"66770","predir":null,"streetname":"Hacienda Blvd.","streettype":null,"suffdir":null,"city":"Desert Hot Springs","state_code":"CA","zip5":"92240","latitude":"33.9544490000000000","longitude":"-116.49637900000000","publicwifi":"U","url":null,"broadband_type_id":null}
{"id":null,"anchorname":"Marion Ashley House","address":"16620 Via Vista","bldgnbr":"16620","predir":null,"streetname":"Via Vista","streettype":null,"suffdir":null,"city":"Desert Hot Springs","state_code":"CA","zip5":"92240","latitude":"33.9278060000000000","longitude":"-116.49564300000000","publicwifi":"U","url":null,"broadband_type_id":null}
{"id":null,"anchorname":"Cabot Yerxa Elementary","address":"67067 Desert View","bldgnbr":"67067","predir":null,"streetname":"Desert View","streettype":null,"suffdir":null,"city":"Desert Hot Springs","state_code":"CA","zip5":"92240","latitude":"33.9577430000000000","longitude":"-116.49125000000000","publicwifi":"U","url":"www.psusd.us","broadband_type_id":6}
{"id":null,"anchorname":"Banning Headstart Preschool","address":"671 North Flordia Unit B","bldgnbr":"671","predir":null,"streetname":"North Flordia","streettype":null,"suffdir":null,"city":"Banning","state_code":"CA","zip5":"92220","latitude":"33.9321840000000000","longitude":"-116.87018000000000","publicwifi":"U","url":null,"broadband_type_id":6}
{"id":null,"anchorname":"San Gorgonio Childcare","address":"671 North Flordia","bldgnbr":"671","predir":null,"streetname":"North Flordia","streettype":null,"suffdir":null,"city":"Banning","state_code":"CA","zip5":"92220","latitude":"33.9321840000000000","longitude":"-116.87018000000000","publicwifi":"U","url":null,"broadband_type_id":3}
{"id":null,"anchorname":"Anza Valley Christian School","address":"39200 Rolling Hills Road","bldgnbr":"39200","predir":null,"streetname":"Rolling Hills","streettype":null,"suffdir":null,"city":"Anza","state_code":"CA","zip5":"92539","latitude":"33.5476801170000000","longitude":"-116.63964012000000","publicwifi":"U","url":null,"broadband_type_id":6}
{"id":null,"anchorname":"Anza Indian Health Clinic (39100 Contreras Rd.)","address":"39100 Contreras Rd., Suite C","bldgnbr":"39100","predir":null,"streetname":"Contreras Rd.","streettype":null,"suffdir":null,"city":"Anza","state_code":"CA","zip5":"92539","latitude":"33.5539350000000000","longitude":"-116.67410100000000","publicwifi":"U","url":null,"broadband_type_id":3}
{"id":null,"anchorname":"IDYLLWILD BRANCH LIBRARY","address":"54185 PINECREST RD.","bldgnbr":"54185","predir":null,"streetname":"PINECREST RD.","streettype":null,"suffdir":null,"city":"IDYLLWILD - FERN VAL","state_code":"CA","zip5":"92549","latitude":"33.7435100000000000","longitude":"-116.71241500000000","publicwifi":"U","url":null,"broadband_type_id":6}
{"id":null,"anchorname":"IDYLLWILD LIBRARY","address":"54401 Village Center Dr","bldgnbr":"54401","predir":null,"streetname":"Village Center","streettype":null,"suffdir":null,"city":"Idyllwild","state_code":"CA","zip5":"92549","latitude":"33.7435140000000000","longitude":"-116.71135300000000","publicwifi":"U","url":null,"broadband_type_id":6}
{"id":null,"anchorname":"THOUSAND PALMS LIBRARY","address":"31-189 ROBERT RD.","bldgnbr":"31-189","predir":null,"streetname":"ROBERT RD.","streettype":null,"suffdir":null,"city":"THOUSAND PALMS","state_code":"CA","zip5":"92276","latitude":"33.8225880000000000","longitude":"-116.39688200000000","publicwifi":"U","url":null,"broadband_type_id":6}
{"id":null,"anchorname":"DESERT HOT SPRINGS COMMUNITY HEALTH CENTER","address":"12520 Palm Dr","bldgnbr":"12520","predir":null,"streetname":"Palm Dr","streettype":null,"suffdir":null,"city":"Desert Hot Springs","state_code":"CA","zip5":"92240","latitude":"33.9573500000000000","longitude":"-116.50119500000000","publicwifi":"U","url":null,"broadband_type_id":3}
{"id":null,"anchorname":"Dove's Landing School","address":"75580 East Ramon Road","bldgnbr":"75580","predir":null,"streetname":"East Ramon","streettype":null,"suffdir":null,"city":"Thousand Palms","state_code":"CA","zip5":"92276","latitude":"33.8165931290000000","longitude":"-116.34440392700000","publicwifi":"U","url":null,"broadband_type_id":6}
{"id":null,"anchorname":"Two Bunch Palms Elementary","address":"14250 West Drive","bldgnbr":"14250","predir":null,"streetname":"West Drive","streettype":null,"suffdir":null,"city":"Desert Hot Springs","state_code":"CA","zip5":"92240","latitude":"33.9450400000000000","longitude":"-116.50996000000000","publicwifi":"U","url":null,"broadband_type_id":6}
{"id":null,"anchorname":"Desert Springs Middle","address":"66-755 Two Bunch Palms Trail","bldgnbr":"66-755","predir":null,"streetname":"Two Bunch Palms","streettype":null,"suffdir":null,"city":"Desert Hot Springs","state_code":"CA","zip5":"92240","latitude":"33.9468010000000000","longitude":"-116.49521000000000","publicwifi":"U","url":"www.psusd.us","broadband_type_id":6}
{"id":null,"anchorname":"Bubbling Wells Elementary","address":"67501 Camino Campanero","bldgnbr":"67501","predir":null,"streetname":"Camino Campanero","streettype":null,"suffdir":null,"city":"Desert Hot Springs","state_code":"CA","zip5":"92240","latitude":"33.9394230000000000","longitude":"-116.48570000000000","publicwifi":"U","url":"www.psusd.us","broadband_type_id":6}
{"id":null,"anchorname":"Painted Hills Middle","address":"9250 Sonora Drive","bldgnbr":"9250","predir":null,"streetname":"Sonora Drive","streettype":null,"suffdir":null,"city":"Desert Hot Springs","state_code":"CA","zip5":"92240","latitude":"33.9812000000000000","longitude":"-116.51793000000000","publicwifi":"U","url":"www.psusd.us","broadband_type_id":6}
{"id":null,"anchorname":"DEPARTMENT OF CORRECTIONS - CENTRAL ADMINISTRATION","address":"3703 DUNGANNON ROAD","bldgnbr":"3703","predir":"N/A","streetname":"DUNGANNON","streettype":"ROAD","suffdir":"N/A","city":"COEBURN","state_code":"VA","zip5":"24230","latitude":"36.9164430300000000","longitude":"-82.462525353000000","publicwifi":"U","url":"N/A","broadband_type_id":6}
{"id":null,"anchorname":"SCOTT MEMORIAL MIDDLE","address":"950 SOUTH SEVENTH STREET","bldgnbr":"950","predir":"SOUTH","streetname":"SEVENTH","streettype":"STREET","suffdir":"N/A","city":"WYTHEVILLE","state_code":"VA","zip5":"24382","latitude":"36.9452730240000000","longitude":"-81.070573295000000","publicwifi":"U","url":"N/A","broadband_type_id":6}
{"id":null,"anchorname":"Scotia Union Elementary","address":"417 Church Street","bldgnbr":"417","predir":null,"streetname":"Church Street","streettype":null,"suffdir":null,"city":"Scotia","state_code":"CA","zip5":"95565","latitude":"40.4834390000000000","longitude":"-124.10149000000000","publicwifi":"U","url":"www.humboldt.k12.ca.us/scotia_sd","broadband_type_id":6}
{"id":null,"anchorname":"EL MIRADOR SURGICAL CENTER","address":"1180 North Indian Canyon Drive","bldgnbr":"1180","predir":null,"streetname":"North Indian Canyon","streettype":null,"suffdir":null,"city":"Palm Springs","state_code":"CA","zip5":"92263","latitude":"33.8396130000000000","longitude":"-116.54555200000000","publicwifi":"U","url":null,"broadband_type_id":null}
{"id":null,"anchorname":"Julius Corsini Elementary","address":"68750 Hacienda Drive","bldgnbr":"68750","predir":null,"streetname":"Hacienda Drive","streettype":null,"suffdir":null,"city":"Desert Hot Springs","state_code":"CA","zip5":"92240","latitude":"33.9434890000000000","longitude":"-116.44873000000000","publicwifi":"U","url":"www.psusd.us","broadband_type_id":6}
{"id":null,"anchorname":"Katherine Finchy Elementary","address":"777 East Tachevah Drive","bldgnbr":"777","predir":null,"streetname":"East Tachevah","streettype":null,"suffdir":null,"city":"Palm Springs","state_code":"CA","zip5":"92262","latitude":"33.8375620000000000","longitude":"-116.53892000000000","publicwifi":"U","url":"www.psusd.us","broadband_type_id":6}
{"id":null,"anchorname":"Raymond Cree Middle","address":"1011 Vista Chino","bldgnbr":"1011","predir":null,"streetname":"Vista Chino","streettype":null,"suffdir":null,"city":"Palm Springs","state_code":"CA","zip5":"92262","latitude":"33.8447970000000000","longitude":"-116.53631000000000","publicwifi":"U","url":"www.psusd.us","broadband_type_id":6}
{"id":null,"anchorname":"DESERT AIDS PROJECT","address":"1695 N Sunrise Way","bldgnbr":"1695","predir":null,"streetname":"N Sunrise Way","streettype":null,"suffdir":null,"city":"Palm Springs","state_code":"CA","zip5":"92262","latitude":"33.8447800000000000","longitude":"-116.52826000000000","publicwifi":"U","url":null,"broadband_type_id":6}
{"id":null,"anchorname":"Marian James Transitional House","address":"1758 Scotia Lane","bldgnbr":"1758","predir":null,"streetname":"Scotia Lane","streettype":null,"suffdir":null,"city":"Palm Springs","state_code":"CA","zip5":"92262","latitude":"33.8451420000000000","longitude":"-116.51743300000000","publicwifi":"U","url":null,"broadband_type_id":6}
{"id":null,"anchorname":"William Demarest House","address":"3566 Eastgate Drive","bldgnbr":"3566","predir":null,"streetname":"Eastgate Drive","streettype":null,"suffdir":null,"city":"Palm Springs","state_code":"CA","zip5":"92262","latitude":"33.8620290000000000","longitude":"-116.55436500000000","publicwifi":"U","url":null,"broadband_type_id":6}
{"id":null,"anchorname":"PALM SPRINGS DIALYSIS","address":"1061 N Indian Canyon Dr","bldgnbr":"1061","predir":null,"streetname":"N Indian Canyon","streettype":null,"suffdir":null,"city":"Palm Springs","state_code":"CA","zip5":"92262","latitude":"33.8372010000000000","longitude":"-116.54638600000000","publicwifi":"U","url":null,"broadband_type_id":6}
{"id":null,"anchorname":"Ramon Alternative Center","address":"2248 East Ramon Rd","bldgnbr":"2248","predir":null,"streetname":"East Ramon","streettype":null,"suffdir":null,"city":"Palm Springs","state_code":"CA","zip5":"92264","latitude":"33.8164900000000000","longitude":"-116.52066000000000","publicwifi":"U","url":null,"broadband_type_id":null}
{"id":null,"anchorname":"Jewish Family Service of San Diego","address":"400 Farrell Drive Ste.","bldgnbr":"400","predir":null,"streetname":"Farrell Drive","streettype":null,"suffdir":null,"city":"Palm Springs","state_code":"CA","zip5":"92262","latitude":"33.8285590000000000","longitude":"-116.51824100000000","publicwifi":"U","url":null,"broadband_type_id":6}
{"id":null,"anchorname":"Palm Springs High","address":"2401 East Baristo Road","bldgnbr":"2401","predir":null,"streetname":"East Baristo","streettype":null,"suffdir":null,"city":"Palm Springs","state_code":"CA","zip5":"92262","latitude":"33.8194990000000000","longitude":"-116.51796000000000","publicwifi":"U","url":"www.psusd.us","broadband_type_id":6}
{"id":null,"anchorname":"St. Theresa","address":"455 South Compadre Road","bldgnbr":"455","predir":null,"streetname":"South Compadre","streettype":null,"suffdir":null,"city":"Palm Springs","state_code":"CA","zip5":"92262","latitude":"33.8172457930000000","longitude":"-116.51503580800000","publicwifi":"U","url":null,"broadband_type_id":6}
{"id":null,"anchorname":"Agua Caliente Elementary","address":"30-800 San Luis Rey Plaza","bldgnbr":"30-800","predir":null,"streetname":"San Luis Rey","streettype":null,"suffdir":null,"city":"Cathedral City","state_code":"CA","zip5":"92234","latitude":"33.8228820000000000","longitude":"-116.48834000000000","publicwifi":"U","url":"www.psusd.us","broadband_type_id":6}
{"id":null,"anchorname":"Cielo Vista Charter","address":"650 South Paseo Dorotea","bldgnbr":"650","predir":null,"streetname":"South Paseo Dorotea","streettype":null,"suffdir":null,"city":"Palm Springs","state_code":"CA","zip5":"92264","latitude":"33.8140130000000000","longitude":"-116.50171000000000","publicwifi":"U","url":"www.psusd.us","broadband_type_id":6}
{"id":null,"anchorname":"Cahuilla Elementary","address":"833 East Mesquite Avenue","bldgnbr":"833","predir":null,"streetname":"East Mesquite","streettype":null,"suffdir":null,"city":"Palm Springs","state_code":"CA","zip5":"92264","latitude":"33.8085930000000000","longitude":"-116.53829000000000","publicwifi":"U","url":"www.psusd.us","broadband_type_id":6}
{"id":null,"anchorname":"Cathedral City Elementary","address":"69300 Converse Road","bldgnbr":"69300","predir":null,"streetname":"Converse Road","streettype":null,"suffdir":null,"city":"Cathedral City","state_code":"CA","zip5":"92234","latitude":"33.7906220000000000","longitude":"-116.45434000000000","publicwifi":"U","url":null,"broadband_type_id":6}
{"id":null,"anchorname":"EMERITUS AT RANCHO MIRAGE","address":"72201 Country Club Dr","bldgnbr":"72201","predir":null,"streetname":"Country Club","streettype":null,"suffdir":null,"city":"Rancho Mirage","state_code":"CA","zip5":"92270","latitude":"33.7576630000000000","longitude":"-116.40567200000000","publicwifi":"U","url":null,"broadband_type_id":null}
{"id":null,"anchorname":"Nellie N. Coffman Middle","address":"34-603 Plumley Road","bldgnbr":"34-603","predir":null,"streetname":"Plumley Road","streettype":null,"suffdir":null,"city":"Cathedral City","state_code":"CA","zip5":"92234","latitude":"33.7953280000000000","longitude":"-116.44940000000000","publicwifi":"U","url":"www.psusd.us","broadband_type_id":6}
{"id":null,"anchorname":"BARBARA SINATRA CHILDREN'S CENTER AT EISENHOWER","address":"39000 Bob Hope Dr","bldgnbr":"39000","predir":null,"streetname":"Bob Hope","streettype":null,"suffdir":null,"city":"Rancho Mirage","state_code":"CA","zip5":"92270","latitude":"33.7685700000000000","longitude":"-116.40798000000000","publicwifi":"U","url":null,"broadband_type_id":6}
{"id":null,"anchorname":"BETTY FORD CENTER AT EISENHOWER, THE","address":"39000 Bob Hope Dr","bldgnbr":"39000","predir":null,"streetname":"Bob Hope","streettype":null,"suffdir":null,"city":"Rancho Mirage","state_code":"CA","zip5":"92270","latitude":"33.7685700000000000","longitude":"-116.40798000000000","publicwifi":"U","url":null,"broadband_type_id":6}
{"id":null,"anchorname":"CALIFORNIA NURSING AND REHABILITATION CENTER","address":"2299 N Indian Canyon Dr","bldgnbr":"2299","predir":null,"streetname":"N Indian Canyon","streettype":null,"suffdir":null,"city":"Palm Springs","state_code":"CA","zip5":"92262","latitude":"33.8502000000000000","longitude":"-116.54576400000000","publicwifi":"U","url":null,"broadband_type_id":3}
{"id":null,"anchorname":"SANROSE HOME HEALTH SERVICES, INC","address":"1080 N Indian Canyon Dr","bldgnbr":"1080","predir":null,"streetname":"N Indian Canyon","streettype":null,"suffdir":null,"city":"Palm Springs","state_code":"CA","zip5":"92262","latitude":"33.8373560000000000","longitude":"-116.54561800000000","publicwifi":"U","url":null,"broadband_type_id":3}
{"id":null,"anchorname":"NIGHTINGALE HOME HEALTHCARE","address":"1091 N Palm Canyon Dr","bldgnbr":"1091","predir":null,"streetname":"N Palm Canyon","streettype":null,"suffdir":null,"city":"Palm Springs","state_code":"CA","zip5":"92262","latitude":"33.8373990000000000","longitude":"-116.54684400000000","publicwifi":"U","url":null,"broadband_type_id":3}
{"id":null,"anchorname":"Palm Springs Art Museum","address":"101 Museum Drive","bldgnbr":"101","predir":null,"streetname":"Museum Drive","streettype":null,"suffdir":null,"city":"Palm Springs","state_code":"CA","zip5":"92262","latitude":"33.8244170000000000","longitude":"-116.55002000000000","publicwifi":"U","url":null,"broadband_type_id":1}
{"id":null,"anchorname":"A PLUS HOME HEALTH CARE","address":"1900 E Tahquitz Canyon Way","bldgnbr":"1900","predir":null,"streetname":"E Tahquitz Canyon Way","streettype":null,"suffdir":null,"city":"Palm Springs","state_code":"CA","zip5":"92262","latitude":"33.8234230000000000","longitude":"-116.52553100000000","publicwifi":"U","url":null,"broadband_type_id":3}
{"id":null,"anchorname":"PALM SPRINGS PUBLIC LIBRARY","address":"300 S. Sunrise Way","bldgnbr":"300","predir":null,"streetname":"S. Sunrise Way","streettype":null,"suffdir":null,"city":"Palm Springs","state_code":"CA","zip5":"92262","latitude":"33.8194950000000000","longitude":"-116.52821400000000","publicwifi":"U","url":null,"broadband_type_id":6}
{"id":null,"anchorname":"FAMILY HOSPICE CARE, LLC","address":"255 N El Cielo Rd","bldgnbr":"255","predir":null,"streetname":"N El Cielo","streettype":null,"suffdir":null,"city":"Palm Springs","state_code":"CA","zip5":"92262","latitude":"33.8256980000000000","longitude":"-116.51064700000000","publicwifi":"U","url":null,"broadband_type_id":3}
{"id":null,"anchorname":"PREMIER CARE CENTER FOR PALM SPRINGS","address":"2990 E Ramon Rd","bldgnbr":"2990","predir":null,"streetname":"E Ramon","streettype":null,"suffdir":null,"city":"Palm Springs","state_code":"CA","zip5":"92264","latitude":"33.8161370000000000","longitude":"-116.51311700000000","publicwifi":"U","url":null,"broadband_type_id":3}
{"id":null,"anchorname":"DESERT HOME HEALTH SERVICES, INC.","address":"558 S Pso Dorotea","bldgnbr":"558","predir":null,"streetname":"S Pso Dorotea","streettype":null,"suffdir":null,"city":"Palm Springs","state_code":"CA","zip5":"92264","latitude":"33.8151120000000000","longitude":"-116.50182700000000","publicwifi":"U","url":null,"broadband_type_id":3}
{"id":null,"anchorname":"Children's Discovery Museum of the Desert","address":"71701 Gerald Ford Drive","bldgnbr":"71701","predir":null,"streetname":"Gerald Ford","streettype":null,"suffdir":null,"city":"Rancho Mirage","state_code":"CA","zip5":"92270","latitude":"33.7860910000000000","longitude":"-116.41108700000000","publicwifi":"U","url":null,"broadband_type_id":1}
{"id":null,"anchorname":"EISENHOWER MEDICAL CENTER","address":"39000 Bob Hope Dr","bldgnbr":"39000","predir":null,"streetname":"Bob Hope","streettype":null,"suffdir":null,"city":"Rancho Mirage","state_code":"CA","zip5":"92270","latitude":"33.7685700000000000","longitude":"-116.40798000000000","publicwifi":"U","url":null,"broadband_type_id":3}
{"id":null,"anchorname":"KIDNEY INSTITUTE AT EISENHOWER MEDICAL CENTER","address":"39000 Bob Hope Dr","bldgnbr":"39000","predir":null,"streetname":"Bob Hope","streettype":null,"suffdir":null,"city":"Rancho Mirage","state_code":"CA","zip5":"92270","latitude":"33.7632630000000000","longitude":"-116.40793400000000","publicwifi":"U","url":null,"broadband_type_id":3}
{"id":null,"anchorname":"COUNTRY VILLA RANCHO MIRAGE HEALTHCARE CENTER","address":"39950 Vista Del Sol","bldgnbr":"39950","predir":null,"streetname":"Vista Del Sol","streettype":null,"suffdir":null,"city":"Rancho Mirage","state_code":"CA","zip5":"92270","latitude":"33.7587450000000000","longitude":"-116.39753400000000","publicwifi":"U","url":null,"broadband_type_id":3}
{"id":null,"anchorname":"Desert Adventist School","address":"74200 Country Club Drive","bldgnbr":"74200","predir":null,"streetname":"Country Club","streettype":null,"suffdir":null,"city":"Palm Desert","state_code":"CA","zip5":"92260","latitude":"33.7589462740000000","longitude":"-116.37096605400000","publicwifi":"U","url":null,"broadband_type_id":6}
{"id":null,"anchorname":"MANORCARE HEALTH SERVICES-PALM DESERT","address":"74350 Country Club Dr","bldgnbr":"74350","predir":null,"streetname":"Country Club","streettype":null,"suffdir":null,"city":"Palm Desert","state_code":"CA","zip5":"92260","latitude":"33.7581600000000000","longitude":"-116.36858000000000","publicwifi":"U","url":null,"broadband_type_id":3}
{"id":null,"anchorname":"The Weil Institute of Critical Care Medicine","address":"35100 Bob Hope Drive","bldgnbr":"35100","predir":null,"streetname":"Bob Hope","streettype":null,"suffdir":null,"city":"Rancho Mirage","state_code":"CA","zip5":"92270","latitude":"33.7934700000000000","longitude":"-116.40520800000000","publicwifi":"U","url":null,"broadband_type_id":3}
