{"id":null,"anchorname":"ARGONNE NATIONAL LABORATORY FIRE DEPARTMENT","address":"9700 S CASS AVE","bldgnbr":"9700","predir":"S","streetname":"CASS","streettype":"AVE","suffdir":null,"city":"ARGONNE","state_code":"IL","zip5":"60439","latitude":"41.7129580000000000","longitude":"-87.960589000000000","publicwifi":"U","url":null,"broadband_type_id":3}
{"id":null,"anchorname":"OAKWOOD SCHOOL","address":"1130 KIM PLACE","bldgnbr":"1130","predir":null,"streetname":"KIM","streettype":"PL","suffdir":null,"city":"LEMONT","state_code":"IL","zip5":"60439","latitude":"41.6928670000000000","longitude":"-88.014865000000000","publicwifi":"U","url":null,"broadband_type_id":6}
{"id":null,"anchorname":"ANNE M JEANS ELEM SCHOOL","address":"16W631 91ST ST","bldgnbr":"16","predir":"W","streetname":"631 91ST","streettype":"ST","suffdir":null,"city":"WILLOWBROOK","state_code":"IL","zip5":"60527","latitude":"41.7231300000000000","longitude":"-87.949383000000000","publicwifi":"U","url":null,"broadband_type_id":6}
{"id":null,"anchorname":"CHILDREN'S NETWORK OF SOUTHWEST FLORIDA","address":"2232 ALTAMONT AVE, FORT MYERS, FL 33901","bldgnbr":"2232","predir":null,"streetname":"ALTAMONT","streettype":"AVE","suffdir":null,"city":"FORT MYERS","state_code":"FL","zip5":"33901","latitude":"26.6359933800000000","longitude":"-81.875499660000000","publicwifi":"Y","url":"0","broadband_type_id":6}
{"id":null,"anchorname":"FLORIDA DEPARTMENT OF EDUCATION DIVISION OF VOCATIONAL REHABILITATION","address":"4150 FORD ST, FORT MYERS, FL 33916","bldgnbr":"4150","predir":null,"streetname":"FORD ST","streettype":"EXT","suffdir":null,"city":"FT MYERS","state_code":"FL","zip5":"33916","latitude":"26.6035403000000000","longitude":"-81.846454790000000","publicwifi":"Y","url":"0","broadband_type_id":6}
{"id":null,"anchorname":"MONTESSORI PEBBLES","address":"7516 S CASS AVE","bldgnbr":"7516","predir":"\u003cNull\u003e","streetname":"CASS AVE","streettype":null,"suffdir":null,"city":"DARIEN","state_code":"IL","zip5":"60561","latitude":"41.7509423100000000","longitude":"-87.973834942000000","publicwifi":"U","url":null,"broadband_type_id":6}
{"id":null,"anchorname":"LADSE LEARNING CENTER","address":"7302 CLARENDON HILLS RD","bldgnbr":"7302","predir":"\u003cNull\u003e","streetname":"CLARENDON HILLS RD","streettype":null,"suffdir":null,"city":"DARIEN","state_code":"IL","zip5":"60561","latitude":"41.7557430000000000","longitude":"-87.954632000000000","publicwifi":"U","url":null,"broadband_type_id":6}
{"id":null,"anchorname":"CHESTERBROOK ACADEMY","address":"4622 LACEY AVE","bldgnbr":"4622","predir":null,"streetname":"LACEY","streettype":"AVE","suffdir":null,"city":"LISLE","state_code":"IL","zip5":"60532","latitude":"41.8007861610000000","longitude":"-88.069994147000000","publicwifi":"U","url":null,"broadband_type_id":6}
{"id":null,"anchorname":"KINGSWOOD ACADEMY","address":"133 PLAINFIELD RD","bldgnbr":"133","predir":null,"streetname":"PLAINFIELD","streettype":"RD","suffdir":null,"city":"DARIEN","state_code":"IL","zip5":"60561","latitude":"41.7594984920000000","longitude":"-87.948049385000000","publicwifi":"U","url":null,"broadband_type_id":6}
{"id":null,"anchorname":"CA MONTESSORI CHILDRENS CENTER","address":"2400 CABOT DR","bldgnbr":"2400","predir":null,"streetname":"CABOT","streettype":"DR","suffdir":null,"city":"LISLE","state_code":"IL","zip5":"60532","latitude":"41.8108664260000000","longitude":"-88.100591826000000","publicwifi":"U","url":null,"broadband_type_id":6}
{"id":null,"anchorname":"AUTISM TRAINING CENTER AT GIANT STEPS ILLINOIS","address":"2500 CABOT DR","bldgnbr":"2500","predir":"\u003cNull\u003e","streetname":"CABOT DR","streettype":null,"suffdir":null,"city":"LISLE","state_code":"IL","zip5":"60532","latitude":"41.8098984540000000","longitude":"-88.101633792000000","publicwifi":"U","url":null,"broadband_type_id":6}
{"id":null,"anchorname":"BRIGHTON GARDENS-BURR RIDGE","address":"6801 HIGHGROVE BOULEVARD","bldgnbr":"6801","predir":null,"streetname":"HIGHGROVE","streettype":null,"suffdir":null,"city":"BURR RIDGE","state_code":"IL","zip5":"60527","latitude":"41.7655130000000000","longitude":"-87.929502000000000","publicwifi":"U","url":null,"broadband_type_id":null}
{"id":null,"anchorname":"ITT TECH. INST. - BURR RIDGE","address":"7040 HIGH GROVE BLVD","bldgnbr":"7040","predir":null,"streetname":"HIGH GROVE","streettype":"BLVD","suffdir":null,"city":"BURR RIDGE","state_code":"IL","zip5":"60527","latitude":"41.7614450000000000","longitude":"-87.932623000000000","publicwifi":"U","url":null,"broadband_type_id":null}
{"id":null,"anchorname":"CHATEAU NRSG \u0026 REHAB CENTER","address":"7050 MADISON ST","bldgnbr":"7050","predir":null,"streetname":"MADISON","streettype":null,"suffdir":null,"city":"WILLOWBROOK","state_code":"IL","zip5":"60527","latitude":"41.7602590000000000","longitude":"-87.935297000000000","publicwifi":"U","url":null,"broadband_type_id":null}
{"id":null,"anchorname":"SNOW VALLEY NRSG \u0026 REHAB CTR","address":"5000 LINCOLN AVENUE","bldgnbr":"5000","predir":null,"streetname":"LINCOLN","streettype":"AVE","suffdir":null,"city":"LISLE","state_code":"IL","zip5":"60532","latitude":"41.7945580000000000","longitude":"-88.076964000000000","publicwifi":"U","url":null,"broadband_type_id":null}
{"id":null,"anchorname":"CONCORD ELEM SCHOOL","address":"1019 CONCORD PLACE","bldgnbr":"1019","predir":null,"streetname":"CONCORD","streettype":"PL","suffdir":null,"city":"DARIEN","state_code":"IL","zip5":"60561","latitude":"41.7435030000000000","longitude":"-87.972017000000000","publicwifi":"U","url":null,"broadband_type_id":6}
{"id":null,"anchorname":"PRAIRIEVIEW ELEMENTARY SCHOOL","address":"699 PLAINFIELD RD","bldgnbr":"285","predir":null,"streetname":"MAYFLOWER","streettype":"LN","suffdir":null,"city":"DOWNERS GROVE","state_code":"IL","zip5":"60516","latitude":"41.7391180000000000","longitude":"-87.998230000000000","publicwifi":"U","url":null,"broadband_type_id":6}
{"id":null,"anchorname":"KINDERCARE LEARNING CENTER","address":"7906 S CASS AVE","bldgnbr":"7906","predir":"\u003cNull\u003e","streetname":"CASS AVE","streettype":null,"suffdir":null,"city":"DARIEN","state_code":"IL","zip5":"60561","latitude":"41.7442436370000000","longitude":"-87.973631848000000","publicwifi":"U","url":null,"broadband_type_id":3}
{"id":null,"anchorname":"CASS JR HIGH SCHOOL","address":"8502 BAILEY RD","bldgnbr":"8502","predir":null,"streetname":"BAILEY","streettype":"RD","suffdir":null,"city":"DARIEN","state_code":"IL","zip5":"60561","latitude":"41.7350260000000000","longitude":"-87.978064000000000","publicwifi":"U","url":null,"broadband_type_id":6}
{"id":null,"anchorname":"INDIAN PRAIRIE PUBLIC LIBRARY DISTRICT","address":"401 PLAINFIELD ROAD","bldgnbr":"401","predir":null,"streetname":"PLAINFIELD","streettype":"RD","suffdir":null,"city":"DARIEN","state_code":"IL","zip5":"60561","latitude":"41.7565440000000000","longitude":"-87.955859000000000","publicwifi":"Y","url":"http://www.indianprairielibrary.org/","broadband_type_id":6}
{"id":null,"anchorname":"DARIEN FIRE DEPARTMENT","address":"419 PLAINFIELD ROAD","bldgnbr":"419","predir":null,"streetname":"PLAINFIELD","streettype":"RD","suffdir":null,"city":"DARIEN","state_code":"IL","zip5":"60561","latitude":"41.7561940000000000","longitude":"-87.956729000000000","publicwifi":"U","url":null,"broadband_type_id":5}
{"id":null,"anchorname":"TRI-STATE FIRE PROTECTION DISTRICT","address":"419 PLAINFIELD RD","bldgnbr":"419","predir":null,"streetname":"PLAINFIELD","streettype":"RD","suffdir":null,"city":"DARIEN","state_code":"IL","zip5":"60561","latitude":"41.7561940000000000","longitude":"-87.956729000000000","publicwifi":"U","url":null,"broadband_type_id":5}
{"id":null,"anchorname":"GOWER WEST ELEM SCHOOL","address":"7650 CLARENDON HILLS RD","bldgnbr":"7650","predir":null,"streetname":"CLARENDON HILLS","streettype":null,"suffdir":null,"city":"WILLOWBROOK","state_code":"IL","zip5":"60527","latitude":"41.7492860000000000","longitude":"-87.954414000000000","publicwifi":"U","url":null,"broadband_type_id":6}
{"id":null,"anchorname":"HINSDALE SOUTH HIGH SCHOOL","address":"7401 CLARENDON HILLS RD","bldgnbr":"7401","predir":null,"streetname":"CLARENDON HILLS","streettype":null,"suffdir":null,"city":"DARIEN","state_code":"IL","zip5":"60561","latitude":"41.7549360000000000","longitude":"-87.954455000000000","publicwifi":"U","url":null,"broadband_type_id":6}
{"id":null,"anchorname":"ST MARK CHRISTIAN MONTESSORI PRESCHOOL","address":"4 NORMAN CT","bldgnbr":"4","predir":"\u003cNull\u003e","streetname":"NORMAN CT","streettype":null,"suffdir":null,"city":"BURR RIDGE","state_code":"IL","zip5":"60527","latitude":"41.7262769770000000","longitude":"-87.918954371000000","publicwifi":"U","url":null,"broadband_type_id":6}
{"id":null,"anchorname":"BURR RIDGE MIDDLE SCHOOL","address":"15W451 91ST ST","bldgnbr":"451","predir":"\u003cNull\u003e","streetname":"91ST","streettype":null,"suffdir":null,"city":"BURR RIDGE","state_code":"IL","zip5":"60527","latitude":"41.7235970000000000","longitude":"-87.925413000000000","publicwifi":"U","url":null,"broadband_type_id":6}
{"id":null,"anchorname":"PRAXAIR, INC.  LIBRARY","address":"7000 HIGH GROVE BOULEVARD","bldgnbr":"7000","predir":null,"streetname":"HIGH GROVE","streettype":"BLVD","suffdir":null,"city":"BURR RIDGE","state_code":"IL","zip5":"60527","latitude":"41.7623400000000000","longitude":"-87.931806000000000","publicwifi":"N","url":null,"broadband_type_id":6}
{"id":null,"anchorname":"WILLOWBROOK POLICE DEPARTMENT","address":"7760 S QUINCY St","bldgnbr":"7760","predir":"S","streetname":"QUINCY","streettype":"ST","suffdir":null,"city":"WILLOWBROOK","state_code":"IL","zip5":"60521","latitude":"41.7476800000000000","longitude":"-87.941284000000000","publicwifi":"U","url":null,"broadband_type_id":4}
{"id":null,"anchorname":"GOWER MIDDLE SCHOOL","address":"7941 SOUTH MADISON ST","bldgnbr":"7941","predir":"S","streetname":"MADISON","streettype":"ST","suffdir":null,"city":"BURR RIDGE","state_code":"IL","zip5":"60527","latitude":"41.7445390000000000","longitude":"-87.934699000000000","publicwifi":"U","url":null,"broadband_type_id":6}
{"id":null,"anchorname":"BURR RIDGE POLICE DEPARTMENT","address":"7660 SOUTH COUNTY LINE ROAD","bldgnbr":"7660","predir":"S","streetname":"COUNTY LINE","streettype":"RD","suffdir":null,"city":"BURR RIDGE","state_code":"IL","zip5":"60527","latitude":"41.7494290000000000","longitude":"-87.915557000000000","publicwifi":"U","url":null,"broadband_type_id":4}
{"id":null,"anchorname":"ILLINOIS STATE POLICE  NETWORK (LOC)","address":"2700 OGDEN AVENUE","bldgnbr":"2700","predir":null,"streetname":"OGDEN","streettype":"AVE","suffdir":null,"city":"DOWNERS GROVE","state_code":"IL","zip5":"60515","latitude":"41.8042630000000000","longitude":"-88.051579000000000","publicwifi":"U","url":null,"broadband_type_id":4}
{"id":null,"anchorname":"ILLINOIS STATE POLICE","address":"2700 OGDEN AVENUE","bldgnbr":"2700","predir":null,"streetname":"OGDEN","streettype":"AVE","suffdir":null,"city":"DOWNERS GROVE","state_code":"IL","zip5":"60515","latitude":"41.8042630000000000","longitude":"-88.051579000000000","publicwifi":"U","url":null,"broadband_type_id":4}
{"id":null,"anchorname":"HENRY PUFFER SCHOOL","address":"2220 HADDOW AVE","bldgnbr":"2220","predir":null,"streetname":"HADDOW","streettype":"AVE","suffdir":null,"city":"DOWNERS GROVE","state_code":"IL","zip5":"60515","latitude":"41.7978010000000000","longitude":"-88.038010000000000","publicwifi":"U","url":null,"broadband_type_id":6}
{"id":null,"anchorname":"LISLE LIBRARY DISTRICT","address":"777 FRONT ST","bldgnbr":"777","predir":null,"streetname":"FRONT","streettype":"ST","suffdir":null,"city":"LISLE","state_code":"IL","zip5":"60532","latitude":"41.7968360000000000","longitude":"-88.067371000000000","publicwifi":"Y","url":"http://www.lislelibrary.org/","broadband_type_id":6}
{"id":null,"anchorname":"SCHIESHER ELEM SCHOOL","address":"5205 KINGSTON AVE","bldgnbr":"5205","predir":null,"streetname":"KINGSTON","streettype":"AVE","suffdir":null,"city":"LISLE","state_code":"IL","zip5":"60532","latitude":"41.7910450000000000","longitude":"-88.067426000000000","publicwifi":"U","url":null,"broadband_type_id":6}
{"id":null,"anchorname":"ROSEHILL MONTESSORI SCHOOL","address":"1203 LISLE PL","bldgnbr":"1203","predir":null,"streetname":"LISLE","streettype":"PL","suffdir":null,"city":"LISLE","state_code":"IL","zip5":"60532","latitude":"41.7963265980000000","longitude":"-88.075785852000000","publicwifi":"U","url":null,"broadband_type_id":6}
{"id":null,"anchorname":"LISLE JR HIGH SCHOOL","address":"5207 CENTER AVE","bldgnbr":"5207","predir":null,"streetname":"CENTER","streettype":"AVE","suffdir":null,"city":"LISLE","state_code":"IL","zip5":"60532","latitude":"41.7911060000000000","longitude":"-88.071434000000000","publicwifi":"U","url":null,"broadband_type_id":6}
{"id":null,"anchorname":"LISLE-WOODRIDGE FIRE DISTRICT","address":"1005 SCHOOL ST","bldgnbr":"1005","predir":null,"streetname":"SCHOOL","streettype":"ST","suffdir":null,"city":"LISLE","state_code":"IL","zip5":"60532","latitude":"41.7996430000000000","longitude":"-88.073138000000000","publicwifi":"U","url":null,"broadband_type_id":5}
{"id":null,"anchorname":"LISLE POLICE DEPARTMENT","address":"5040 LINCOLN","bldgnbr":"5040","predir":null,"streetname":"LINCOLN","streettype":null,"suffdir":null,"city":"LISLE","state_code":"IL","zip5":"60532","latitude":"41.7944250000000000","longitude":"-88.076947000000000","publicwifi":"U","url":null,"broadband_type_id":4}
{"id":null,"anchorname":"LISLE HIGH SCHOOL","address":"1800 SHORT ST","bldgnbr":"1800","predir":null,"streetname":"SHORT","streettype":"ST","suffdir":null,"city":"LISLE","state_code":"IL","zip5":"60532","latitude":"41.7928510000000000","longitude":"-88.079092000000000","publicwifi":"U","url":null,"broadband_type_id":6}
{"id":null,"anchorname":"KINDERCARE LEARNING CENTERS","address":"1640 EISENHOWER LN","bldgnbr":"1640","predir":"\u003cNull\u003e","streetname":"EISENHOWER LN","streettype":null,"suffdir":null,"city":"LISLE","state_code":"IL","zip5":"60532","latitude":"41.7862510020000000","longitude":"-88.083697218000000","publicwifi":"U","url":null,"broadband_type_id":3}
{"id":null,"anchorname":"WESTBURY CARE CENTER","address":"1800 ROBIN LANE","bldgnbr":"1800","predir":null,"streetname":"ROBIN","streettype":"LN","suffdir":null,"city":"LISLE","state_code":"IL","zip5":"60532","latitude":"41.7884760000000000","longitude":"-88.087052000000000","publicwifi":"U","url":null,"broadband_type_id":3}
{"id":null,"anchorname":"TATE WOODS ELEM SCHOOL","address":"1736 MIDDLETON AVE","bldgnbr":"1736","predir":null,"streetname":"MIDDLETON","streettype":"AVE","suffdir":null,"city":"LISLE","state_code":"IL","zip5":"60532","latitude":"41.8046550000000000","longitude":"-88.085433000000000","publicwifi":"U","url":null,"broadband_type_id":6}
{"id":null,"anchorname":"SOUTH FLORIDA WATER MANAGMENT DISTRICT","address":"2301 MCGREGOR BLVD, FORT MYERS, FL 33901","bldgnbr":"2301","predir":null,"streetname":"MCGREGOR","streettype":"BLVD","suffdir":null,"city":"FT MYERS","state_code":"FL","zip5":"33901","latitude":"26.6354284000000000","longitude":"-81.878750820000000","publicwifi":"Y","url":"0","broadband_type_id":6}
{"id":null,"anchorname":"THE CHILDREN'S ACADEMY","address":"4045 NAPERVILLE RD","bldgnbr":"4045","predir":"\u003cNull\u003e","streetname":"NAPERVILLE RD","streettype":null,"suffdir":null,"city":"LISLE","state_code":"IL","zip5":"60532","latitude":"41.8141475270000000","longitude":"-88.114049174000000","publicwifi":"U","url":null,"broadband_type_id":6}
{"id":null,"anchorname":"EYE SPECIALISTS LASER \u0026 SURGERY CENTER INC","address":"12453 S CLEVELAND AVE, FORT MYERS, FL, 33907","bldgnbr":"12453","predir":"S","streetname":"CLEVELAND","streettype":"AVE","suffdir":"0","city":"FORT MYERS","state_code":"FL","zip5":"33907","latitude":"26.5617310000000000","longitude":"-81.871739000000000","publicwifi":"U","url":"0","broadband_type_id":6}
{"id":null,"anchorname":"TEACHER'S RETIREMENT SYSTEM","address":"4200 COMMERCE COURT  ST","bldgnbr":"4200","predir":null,"streetname":"COMMERCE COURT","streettype":"ST","suffdir":null,"city":"LISLE","state_code":"IL","zip5":"60532","latitude":"41.8077910000000000","longitude":"-88.107587000000000","publicwifi":"U","url":null,"broadband_type_id":null}
{"id":null,"anchorname":"GULF COAST AUDIOLOGY OF SOUTHWEST FLORIDA LLC","address":"8900 GLADIOLUS DR, FORT MYERS, FL, 33908","bldgnbr":"8900","predir":"0","streetname":"GLADIOLUS","streettype":"DR","suffdir":"0","city":"FORT MYERS","state_code":"FL","zip5":"33908","latitude":"26.5206490000000000","longitude":"-81.901833000000000","publicwifi":"U","url":"0","broadband_type_id":6}
{"id":null,"anchorname":"NEW DAY MONTESSORI","address":"25W007 75TH ST","bldgnbr":"7","predir":"\u003cNull\u003e","streetname":"75TH","streettype":null,"suffdir":null,"city":"NAPERVILLE","state_code":"IL","zip5":"60565","latitude":"41.7487827520000000","longitude":"-88.119497165000000","publicwifi":"U","url":null,"broadband_type_id":6}
{"id":null,"anchorname":"MONTESSORI MOPPET CENTRE INC","address":"25W530 75TH ST","bldgnbr":"N/A","predir":null,"streetname":"75TH","streettype":"ST","suffdir":null,"city":"NAPERVILLE","state_code":"IL","zip5":"60565","latitude":"41.7484184910000000","longitude":"-88.123382535000000","publicwifi":"U","url":null,"broadband_type_id":6}
{"id":null,"anchorname":"ALDEN ESTATES OF NAPERVILLE","address":"1525 SOUTH OXFORD LANE","bldgnbr":"1525","predir":"S","streetname":"OXFORD","streettype":"LN","suffdir":null,"city":"NAPERVILLE","state_code":"IL","zip5":"60565","latitude":"41.7436590000000000","longitude":"-88.123767000000000","publicwifi":"U","url":null,"broadband_type_id":6}
{"id":null,"anchorname":"PETER PAN EARLY LEARNING CENTER","address":"24W760 75TH ST","bldgnbr":"760","predir":"\u003cNull\u003e","streetname":"60 75TH ST","streettype":null,"suffdir":null,"city":"NAPERVILLE","state_code":"IL","zip5":"60565","latitude":"41.7489659780000000","longitude":"-88.100053722000000","publicwifi":"U","url":null,"broadband_type_id":6}
{"id":null,"anchorname":"SOUTHEAST ALTERNATIVE SCH","address":"6S331 CORNWALL RD","bldgnbr":"331","predir":"\u003cNull\u003e","streetname":"CORNWALL RD","streettype":null,"suffdir":null,"city":"NAPERVILLE","state_code":"IL","zip5":"60540","latitude":"41.7793860000000000","longitude":"-88.112182000000000","publicwifi":"U","url":null,"broadband_type_id":null}
{"id":null,"anchorname":"MONTESSORI OF WOODRIDGE","address":"6953 WOODRIDGE DR","bldgnbr":"6953","predir":null,"streetname":"WOODRIDGE","streettype":"DR","suffdir":null,"city":"WOODRIDGE","state_code":"IL","zip5":"60517","latitude":"41.7597330960000000","longitude":"-88.048805432000000","publicwifi":"U","url":null,"broadband_type_id":6}
{"id":null,"anchorname":"BENET ACADEMY","address":"2200 MAPLE AVE","bldgnbr":"2200","predir":"\u003cNull\u003e","streetname":"MAPLE","streettype":null,"suffdir":null,"city":"LISLE","state_code":"IL","zip5":"60532","latitude":"41.7820182020000000","longitude":"-88.094745359000000","publicwifi":"U","url":null,"broadband_type_id":6}
{"id":null,"anchorname":"ALL ABOUT CHILDREN","address":"1260 IROQUOIS AVE STE 400","bldgnbr":"1260","predir":"\u003cNull\u003e","streetname":"IROQUOIS AVE STE 400","streettype":null,"suffdir":null,"city":"NAPERVILLE","state_code":"IL","zip5":"60563","latitude":"41.7953273480000000","longitude":"-88.125150842000000","publicwifi":"U","url":null,"broadband_type_id":null}
{"id":null,"anchorname":"ANN REID EARLY CHILDHOOD CENTER","address":"1011 SOUTH NAPER BLVD","bldgnbr":"1011","predir":"\u003cNull\u003e","streetname":"SOUTH NAPER BLVD","streettype":null,"suffdir":null,"city":"NAPERVILLE","state_code":"IL","zip5":"60540","latitude":"41.7591000000000000","longitude":"-88.113120000000000","publicwifi":"U","url":null,"broadband_type_id":null}
{"id":null,"anchorname":"ILLINOIS STATE POLICE  NETWORK (LOC)","address":"4343 COMMERCE COURT","bldgnbr":"4343","predir":null,"streetname":"COMMERCE","streettype":"CT","suffdir":null,"city":"LISLE","state_code":"IL","zip5":"60532","latitude":"41.8069100000000000","longitude":"-88.107648000000000","publicwifi":"U","url":null,"broadband_type_id":4}
{"id":null,"anchorname":"STEEPLE RUN ELEM SCHOOL","address":"6S151 STEEPLE RUN DR","bldgnbr":"N/A","predir":null,"streetname":"STEEPLE RUN","streettype":"DR","suffdir":null,"city":"NAPERVILLE","state_code":"IL","zip5":"60540","latitude":"41.7820050000000000","longitude":"-88.105037000000000","publicwifi":"U","url":null,"broadband_type_id":6}
{"id":null,"anchorname":"NORTH CENTRAL COLLEGE","address":"30 N BRAINARD ST","bldgnbr":"30","predir":"N","streetname":"BRAINARD","streettype":"ST","suffdir":null,"city":"NAPERVILLE","state_code":"IL","zip5":"60540","latitude":"41.7749880000000000","longitude":"-88.143653000000000","publicwifi":"U","url":null,"broadband_type_id":6}
{"id":null,"anchorname":"ELLSWORTH ELEM SCHOOL","address":"145 NORTH SLEIGHT ST","bldgnbr":"145","predir":"N","streetname":"SLEIGHT","streettype":"ST","suffdir":null,"city":"NAPERVILLE","state_code":"IL","zip5":"60540","latitude":"41.7765480000000000","longitude":"-88.140870000000000","publicwifi":"U","url":null,"broadband_type_id":6}
{"id":null,"anchorname":"NORTH CENTRAL COLLEGE- OESTERLE LIBRARY","address":"320 EAST SCHOOL ST","bldgnbr":"320","predir":"E","streetname":"SCHOOL","streettype":"ST","suffdir":null,"city":"NAPERVILLE","state_code":"IL","zip5":"60540","latitude":"41.7774170000000000","longitude":"-88.143235000000000","publicwifi":"Y","url":"http://library.noctrl.edu/","broadband_type_id":6}
{"id":null,"anchorname":"SS PETER \u0026 PAUL SCHOOL","address":"201 E FRANKLIN AVE","bldgnbr":"201","predir":"\u003cNull\u003e","streetname":"FRANKLIN","streettype":null,"suffdir":null,"city":"NAPERVILLE","state_code":"IL","zip5":"60540","latitude":"41.7760042260000000","longitude":"-88.145690743000000","publicwifi":"U","url":null,"broadband_type_id":6}
{"id":null,"anchorname":"BEEBE ELEM SCHOOL","address":"110 EAST 11TH AVE","bldgnbr":"110","predir":"E","streetname":"11TH","streettype":"ST","suffdir":null,"city":"NAPERVILLE","state_code":"IL","zip5":"60563","latitude":"41.7880360000000000","longitude":"-88.146947000000000","publicwifi":"U","url":null,"broadband_type_id":6}
{"id":null,"anchorname":"BP AMERICA, INFORMATION RESOURCES LIBRARY","address":"150 WEST WARRENVILLE ROAD","bldgnbr":"150","predir":"W","streetname":"WARRENVILLE","streettype":"RD","suffdir":null,"city":"NAPERVILLE","state_code":"IL","zip5":"60563","latitude":"41.8107540000000000","longitude":"-88.145757000000000","publicwifi":"Y","url":null,"broadband_type_id":6}
{"id":null,"anchorname":"DEPAUL UNIVERSITY - MAPERVILLE LIBRARY","address":"150 WEST WARRENVILLE ROAD","bldgnbr":"150","predir":"W","streetname":"WARRENVILLE","streettype":"RD","suffdir":null,"city":"NAPERVILLE","state_code":"IL","zip5":"60563","latitude":"41.8107540000000000","longitude":"-88.145757000000000","publicwifi":"Y","url":"http://library.depaul.edu/About/locations.aspx","broadband_type_id":6}
{"id":null,"anchorname":"JEFFERSON JR HIGH SCHOOL","address":"1525 NORTH LOOMIS ST","bldgnbr":"1525","predir":"N","streetname":"LOOMIS","streettype":"ST","suffdir":null,"city":"NAPERVILLE","state_code":"IL","zip5":"60563","latitude":"41.7943760000000000","longitude":"-88.142418000000000","publicwifi":"U","url":null,"broadband_type_id":6}
{"id":null,"anchorname":"MADISON JR HIGH SCHOOL","address":"1000 RIVER OAK DR","bldgnbr":"1000","predir":null,"streetname":"RIVER OAK","streettype":"DR","suffdir":null,"city":"NAPERVILLE","state_code":"IL","zip5":"60565","latitude":"41.7359470000000000","longitude":"-88.112100000000000","publicwifi":"U","url":null,"broadband_type_id":6}
{"id":null,"anchorname":"NAPERVILLE PUBLIC LIBRARY - NAPER BLVD","address":"2035 SOUTH NAPER BOULEVARD","bldgnbr":"2035","predir":"S","streetname":"NAPER","streettype":"BLVD","suffdir":null,"city":"NAPERVILLE","state_code":"IL","zip5":"60565","latitude":"41.7304680000000000","longitude":"-88.117482000000000","publicwifi":"Y","url":"http://www.naperville-lib.org/","broadband_type_id":6}
{"id":null,"anchorname":"SCOTT ELEMENTARY SCHOOL","address":"500 WARWICK DR","bldgnbr":"500","predir":null,"streetname":"WARWICK","streettype":"DR","suffdir":null,"city":"NAPERVILLE","state_code":"IL","zip5":"60565","latitude":"41.7308160000000000","longitude":"-88.120233000000000","publicwifi":"U","url":null,"broadband_type_id":6}
{"id":null,"anchorname":"KINDERCARE LEARNING CENTER #935","address":"6420 COLLEGE RD","bldgnbr":"6420","predir":"\u003cNull\u003e","streetname":"COLLEGE RD","streettype":null,"suffdir":null,"city":"LISLE","state_code":"IL","zip5":"60532","latitude":"41.7617174000000000","longitude":"-88.102487052000000","publicwifi":"U","url":null,"broadband_type_id":3}
{"id":null,"anchorname":"BENEDICTINE UNIVERSITY LIBRARY- KINDLON HALL OF LEARNING","address":"5700 COLLEGE ROAD","bldgnbr":"5700","predir":null,"streetname":"COLLEGE","streettype":"RD","suffdir":null,"city":"LISLE","state_code":"IL","zip5":"60532","latitude":"41.7799920000000000","longitude":"-88.093301000000000","publicwifi":"Y","url":"http://www.ben.edu/library/","broadband_type_id":6}
{"id":null,"anchorname":"BENEDICTINE UNIVERSITY POLICE DEPARTMENT","address":"5700 COLLEGE","bldgnbr":"5700","predir":null,"streetname":"COLLEGE","streettype":null,"suffdir":null,"city":"LISLE","state_code":"IL","zip5":"60532","latitude":"41.7799920000000000","longitude":"-88.093301000000000","publicwifi":"U","url":null,"broadband_type_id":4}
{"id":null,"anchorname":"BENEDICTINE UNIVERSITY","address":"5700 COLLEGE RD","bldgnbr":"5700","predir":null,"streetname":"COLLEGE","streettype":"RD","suffdir":null,"city":"LISLE","state_code":"IL","zip5":"60532","latitude":"41.7799920000000000","longitude":"-88.093301000000000","publicwifi":"U","url":null,"broadband_type_id":6}
{"id":null,"anchorname":"LINCOLN JR HIGH SCHOOL","address":"1320 OLYMPUS DR","bldgnbr":"1320","predir":"S","streetname":"OLYMPUS","streettype":"DR","suffdir":null,"city":"NAPERVILLE","state_code":"IL","zip5":"60565","latitude":"41.7469890000000000","longitude":"-88.139390000000000","publicwifi":"U","url":null,"broadband_type_id":6}
{"id":null,"anchorname":"BETHANY LUTHERAN SCHOOL","address":"1550 MODAFF RD","bldgnbr":"1550","predir":"\u003cNull\u003e","streetname":"MODAFF","streettype":null,"suffdir":null,"city":"NAPERVILLE","state_code":"IL","zip5":"60565","latitude":"41.7436352710000000","longitude":"-88.147690813000000","publicwifi":"U","url":null,"broadband_type_id":6}
{"id":null,"anchorname":"PRAIRIE ELEM SCHOOL","address":"500 SOUTH CHARLES AVE","bldgnbr":"500","predir":"S","streetname":"CHARLES","streettype":"AVE","suffdir":null,"city":"NAPERVILLE","state_code":"IL","zip5":"60540","latitude":"41.7672450000000000","longitude":"-88.128544000000000","publicwifi":"U","url":null,"broadband_type_id":6}
{"id":null,"anchorname":"DUPAGE MONTESSORI SCHOOL - NAPERVILLE","address":"24W500 MAPLE AVE STE 219","bldgnbr":"500","predir":"\u003cNull\u003e","streetname":"MAPLE AVE STE 219","streettype":null,"suffdir":null,"city":"NAPERVILLE","state_code":"IL","zip5":"60540","latitude":"41.7633739210000000","longitude":"-88.147280822000000","publicwifi":"U","url":null,"broadband_type_id":6}
{"id":null,"anchorname":"HIGHLANDS ELEM SCHOOL","address":"525 SOUTH BRAINARD ST","bldgnbr":"525","predir":"S","streetname":"BRAINARD","streettype":"ST","suffdir":null,"city":"NAPERVILLE","state_code":"IL","zip5":"60540","latitude":"41.7674030000000000","longitude":"-88.142694000000000","publicwifi":"U","url":null,"broadband_type_id":6}
{"id":null,"anchorname":"RANCH VIEW ELEMENTARY SCHOOL","address":"1651 RANCHVIEW DR","bldgnbr":"1651","predir":null,"streetname":"RANCHVIEW","streettype":"DR","suffdir":null,"city":"NAPERVILLE","state_code":"IL","zip5":"60565","latitude":"41.7411110000000000","longitude":"-88.095851000000000","publicwifi":"U","url":null,"broadband_type_id":6}
{"id":null,"anchorname":"MEADOWVIEW ELEM SCHOOL","address":"2525 MITCHELL DR","bldgnbr":"2525","predir":null,"streetname":"MITCHELL","streettype":"DR","suffdir":null,"city":"WOODRIDGE","state_code":"IL","zip5":"60517","latitude":"41.7677860000000000","longitude":"-88.048244000000000","publicwifi":"U","url":null,"broadband_type_id":6}
{"id":null,"anchorname":"ALMOST HOME KIDS","address":"7S721 STATE ROUTE 53","bldgnbr":"7","predir":"S","streetname":"721 STATE ROUTE 53","streettype":null,"suffdir":null,"city":"NAPERVILLE","state_code":"IL","zip5":"60540","latitude":"41.7581740000000000","longitude":"-88.064655000000000","publicwifi":"N","url":null,"broadband_type_id":null}
{"id":null,"anchorname":"BAY PINES VAMC","address":"3033 WINKLER EXTENSION, FORT MYERS, FL, 33916","bldgnbr":"3033","predir":"0","streetname":"WINKLER","streettype":"EXTENSION","suffdir":"0","city":"FORT MYERS","state_code":"FL","zip5":"33916","latitude":"26.6046340000000000","longitude":"-81.849769000000000","publicwifi":"U","url":"0","broadband_type_id":6}
{"id":null,"anchorname":"ARISTA IMAGING OF FORT MYERS LLC","address":"12995 S CLEVELAND AVE, FORT MYERS, FL, 33907","bldgnbr":"12995","predir":"S","streetname":"CLEVELAND","streettype":"AVE","suffdir":"0","city":"FORT MYERS","state_code":"FL","zip5":"33907","latitude":"26.5536080000000000","longitude":"-81.871539000000000","publicwifi":"U","url":"0","broadband_type_id":6}
{"id":null,"anchorname":"GWENDOLYN BROOKS ELEMENTARY","address":"2700 STONEBRIDGE BLVD","bldgnbr":"2700","predir":null,"streetname":"STONEBRIDGE","streettype":"BLVD","suffdir":null,"city":"AURORA","state_code":"IL","zip5":"60502","latitude":"41.7887190000000000","longitude":"-88.250610000000000","publicwifi":"U","url":null,"broadband_type_id":6}
{"id":null,"anchorname":"ILLINOIS YOUTH CENTER-WARRENVILLE","address":"30 WEST 200 FERRY RD","bldgnbr":"N/A","predir":null,"streetname":"FERRY","streettype":"RD","suffdir":null,"city":"WARRENVILLE","state_code":"IL","zip5":"60555","latitude":"41.8114240000000000","longitude":"-88.210790000000000","publicwifi":"U","url":null,"broadband_type_id":6}
{"id":null,"anchorname":"F M ASIAN FOOD MART INC","address":"2001 75TH ST","bldgnbr":"2001","predir":null,"streetname":"75TH","streettype":"ST","suffdir":null,"city":"WOODRIDGE","state_code":"IL","zip5":"60559","latitude":"41.7505470000000000","longitude":"-88.031098000000000","publicwifi":"U","url":null,"broadband_type_id":null}
{"id":null,"anchorname":"NAPERVILLE CHRISTIAN ACADEMY","address":"1451 RAYMOND DR STE 200","bldgnbr":"1451","predir":"\u003cNull\u003e","streetname":"RAYMOND","streettype":null,"suffdir":null,"city":"NAPERVILLE","state_code":"IL","zip5":"60563","latitude":"41.7885730850000000","longitude":"-88.184821384000000","publicwifi":"U","url":null,"broadband_type_id":6}
{"id":null,"anchorname":"ST. PATRICK'S RESIDENCE","address":"1400 BROOKDALE ROAD","bldgnbr":"1400","predir":null,"streetname":"BROOKDALE","streettype":"RD","suffdir":null,"city":"NAPERVILLE","state_code":"IL","zip5":"60563","latitude":"41.7845960000000000","longitude":"-88.184409000000000","publicwifi":"U","url":null,"broadband_type_id":6}
{"id":null,"anchorname":"ILLINOIS EMERGENCY MANAGEMENT AGENCY","address":"4300 WINFIELD  ROAD","bldgnbr":"4300","predir":null,"streetname":"WINFIELD","streettype":"RD","suffdir":null,"city":"WARRENVILLE","state_code":"IL","zip5":"60555","latitude":"41.8096520000000000","longitude":"-88.167449000000000","publicwifi":"U","url":null,"broadband_type_id":6}
{"id":null,"anchorname":"ILLINOIS DEPT OF CORRECTIONS","address":"30W200 FERRY ROAD","bldgnbr":"N/A","predir":null,"streetname":"FERRY","streettype":"RD","suffdir":null,"city":"WARRENVILLE","state_code":"IL","zip5":"60555","latitude":"41.8071020000000000","longitude":"-88.181858000000000","publicwifi":"U","url":null,"broadband_type_id":6}
{"id":null,"anchorname":"COMMUNITY NSG \u0026 REHAB CENTER","address":"1136 NORTH MILL ST","bldgnbr":"1136","predir":"N","streetname":"MILL","streettype":null,"suffdir":null,"city":"NAPERVILLE","state_code":"IL","zip5":"60563","latitude":"41.7888490000000000","longitude":"-88.154454000000000","publicwifi":"U","url":null,"broadband_type_id":1}
{"id":null,"anchorname":"CREME DE LA CREME","address":"4625 WEAVER PKWY","bldgnbr":"4625","predir":null,"streetname":"WEAVER","streettype":"PKWY","suffdir":null,"city":"WARRENVILLE","state_code":"IL","zip5":"60555","latitude":"41.8030270190000000","longitude":"-88.159467515000000","publicwifi":"U","url":null,"broadband_type_id":null}
{"id":null,"anchorname":"MEADOWBROOK MANOR","address":"720 RAYMOND DRIVE","bldgnbr":"720","predir":null,"streetname":"RAYMOND","streettype":"DR","suffdir":null,"city":"NAPERVILLE","state_code":"IL","zip5":"60563","latitude":"41.7836780000000000","longitude":"-88.183102000000000","publicwifi":"U","url":null,"broadband_type_id":null}
{"id":null,"anchorname":"WOODRIDGE POLICE DEPARTMENT","address":"1 PLAZA DRIVE","bldgnbr":"1","predir":null,"streetname":"PLAZA","streettype":"DR","suffdir":null,"city":"WOODRIDGE","state_code":"IL","zip5":"60517","latitude":"41.7552700000000000","longitude":"-88.043319000000000","publicwifi":"U","url":null,"broadband_type_id":4}
{"id":null,"anchorname":"THOMAS JEFFERSON JR HIGH SCHOOL","address":"7200 JANES AVE","bldgnbr":"7200","predir":null,"streetname":"JANES","streettype":"AVE","suffdir":null,"city":"WOODRIDGE","state_code":"IL","zip5":"60517","latitude":"41.7550670000000000","longitude":"-88.040994000000000","publicwifi":"U","url":null,"broadband_type_id":6}
{"id":null,"anchorname":"WESTWOOD COLLEGE-DUPAGE","address":"7155 JANES AVENUE","bldgnbr":"7155","predir":null,"streetname":"JANES","streettype":"AVE","suffdir":null,"city":"WOODRIDGE","state_code":"IL","zip5":"60517","latitude":"41.7562930000000000","longitude":"-88.041002000000000","publicwifi":"U","url":null,"broadband_type_id":6}
{"id":null,"anchorname":"WILLIAM F MURPHY ELEM SCHOOL","address":"7700 LARCHWOOD LN","bldgnbr":"7700","predir":null,"streetname":"LARCHWOOD","streettype":"LN","suffdir":null,"city":"WOODRIDGE","state_code":"IL","zip5":"60517","latitude":"41.7474590000000000","longitude":"-88.042170000000000","publicwifi":"U","url":null,"broadband_type_id":6}
{"id":null,"anchorname":"EDGEWOOD ELEM SCHOOL","address":"7900 WOODRIDGE DR","bldgnbr":"7900","predir":null,"streetname":"WOODRIDGE","streettype":"DR","suffdir":null,"city":"WOODRIDGE","state_code":"IL","zip5":"60517","latitude":"41.7427850000000000","longitude":"-88.047538000000000","publicwifi":"U","url":null,"broadband_type_id":6}
{"id":null,"anchorname":"JOHN L SIPLEY ELEM SCHOOL","address":"2806 83RD ST","bldgnbr":"2806","predir":null,"streetname":"83RD","streettype":"ST","suffdir":null,"city":"WOODRIDGE","state_code":"IL","zip5":"60517","latitude":"41.7357540000000000","longitude":"-88.050255000000000","publicwifi":"U","url":null,"broadband_type_id":6}
{"id":null,"anchorname":"ILLINOIS STATE POLICE - NETWORK (LOC)","address":"5560 COLLEGE  ROAD","bldgnbr":"5560","predir":null,"streetname":"COLLEGE","streettype":"RD","suffdir":null,"city":"LISLE","state_code":"IL","zip5":"60532","latitude":"41.7599110000000000","longitude":"-88.103689000000000","publicwifi":"U","url":null,"broadband_type_id":4}
{"id":null,"anchorname":"MONTESSORI SCHOOL OF LISLE","address":"23W550 HOBSON RD","bldgnbr":"550","predir":"\u003cNull\u003e","streetname":"HOBSON","streettype":null,"suffdir":null,"city":"NAPERVILLE","state_code":"IL","zip5":"60540","latitude":"41.7584919470000000","longitude":"-88.075347932000000","publicwifi":"U","url":null,"broadband_type_id":6}
{"id":null,"anchorname":"WILLOW CREEK ELEM SCHOOL","address":"2901 JACKSON DR","bldgnbr":"2901","predir":null,"streetname":"JACKSON","streettype":"DR","suffdir":null,"city":"WOODRIDGE","state_code":"IL","zip5":"60517","latitude":"41.7743580000000000","longitude":"-88.054687000000000","publicwifi":"U","url":null,"broadband_type_id":6}
{"id":null,"anchorname":"GOODRICH ELEM SCHOOL","address":"3450 HOBSON RD","bldgnbr":"3450","predir":null,"streetname":"HOBSON","streettype":"RD","suffdir":null,"city":"WOODRIDGE","state_code":"IL","zip5":"60517","latitude":"41.7609040000000000","longitude":"-88.064997000000000","publicwifi":"U","url":null,"broadband_type_id":6}
{"id":null,"anchorname":"MILL STREET ELEM SCHOOL","address":"1300 NORTH MILL ST","bldgnbr":"1300","predir":"N","streetname":"MILL","streettype":"ST","suffdir":null,"city":"NAPERVILLE","state_code":"IL","zip5":"60563","latitude":"41.7912150000000000","longitude":"-88.154395000000000","publicwifi":"U","url":null,"broadband_type_id":6}
{"id":null,"anchorname":"NAPERVILLE NORTH HIGH SCHOOL","address":"899 NORTH MILL ST","bldgnbr":"899","predir":"N","streetname":"MILL","streettype":"ST","suffdir":null,"city":"NAPERVILLE","state_code":"IL","zip5":"60563","latitude":"41.7857930000000000","longitude":"-88.154630000000000","publicwifi":"U","url":null,"broadband_type_id":6}
{"id":null,"anchorname":"INDIAN PLAINS ALTERNATIVE SCHOOL","address":"1322 NORTH EOLA RD","bldgnbr":"1322","predir":"N","streetname":"EOLA","streettype":"RD","suffdir":null,"city":"AURORA","state_code":"IL","zip5":"60502","latitude":"41.7804400000000000","longitude":"-88.240962000000000","publicwifi":"U","url":null,"broadband_type_id":6}
{"id":null,"anchorname":"FRANCIS GRANGER MIDDLE SCHOOL","address":"2721 STONEBRIDGE BLVD","bldgnbr":"2721","predir":null,"streetname":"STONEBRIDGE","streettype":"BLVD","suffdir":null,"city":"AURORA","state_code":"IL","zip5":"60502","latitude":"41.7882540000000000","longitude":"-88.250061000000000","publicwifi":"U","url":null,"broadband_type_id":6}
{"id":null,"anchorname":"LONGWOOD ELEM SCHOOL","address":"30W240 BRUCE LN","bldgnbr":"240","predir":"\u003cNull\u003e","streetname":"BRUCE","streettype":null,"suffdir":null,"city":"NAPERVILLE","state_code":"IL","zip5":"60563","latitude":"41.7895370000000000","longitude":"-88.211509000000000","publicwifi":"U","url":null,"broadband_type_id":6}
{"id":null,"anchorname":"BROOKDALE ELEMENTARY SCHOOL","address":"1200 REDFIELD RD","bldgnbr":"1200","predir":null,"streetname":"REDFIELD","streettype":"RD","suffdir":null,"city":"NAPERVILLE","state_code":"IL","zip5":"60563","latitude":"41.7905310000000000","longitude":"-88.189195000000000","publicwifi":"U","url":null,"broadband_type_id":6}
{"id":null,"anchorname":"CAMELOT SCHOOLS LLC","address":"1220 BOND ST","bldgnbr":"1220","predir":"\u003cNull\u003e","streetname":"BOND","streettype":null,"suffdir":null,"city":"NAPERVILLE","state_code":"IL","zip5":"60563","latitude":"41.7840141700000000","longitude":"-88.203069642000000","publicwifi":"U","url":null,"broadband_type_id":6}
{"id":null,"anchorname":"THAYER J HILL MIDDLE SCHOOL","address":"1836 BROOKDALE RD","bldgnbr":"1836","predir":null,"streetname":"BROOKDALE","streettype":"RD","suffdir":null,"city":"NAPERVILLE","state_code":"IL","zip5":"60563","latitude":"41.7903940000000000","longitude":"-88.197867000000000","publicwifi":"U","url":null,"broadband_type_id":6}
{"id":null,"anchorname":"NORTHWESTERN COLLEGE- EDWARD G. SCHUMACHER MEMORIAL LIBRARY","address":"1809 A NORTH MILL ST","bldgnbr":"N/A","predir":"N","streetname":"MILL","streettype":"ST","suffdir":null,"city":"NAPERVILLE","state_code":"IL","zip5":"60563","latitude":"41.8068210000000000","longitude":"-88.157049000000000","publicwifi":"Y","url":"http://www.northwesterncollege.edu/library","broadband_type_id":6}
{"id":null,"anchorname":"BOWER ELEM SCHOOL","address":"4S241 RIVER RD","bldgnbr":"4S241","predir":"\u003cNull\u003e","streetname":"RIVER","streettype":null,"suffdir":null,"city":"WARRENVILLE","state_code":"IL","zip5":"60555","latitude":"41.8084600000000000","longitude":"-88.178075000000000","publicwifi":"U","url":null,"broadband_type_id":6}
{"id":null,"anchorname":"NICOR GAS CORPORATE LIBRARY","address":"1844 FERRY ROAD","bldgnbr":"1844","predir":null,"streetname":"FERRY","streettype":"RD","suffdir":null,"city":"NAPERVILLE","state_code":"IL","zip5":"60563","latitude":"41.8086770000000000","longitude":"-88.197909000000000","publicwifi":"N","url":null,"broadband_type_id":6}
{"id":null,"anchorname":"NALCO LIBRARY","address":"1601 WEST DIEHL ROAD","bldgnbr":"1601","predir":"W","streetname":"DIEHL","streettype":"RD","suffdir":null,"city":"NAPERVILLE","state_code":"IL","zip5":"60563","latitude":"41.7991700000000000","longitude":"-88.198972000000000","publicwifi":"N","url":null,"broadband_type_id":6}
{"id":null,"anchorname":"TABOR HILLS HEALTHCARE FACILITY, INC.","address":"1347 CRYSTAL AVENUE","bldgnbr":"1347","predir":null,"streetname":"CRYSTAL","streettype":"AVE","suffdir":null,"city":"NAPERVILLE","state_code":"IL","zip5":"60563","latitude":"41.7980550000000000","longitude":"-88.191864000000000","publicwifi":"U","url":null,"broadband_type_id":3}
{"id":null,"anchorname":"DUPAGE CHILDREN'S MUSEUM","address":"301 NORTH WASHINGTON","bldgnbr":"301","predir":"N","streetname":"WASHINGTON","streettype":null,"suffdir":null,"city":"NAPERVILLE","state_code":"IL","zip5":"60540","latitude":"41.7789310000000000","longitude":"-88.147627000000000","publicwifi":"U","url":null,"broadband_type_id":1}
{"id":null,"anchorname":"WASHINGTON JR HIGH SCHOOL","address":"201 NORTH WASHINGTON ST","bldgnbr":"201","predir":"N","streetname":"WASHINGTON","streettype":"ST","suffdir":null,"city":"NAPERVILLE","state_code":"IL","zip5":"60540","latitude":"41.7776390000000000","longitude":"-88.147697000000000","publicwifi":"U","url":null,"broadband_type_id":6}
{"id":null,"anchorname":"NAPER ELEM SCHOOL","address":"39 SOUTH EAGLE ST","bldgnbr":"39","predir":"S","streetname":"EAGLE","streettype":"ST","suffdir":null,"city":"NAPERVILLE","state_code":"IL","zip5":"60540","latitude":"41.7748330000000000","longitude":"-88.152913000000000","publicwifi":"U","url":null,"broadband_type_id":6}
{"id":null,"anchorname":"MEMORIAL ELEMENTARY SCHOOL","address":"509 EAST NEWTON ST","bldgnbr":"509","predir":"E","streetname":"NEWTON","streettype":"ST","suffdir":null,"city":"PARIS","state_code":"IL","zip5":"61944","latitude":"39.6046620000000000","longitude":"-87.688569000000000","publicwifi":"U","url":null,"broadband_type_id":6}
{"id":null,"anchorname":"SPECIALISTS IN UROLOGY SURGERY CENTER LLC","address":"4571 COLONIAL BLVD, FORT MYERS, FL, 33966","bldgnbr":"4571","predir":"0","streetname":"COLONIAL","streettype":"BLVD","suffdir":"0","city":"FORT MYERS","state_code":"FL","zip5":"33966","latitude":"26.6118710000000000","longitude":"-81.818504000000000","publicwifi":"U","url":"0","broadband_type_id":6}
{"id":null,"anchorname":"FLORIDA DEPARTMENT OF EDUCATION DIVISION OF VOCATIONAL REHABILITATION","address":"5288 SUMMERLIN COMMONS WAY, FORT MYERS, FL 33907","bldgnbr":"5288","predir":null,"streetname":"SUMMERLIN COMMONS","streettype":"WAY","suffdir":null,"city":"FORT MYERS","state_code":"FL","zip5":"33907","latitude":"26.5767817100000000","longitude":"-81.879666450000000","publicwifi":"Y","url":"0","broadband_type_id":6}
{"id":null,"anchorname":"PETER M GOMBERT ELEMENTARY SCH","address":"2707 RIDGE RD","bldgnbr":"2707","predir":null,"streetname":"RIDGE","streettype":"RD","suffdir":null,"city":"AURORA","state_code":"IL","zip5":"60504","latitude":"41.7310110000000000","longitude":"-88.249689000000000","publicwifi":"U","url":null,"broadband_type_id":6}
{"id":null,"anchorname":"MARY LOU COWLISHAW ELEMENTARY","address":"1212 SANCTUARY LN","bldgnbr":"1212","predir":null,"streetname":"SANCTUARY","streettype":"LN","suffdir":null,"city":"NAPERVILLE","state_code":"IL","zip5":"60540","latitude":"41.7521300000000000","longitude":"-88.194404000000000","publicwifi":"U","url":null,"broadband_type_id":6}
{"id":null,"anchorname":"ILLINOIS SECRETARY OF STATE","address":"931 WEST 75TH  ST","bldgnbr":"931","predir":"W","streetname":"75TH","streettype":"ST","suffdir":null,"city":"NAPERVILLE","state_code":"IL","zip5":"60565","latitude":"41.7477780000000000","longitude":"-88.163841000000000","publicwifi":"U","url":null,"broadband_type_id":6}
{"id":null,"anchorname":"ALL SAINTS CATHOLIC ACADEMY","address":"1155 AURORA AVE","bldgnbr":"1155","predir":null,"streetname":"AURORA","streettype":"AVE","suffdir":null,"city":"NAPERVILLE","state_code":"IL","zip5":"60540","latitude":"41.7674897770000000","longitude":"-88.168471268000000","publicwifi":"U","url":null,"broadband_type_id":6}
{"id":null,"anchorname":"DISCOVER MONTESSORI - LEARNING CENTER","address":"2151 SUDBURY ST","bldgnbr":"2151","predir":null,"streetname":"SUDBURY","streettype":"ST","suffdir":null,"city":"NAPERVILLE","state_code":"IL","zip5":"60564","latitude":"41.7269982660000000","longitude":"-88.199121565000000","publicwifi":"U","url":null,"broadband_type_id":6}
{"id":null,"anchorname":"KNOWLEDGE BEGINNINGS","address":"812 W 75TH ST","bldgnbr":"812","predir":"\u003cNull\u003e","streetname":"75TH ST","streettype":null,"suffdir":null,"city":"NAPERVILLE","state_code":"IL","zip5":"60565","latitude":"41.7476115380000000","longitude":"-88.161016902000000","publicwifi":"U","url":null,"broadband_type_id":null}
{"id":null,"anchorname":"IONA GLOS SPECIAL LIVING CTR","address":"50 SOUTH FAIRBANK ST","bldgnbr":"50","predir":"S","streetname":"FAIRBANK","streettype":null,"suffdir":null,"city":"ADDISON","state_code":"IL","zip5":"60101","latitude":"41.9271600000000000","longitude":"-88.018127000000000","publicwifi":"U","url":null,"broadband_type_id":null}
{"id":null,"anchorname":"ECUMENICAL ADULT CARE","address":"305 JACKSON AVE","bldgnbr":"305","predir":null,"streetname":"JACKSON","streettype":"AVE","suffdir":null,"city":"NAPERVILLE","state_code":"IL","zip5":"60538","latitude":"41.7720210000000000","longitude":"-88.153112000000000","publicwifi":"U","url":null,"broadband_type_id":3}
{"id":null,"anchorname":"NAPERVILLE PARK DISTRICT","address":"320 WEST JACKSON AVENUE","bldgnbr":"320","predir":"W","streetname":"JACKSON","streettype":"AVE","suffdir":null,"city":"NAPERVILLE","state_code":"IL","zip5":"60540","latitude":"41.7719820000000000","longitude":"-88.154691000000000","publicwifi":"U","url":null,"broadband_type_id":2}
{"id":null,"anchorname":"NANCY YOUNG ELEMENTARY SCHOOL","address":"800 ASBURY DR","bldgnbr":"800","predir":null,"streetname":"ASBURY","streettype":"DR","suffdir":null,"city":"AURORA","state_code":"IL","zip5":"60502","latitude":"41.7659040000000000","longitude":"-88.250366000000000","publicwifi":"U","url":null,"broadband_type_id":6}
{"id":null,"anchorname":"ALL ABOUT KIDS MONTESSORI SCHOOL","address":"485 N COMMONS DR","bldgnbr":"485","predir":null,"streetname":"COMMONS","streettype":"DR","suffdir":null,"city":"AURORA","state_code":"IL","zip5":"60504","latitude":"41.7650389520000000","longitude":"-88.219915228000000","publicwifi":"U","url":null,"broadband_type_id":6}
{"id":null,"anchorname":"ENGINEERING SYSTEMS, INC. LIBRARY","address":"3851 EXCHANGE AVENUE","bldgnbr":"3851","predir":null,"streetname":"EXCHANGE","streettype":"AVE","suffdir":null,"city":"AURORA","state_code":"IL","zip5":"60504","latitude":"41.7658820000000000","longitude":"-88.222587000000000","publicwifi":"N","url":"http://www.esi-website.com/","broadband_type_id":6}
{"id":null,"anchorname":"KINDERCARE LEARNING CENTER","address":"4335 MONTGOMERY RD","bldgnbr":"4335","predir":"\u003cNull\u003e","streetname":"MONTGOMERY RD","streettype":null,"suffdir":null,"city":"NAPERVILLE","state_code":"IL","zip5":"60564","latitude":"41.7324881380000000","longitude":"-88.207568719000000","publicwifi":"U","url":null,"broadband_type_id":3}
{"id":null,"anchorname":"CREATIVE WORLD SCHOOL","address":"701 SHORELINE DR","bldgnbr":"701","predir":"\u003cNull\u003e","streetname":"SHORELINE DR","streettype":null,"suffdir":null,"city":"AURORA","state_code":"IL","zip5":"60504","latitude":"41.7440690260000000","longitude":"-88.230095068000000","publicwifi":"U","url":null,"broadband_type_id":6}
{"id":null,"anchorname":"STILL MIDDLE SCHOOL","address":"787 MEADOWRIDGE DR","bldgnbr":"787","predir":null,"streetname":"MEADOWRIDGE","streettype":"DR","suffdir":null,"city":"AURORA","state_code":"IL","zip5":"60504","latitude":"41.7407590000000000","longitude":"-88.222582000000000","publicwifi":"U","url":null,"broadband_type_id":6}
{"id":null,"anchorname":"PRAIRIE CHILDREN PRESCHOOL","address":"780 SHORELINE DR","bldgnbr":"780","predir":null,"streetname":"SHORELINE","streettype":"DR","suffdir":null,"city":"AURORA","state_code":"IL","zip5":"60504","latitude":"41.7441470000000000","longitude":"-88.226155000000000","publicwifi":"U","url":null,"broadband_type_id":6}
{"id":null,"anchorname":"CALVARY CHRISTIAN SCHOOL","address":"9S200 STATE ROUTE 59","bldgnbr":"200","predir":"\u003cNull\u003e","streetname":"ROUTE 59","streettype":null,"suffdir":null,"city":"NAPERVILLE","state_code":"IL","zip5":"60564","latitude":"41.7362593590000000","longitude":"-88.206336717000000","publicwifi":"U","url":null,"broadband_type_id":6}
{"id":null,"anchorname":"KINDERCARE LEARNING CENTER","address":"745 LONG GROVE DR","bldgnbr":"745","predir":"\u003cNull\u003e","streetname":"LONG GROVE DR","streettype":null,"suffdir":null,"city":"AURORA","state_code":"IL","zip5":"60504","latitude":"41.7438047090000000","longitude":"-88.244459032000000","publicwifi":"U","url":null,"broadband_type_id":3}
{"id":null,"anchorname":"FISCHER MIDDLE SCHOOL","address":"1305 LONG GROVE DR","bldgnbr":"1305","predir":"\u003cNull\u003e","streetname":"LONG GROVE DR","streettype":null,"suffdir":null,"city":"AURORA","state_code":"IL","zip5":"60504","latitude":"41.7362970000000000","longitude":"-88.246210000000000","publicwifi":"U","url":null,"broadband_type_id":6}
{"id":null,"anchorname":"GEORGETOWN ELEMENTARY SCHOOL","address":"995 LONG GROVE DR","bldgnbr":"995","predir":null,"streetname":"LONG GROVE","streettype":"DR","suffdir":null,"city":"AURORA","state_code":"IL","zip5":"60504","latitude":"41.7371600000000000","longitude":"-88.239896000000000","publicwifi":"U","url":null,"broadband_type_id":6}
{"id":null,"anchorname":"MCCARTY ELEMENTARY SCHOOL","address":"3000 VILLAGE GREEN DR","bldgnbr":"3000","predir":null,"streetname":"VILLAGE GREEN","streettype":null,"suffdir":null,"city":"AURORA","state_code":"IL","zip5":"60504","latitude":"41.7472040000000000","longitude":"-88.246874000000000","publicwifi":"U","url":null,"broadband_type_id":6}
{"id":null,"anchorname":"KINDERCARE LEARNING CENTERS","address":"3044 WEBER DR","bldgnbr":"3044","predir":"\u003cNull\u003e","streetname":"WEBER DR","streettype":null,"suffdir":null,"city":"AURORA","state_code":"IL","zip5":"60502","latitude":"41.7633735310000000","longitude":"-88.239377962000000","publicwifi":"U","url":null,"broadband_type_id":3}
{"id":null,"anchorname":"REBA O STECK ELEMENTARY SCHOOL","address":"460 INVERNESS DR","bldgnbr":"460","predir":null,"streetname":"INVERNESS","streettype":"DR","suffdir":null,"city":"AURORA","state_code":"IL","zip5":"60504","latitude":"41.7476050000000000","longitude":"-88.256791000000000","publicwifi":"U","url":null,"broadband_type_id":6}
{"id":null,"anchorname":"AURORA PUBLIC LIBRARY - EOLA ROAD BRANCH LIBRARY","address":"555 SOUTH EOLA ROAD","bldgnbr":"555","predir":"S","streetname":"EOLA","streettype":"RD","suffdir":null,"city":"AURORA","state_code":"IL","zip5":"60504","latitude":"41.7458820000000000","longitude":"-88.247048000000000","publicwifi":"Y","url":"http://www.aurorapubliclibrary.org/","broadband_type_id":6}
{"id":null,"anchorname":"WAUBONSIE VALLEY HIGH SCHOOL","address":"2590 OGDEN AVE","bldgnbr":"2590","predir":null,"streetname":"OGDEN","streettype":"AVE","suffdir":null,"city":"AURORA","state_code":"IL","zip5":"60504","latitude":"41.7366990000000000","longitude":"-88.255601000000000","publicwifi":"U","url":null,"broadband_type_id":6}
{"id":null,"anchorname":"MAY WATTS ELEMENTARY SCHOOL","address":"800 SOUTH WHISPERING HILLS DR","bldgnbr":"800","predir":null,"streetname":"WHISPERING HILLS","streettype":null,"suffdir":null,"city":"NAPERVILLE","state_code":"IL","zip5":"60540","latitude":"41.7561850000000000","longitude":"-88.179300000000000","publicwifi":"U","url":null,"broadband_type_id":6}
{"id":null,"anchorname":"ILLINOIS STATE POLICE  NETWORK (LOC)","address":"1350 AURORA AVENUE","bldgnbr":"1350","predir":null,"streetname":"AURORA","streettype":"AVE","suffdir":null,"city":"NAPERVILLE","state_code":"IL","zip5":"60540","latitude":"41.7661020000000000","longitude":"-88.178048000000000","publicwifi":"U","url":null,"broadband_type_id":4}
{"id":null,"anchorname":"NAPERVILLE FIRE DEPARTMENT","address":"1380 AURORA AVENUE","bldgnbr":"1380","predir":null,"streetname":"AURORA","streettype":"AVE","suffdir":null,"city":"NAPERVILLE","state_code":"IL","zip5":"60540","latitude":"41.7657490000000000","longitude":"-88.180222000000000","publicwifi":"U","url":null,"broadband_type_id":5}
{"id":null,"anchorname":"NAPERVILLE POLICE DEPARTMENT","address":"1350 AURORA AVENUE","bldgnbr":"1350","predir":null,"streetname":"AURORA","streettype":"AVE","suffdir":null,"city":"NAPERVILLE","state_code":"IL","zip5":"60540","latitude":"41.7661020000000000","longitude":"-88.178048000000000","publicwifi":"U","url":null,"broadband_type_id":4}
{"id":null,"anchorname":"NAPERVILLE POLICE DEPARTMENT","address":"1350 AURORA","bldgnbr":"1350","predir":null,"streetname":"AURORA","streettype":null,"suffdir":null,"city":"NAPERVILLE","state_code":"IL","zip5":"60540","latitude":"41.7661020000000000","longitude":"-88.178048000000000","publicwifi":"U","url":null,"broadband_type_id":4}
{"id":null,"anchorname":"CHESTERBROOK ACADEMY ELEMENTARY SCHOOL","address":"1571 OSWEGO RD","bldgnbr":"1571","predir":null,"streetname":"OSWEGO","streettype":"RD","suffdir":null,"city":"NAPERVILLE","state_code":"IL","zip5":"60540","latitude":"41.7605640370000000","longitude":"-88.183182412000000","publicwifi":"U","url":null,"broadband_type_id":6}
{"id":null,"anchorname":"KENSINGTON SCHOOL OF NAPERVILLE","address":"1915 THREE FARMS AVE","bldgnbr":"1915","predir":"\u003cNull\u003e","streetname":"THREE FARMS AVE","streettype":null,"suffdir":null,"city":"NAPERVILLE","state_code":"IL","zip5":"60540","latitude":"41.7494925420000000","longitude":"-88.186587179000000","publicwifi":"U","url":null,"broadband_type_id":6}
{"id":null,"anchorname":"ELMWOOD ELEM SCHOOL","address":"1024 MAGNOLIA LN","bldgnbr":"1024","predir":null,"streetname":"MAGNOLIA","streettype":"LN","suffdir":null,"city":"NAPERVILLE","state_code":"IL","zip5":"60540","latitude":"41.7544720000000000","longitude":"-88.148562000000000","publicwifi":"U","url":null,"broadband_type_id":6}
{"id":null,"anchorname":"ST RAPHAEL ELEMENTARY SCHOOL","address":"1215 MODAFF RD","bldgnbr":"1215","predir":"\u003cNull\u003e","streetname":"MODAFF","streettype":null,"suffdir":null,"city":"NAPERVILLE","state_code":"IL","zip5":"60540","latitude":"41.7505562950000000","longitude":"-88.147704445000000","publicwifi":"U","url":null,"broadband_type_id":6}
{"id":null,"anchorname":"OWEN ELEMENTARY SCHOOL","address":"1560 WESTGLEN DR","bldgnbr":"1560","predir":null,"streetname":"WESTGLEN","streettype":"DR","suffdir":null,"city":"NAPERVILLE","state_code":"IL","zip5":"60565","latitude":"41.7416210000000000","longitude":"-88.153519000000000","publicwifi":"U","url":null,"broadband_type_id":6}
{"id":null,"anchorname":"ADDISON FIRE DEPARTMENT","address":"10 SOUTH ADDISON ROAD","bldgnbr":"10","predir":"S","streetname":"ADDISON","streettype":"RD","suffdir":null,"city":"ADDISON","state_code":"IL","zip5":"60101","latitude":"41.9268600000000000","longitude":"-87.988717000000000","publicwifi":"U","url":null,"broadband_type_id":5}
{"id":null,"anchorname":"LAKE PARK ELEM SCHOOL","address":"330 WEST LAKE PARK DR","bldgnbr":"330","predir":"W","streetname":"LAKE PARK","streettype":"DR","suffdir":null,"city":"ADDISON","state_code":"IL","zip5":"60101","latitude":"41.9226010000000000","longitude":"-87.997911000000000","publicwifi":"U","url":"HTTP://WWW.ASD4.ORG/","broadband_type_id":6}
{"id":null,"anchorname":"PLEASANT MEADOWS CHR VILLAGE","address":"400 W WASHINGTON","bldgnbr":"400","predir":"W","streetname":"WASHINGTON","streettype":null,"suffdir":null,"city":"CHRISMAN","state_code":"IL","zip5":"61924","latitude":"39.8072600000000000","longitude":"-87.681924000000000","publicwifi":"U","url":null,"broadband_type_id":1}
{"id":null,"anchorname":"ILLINOIS DEPT OF HUMAN SERVICES","address":"11773 ILLINOIS #1 HWY","bldgnbr":"11773","predir":null,"streetname":"IL HIGHWAY 1","streettype":null,"suffdir":null,"city":"PARIS","state_code":"IL","zip5":"61944","latitude":"39.6414790000000000","longitude":"-87.691589000000000","publicwifi":"U","url":null,"broadband_type_id":6}
{"id":null,"anchorname":"HIGHVIEW TERRACE","address":"409 NORTH HIGH ST","bldgnbr":"409","predir":"N","streetname":"HIGH","streettype":null,"suffdir":null,"city":"PARIS","state_code":"IL","zip5":"61944","latitude":"39.6150350000000000","longitude":"-87.684644000000000","publicwifi":"U","url":null,"broadband_type_id":6}
{"id":null,"anchorname":"ILLINOIS DEPT OF TRANSPORTATION","address":"13473 IL HWY 133","bldgnbr":"13473","predir":null,"streetname":"IL HIGHWAY 133","streettype":null,"suffdir":null,"city":"PARIS","state_code":"IL","zip5":"61944","latitude":"39.6028560000000000","longitude":"-87.712839000000000","publicwifi":"U","url":null,"broadband_type_id":6}
{"id":null,"anchorname":"ILLINOIS SECRETARY OF STATE","address":"714 GRANDVIEW","bldgnbr":"714","predir":null,"streetname":"GRANDVIEW","streettype":null,"suffdir":null,"city":"PARIS","state_code":"IL","zip5":"61944","latitude":"39.6048670000000000","longitude":"-87.707580000000000","publicwifi":"U","url":null,"broadband_type_id":6}
{"id":null,"anchorname":"PARIS BRIDGES","address":"203 NORTH CENTRAL AVE","bldgnbr":"203","predir":"\u003cNull\u003e","streetname":"NORTH CENTRAL AVE","streettype":null,"suffdir":null,"city":"PARIS","state_code":"IL","zip5":"61944","latitude":"39.6123220000000000","longitude":"-87.696357000000000","publicwifi":"U","url":null,"broadband_type_id":6}
{"id":null,"anchorname":"CITY OF BELLE PLAINE","address":"1207 8TH AVENUE BELLE PLAINE, IA 52208","bldgnbr":"1207","predir":null,"streetname":"8TH AVENUE","streettype":null,"suffdir":null,"city":"BELLE PLAINE","state_code":"IA","zip5":"52208","latitude":"41.8963520000000000","longitude":"-92.276590000000000","publicwifi":"U","url":null,"broadband_type_id":1}
{"id":null,"anchorname":"CITY OF TRIPOLI","address":"303 SOUTH MAIN STREET TRIPOLI, IA 50676","bldgnbr":"303","predir":null,"streetname":"SOUTH MAIN STREET","streettype":null,"suffdir":null,"city":"TRIPOLI","state_code":"IA","zip5":"50676","latitude":"42.8073350000000000","longitude":"-92.258107000000000","publicwifi":"U","url":null,"broadband_type_id":1}
{"id":null,"anchorname":"LUTHERBROOK ACADEMY","address":"329 W LAKE ST","bldgnbr":"329","predir":"W","streetname":"LAKE","streettype":"ST","suffdir":null,"city":"ADDISON","state_code":"IL","zip5":"60101","latitude":"41.9307328880000000","longitude":"-87.984479045000000","publicwifi":"U","url":"HTTP://WWW.LCFS.ORG/PAGE.ASPX?PID=218","broadband_type_id":6}
{"id":null,"anchorname":"TANNER PLACE","address":"321 CHESTNUT ST","bldgnbr":"321","predir":null,"streetname":"CHESTNUT","streettype":null,"suffdir":null,"city":"PARIS","state_code":"IL","zip5":"61944","latitude":"39.6141250000000000","longitude":"-87.701058000000000","publicwifi":"U","url":null,"broadband_type_id":null}
{"id":null,"anchorname":"CREATIVE CENTER FOR CHILDREN","address":"300 SOUTH EADS AVE","bldgnbr":"300","predir":"S","streetname":"EADS","streettype":null,"suffdir":null,"city":"PARIS","state_code":"IL","zip5":"61944","latitude":"39.6084230000000000","longitude":"-87.679605000000000","publicwifi":"U","url":null,"broadband_type_id":null}
{"id":null,"anchorname":"ST JOSEPH SCHOOL","address":"330 E FULLERTON AVE","bldgnbr":"330","predir":"\u003cNull\u003e","streetname":"FULLERTON","streettype":null,"suffdir":null,"city":"ADDISON","state_code":"IL","zip5":"60101","latitude":"41.9201791600000000","longitude":"-87.978805327000000","publicwifi":"U","url":"HTTP://WWW.STJOEADDISON.COM/SCHOOL","broadband_type_id":6}
{"id":null,"anchorname":"ARDMORE ELEM SCHOOL","address":"644 SOUTH ARDMORE AVE","bldgnbr":"644","predir":"S","streetname":"ARDMORE","streettype":"AVE","suffdir":null,"city":"ADDISON","state_code":"IL","zip5":"60101","latitude":"41.9148860000000000","longitude":"-87.978840000000000","publicwifi":"U","url":null,"broadband_type_id":6}
{"id":null,"anchorname":"CHRISMAN PUBLIC LIBRARY","address":"108 NORTH ILLINOIS ST","bldgnbr":"108","predir":"N","streetname":"ILLINOIS","streettype":"ST","suffdir":null,"city":"CHRISMAN","state_code":"IL","zip5":"61924","latitude":"39.8035230000000000","longitude":"-87.679102000000000","publicwifi":"N","url":null,"broadband_type_id":6}
{"id":null,"anchorname":"CHRISMAN POLICE DEPARTMENT","address":"222 WEST MADISON AVENUE","bldgnbr":"222","predir":"W","streetname":"MADISON","streettype":"AVE","suffdir":null,"city":"CHRISMAN","state_code":"IL","zip5":"61924","latitude":"39.8045140000000000","longitude":"-87.679448000000000","publicwifi":"U","url":null,"broadband_type_id":4}
{"id":null,"anchorname":"CHRISMAN FIRE DEPARTMENT","address":"104 EAST MADISON AVENUE","bldgnbr":"104","predir":"E","streetname":"MADISON","streettype":"AVE","suffdir":null,"city":"CHRISMAN","state_code":"IL","zip5":"61924","latitude":"39.8045290000000000","longitude":"-87.677627000000000","publicwifi":"U","url":null,"broadband_type_id":5}
{"id":null,"anchorname":"CHRISMAN HIGH SCHOOL","address":"23231 IL HWY 1","bldgnbr":"23231","predir":null,"streetname":"IL HIGHWAY 1","streettype":null,"suffdir":null,"city":"CHRISMAN","state_code":"IL","zip5":"61924","latitude":"39.8097400000000000","longitude":"-87.674100000000000","publicwifi":"U","url":null,"broadband_type_id":6}
{"id":null,"anchorname":"CHRISMAN ELEM SCHOOL","address":"111 NORTH PENNSYLVANIA ST","bldgnbr":"111","predir":"N","streetname":"PENNSYLVANIA","streettype":null,"suffdir":null,"city":"CHRISMAN","state_code":"IL","zip5":"61924","latitude":"39.8034990000000000","longitude":"-87.673510000000000","publicwifi":"U","url":null,"broadband_type_id":6}
{"id":null,"anchorname":"HUME FIRE PROTECTION DISTRICT","address":"98 FRONT ST","bldgnbr":"98","predir":null,"streetname":"FRONT","streettype":"ST","suffdir":null,"city":"HUME","state_code":"IL","zip5":"61932","latitude":"39.7984250000000000","longitude":"-87.866878000000000","publicwifi":"U","url":null,"broadband_type_id":5}
{"id":null,"anchorname":"METCALF FIRE PROTECTION DISTRICT","address":"121 CRAWFORD","bldgnbr":"121","predir":null,"streetname":"CRAWFORD","streettype":null,"suffdir":null,"city":"METCALF","state_code":"IL","zip5":"61940","latitude":"39.7998140000000000","longitude":"-87.804823000000000","publicwifi":"U","url":null,"broadband_type_id":5}
{"id":null,"anchorname":"SHILOH ELEMENTARY SCHOOL","address":"21751 NORTH 575TH ST","bldgnbr":"21751","predir":"N","streetname":"575TH","streettype":"ST","suffdir":null,"city":"HUME","state_code":"IL","zip5":"61932","latitude":"39.7908780000000000","longitude":"-87.860146000000000","publicwifi":"U","url":null,"broadband_type_id":6}
{"id":null,"anchorname":"SHILOH HIGH SCHOOL","address":"21751 NORTH 575TH ST","bldgnbr":"21751","predir":"\u003cNull\u003e","streetname":"NORTH 575TH ST","streettype":null,"suffdir":null,"city":"HUME","state_code":"IL","zip5":"61932","latitude":"39.7908780000000000","longitude":"-87.860146000000000","publicwifi":"U","url":null,"broadband_type_id":6}
{"id":null,"anchorname":"VILLAGE OF BROCTON POLICE DEPARTMENT","address":"110 WEST THIRD ST","bldgnbr":"110","predir":"W","streetname":"THIRD","streettype":"ST","suffdir":null,"city":"BROCTON","state_code":"IL","zip5":"61917","latitude":"39.7153380000000000","longitude":"-87.932397000000000","publicwifi":"U","url":null,"broadband_type_id":4}
{"id":null,"anchorname":"BROCTON FIRE DEPARTMENT","address":"113 EAST 3RD ST","bldgnbr":"113","predir":"E","streetname":"3RD","streettype":"ST","suffdir":null,"city":"BROCTON","state_code":"IL","zip5":"61917","latitude":"39.7154480000000000","longitude":"-87.932142000000000","publicwifi":"U","url":null,"broadband_type_id":5}
{"id":null,"anchorname":"PARIS HEALTHCARE CENTER","address":"1011 NORTH MAIN ST","bldgnbr":"1011","predir":"N","streetname":"MAIN","streettype":"ST","suffdir":null,"city":"PARIS","state_code":"IL","zip5":"61944","latitude":"39.6257540000000000","longitude":"-87.694585000000000","publicwifi":"U","url":null,"broadband_type_id":3}
{"id":null,"anchorname":"ST MARY CATHOLIC SCHOOL","address":"507 CONNELLY ST","bldgnbr":"507","predir":"\u003cNull\u003e","streetname":"CONNELLY ST","streettype":null,"suffdir":null,"city":"PARIS","state_code":"IL","zip5":"61944","latitude":"39.6172567770000000","longitude":"-87.693528475000000","publicwifi":"U","url":null,"broadband_type_id":6}
{"id":null,"anchorname":"MAYO MIDDLE SCHOOL","address":"300 EAST WOOD ST","bldgnbr":"300","predir":"E","streetname":"WOOD","streettype":"ST","suffdir":null,"city":"PARIS","state_code":"IL","zip5":"61944","latitude":"39.6122390000000000","longitude":"-87.690561000000000","publicwifi":"U","url":null,"broadband_type_id":6}
{"id":null,"anchorname":"ILLINOIS HEALTHCARE AND FAMILY SERVICES","address":"115 WEST COURT","bldgnbr":"115","predir":"W","streetname":"COURT","streettype":null,"suffdir":null,"city":"PARIS","state_code":"IL","zip5":"61944","latitude":"39.6112480000000000","longitude":"-87.695196000000000","publicwifi":"U","url":null,"broadband_type_id":3}
{"id":null,"anchorname":"EDGAR COUNTY SHERIFF'S DEPARTMENT","address":"228 NORTH CENTRAL AVENUE","bldgnbr":"228","predir":"N","streetname":"CENTRAL","streettype":"AVE","suffdir":null,"city":"PARIS","state_code":"IL","zip5":"61944","latitude":"39.6125770000000000","longitude":"-87.696216000000000","publicwifi":"U","url":null,"broadband_type_id":4}
{"id":null,"anchorname":"ILLINOIS STATE POLICE  NETWORK (LOC)","address":"211 WEST WASHINGTON","bldgnbr":"211","predir":"W","streetname":"WASHINGTON","streettype":null,"suffdir":null,"city":"PARIS","state_code":"IL","zip5":"61944","latitude":"39.6101920000000000","longitude":"-87.696377000000000","publicwifi":"U","url":null,"broadband_type_id":4}
{"id":null,"anchorname":"PARIS FIRE DEPARTMENT","address":"213 WEST  WASHINGTON ST","bldgnbr":"213","predir":"W","streetname":"WASHINGTON","streettype":"ST","suffdir":null,"city":"PARIS","state_code":"IL","zip5":"61944","latitude":"39.6101910000000000","longitude":"-87.696399000000000","publicwifi":"U","url":null,"broadband_type_id":5}
{"id":null,"anchorname":"CITY OF PARIS FIRE DEPARTMENT","address":"213 W WASHINGTON","bldgnbr":"213","predir":"W","streetname":"WASHINGTON","streettype":null,"suffdir":null,"city":"PARIS","state_code":"IL","zip5":"61944","latitude":"39.6101910000000000","longitude":"-87.696399000000000","publicwifi":"U","url":null,"broadband_type_id":5}
{"id":null,"anchorname":"CAROLYN WENZ ELEM SCHOOL","address":"437 WEST WASHINGTON ST","bldgnbr":"437","predir":"W","streetname":"WASHINGTON","streettype":"ST","suffdir":null,"city":"PARIS","state_code":"IL","zip5":"61944","latitude":"39.6100700000000000","longitude":"-87.701383000000000","publicwifi":"U","url":null,"broadband_type_id":6}
{"id":null,"anchorname":"PARIS CARNEGIE PUBLIC LIBRARY","address":"207 SOUTH MAIN","bldgnbr":"207","predir":"S","streetname":"MAIN","streettype":null,"suffdir":null,"city":"PARIS","state_code":"IL","zip5":"61944","latitude":"39.6100600000000000","longitude":"-87.694998000000000","publicwifi":"Y","url":"http://www.parispubliclibrary.org/","broadband_type_id":6}
{"id":null,"anchorname":"PARIS COOPERATIVE HIGH SCHOOL 95","address":"309 SOUTH MAIN ST","bldgnbr":"309","predir":"S","streetname":"MAIN","streettype":"ST","suffdir":null,"city":"PARIS","state_code":"IL","zip5":"61944","latitude":"39.6090120000000000","longitude":"-87.694949000000000","publicwifi":"U","url":null,"broadband_type_id":6}
{"id":null,"anchorname":"PARIS COOPERATIVE HIGH SCHOOL","address":"309 SOUTH MAIN ST","bldgnbr":"309","predir":"\u003cNull\u003e","streetname":"SOUTH MAIN ST","streettype":null,"suffdir":null,"city":"PARIS","state_code":"IL","zip5":"61944","latitude":"39.6090120000000000","longitude":"-87.694949000000000","publicwifi":"U","url":null,"broadband_type_id":6}
{"id":null,"anchorname":"PARIS COOPERATIVE HIGH SCHOOL 4","address":"309 SOUTH MAIN ST","bldgnbr":"309","predir":"\u003cNull\u003e","streetname":"SOUTH MAIN ST","streettype":null,"suffdir":null,"city":"PARIS","state_code":"IL","zip5":"61944","latitude":"39.6090120000000000","longitude":"-87.694949000000000","publicwifi":"U","url":null,"broadband_type_id":6}
{"id":null,"anchorname":"CRESTWOOD JR HIGH SCHOOL","address":"15601 US HWY 150","bldgnbr":"15601","predir":null,"streetname":"US HIGHWAY 150","streettype":null,"suffdir":null,"city":"PARIS","state_code":"IL","zip5":"61944","latitude":"39.6064700000000000","longitude":"-87.673931000000000","publicwifi":"U","url":null,"broadband_type_id":6}
{"id":null,"anchorname":"CRESTWOOD ELEM SCHOOL","address":"15601 US HWY 150","bldgnbr":"15601","predir":"\u003cNull\u003e","streetname":"US HWY 150","streettype":null,"suffdir":null,"city":"PARIS","state_code":"IL","zip5":"61944","latitude":"39.6064700000000000","longitude":"-87.673931000000000","publicwifi":"U","url":null,"broadband_type_id":6}
{"id":null,"anchorname":"PARIS COMMUNITY HOSPITAL","address":"721 EAST COURT ST","bldgnbr":"721","predir":"E","streetname":"COURT","streettype":null,"suffdir":null,"city":"PARIS","state_code":"IL","zip5":"61944","latitude":"39.6064630000000000","longitude":"-87.677648000000000","publicwifi":"U","url":null,"broadband_type_id":3}
{"id":null,"anchorname":"TWIN LAKES REHAB \u0026 HEALTH CARE","address":"310 EADS AVENUE","bldgnbr":"310","predir":null,"streetname":"EADS","streettype":"AVE","suffdir":null,"city":"PARIS","state_code":"IL","zip5":"61944","latitude":"39.6083640000000000","longitude":"-87.679595000000000","publicwifi":"U","url":null,"broadband_type_id":3}
{"id":null,"anchorname":"PLANNED PARENTHOOD OF SOUTHWEST AND CENTRAL FLORIDA","address":"8595 COLLEGE PARKWAY SUIT 250, FORT MYERS, FL, 33919","bldgnbr":"8595","predir":"0","streetname":"COLLEGE PARKWAY","streettype":"SUIT 250","suffdir":"0","city":"FORT MYERS","state_code":"FL","zip5":"33919","latitude":"26.5566250000000000","longitude":"-81.896382000000000","publicwifi":"U","url":"0","broadband_type_id":6}
{"id":null,"anchorname":"LEE COUNTY BOARD OF COUNTY COMMISSIONERS","address":"1930 SE 23RD TER, CAPE CORAL, FL 33990","bldgnbr":"1930","predir":null,"streetname":"23RD","streettype":"TER","suffdir":null,"city":"CAPE CORAL","state_code":"FL","zip5":"33990","latitude":"26.6085873200000000","longitude":"-81.933865750000000","publicwifi":"Y","url":"0","broadband_type_id":6}
{"id":null,"anchorname":"ILLINOIS WORKNET CENTER-ALBION","address":"334 INDUSTRIAL DRIVE","bldgnbr":"334","predir":null,"streetname":"INDUSTRIAL","streettype":"DR","suffdir":null,"city":"ALBION","state_code":"IL","zip5":"62806","latitude":"38.3654750000000000","longitude":"-88.055015000000000","publicwifi":"U","url":null,"broadband_type_id":6}
{"id":null,"anchorname":"REST HAVEN MANOR","address":"120 WEST MAIN","bldgnbr":"120","predir":"W","streetname":"MAIN","streettype":null,"suffdir":null,"city":"ALBION","state_code":"IL","zip5":"62806","latitude":"38.3770480000000000","longitude":"-88.060426000000000","publicwifi":"U","url":null,"broadband_type_id":6}
{"id":null,"anchorname":"ARC COMMUNITY SUPPORT SYSTEMS","address":"618 W MAIN ST","bldgnbr":"618","predir":"W","streetname":"MAIN","streettype":"ST","suffdir":null,"city":"TEUTOPOLIS","state_code":"IL","zip5":"62467","latitude":"39.1306450000000000","longitude":"-88.482777000000000","publicwifi":"U","url":null,"broadband_type_id":6}
{"id":null,"anchorname":"KANSAS FIRE PROTECTION DISTRICT","address":"402 E BUENA VISTA","bldgnbr":"402","predir":"E","streetname":"BUENA VISTA","streettype":null,"suffdir":null,"city":"KANSAS","state_code":"IL","zip5":"61933","latitude":"39.5535270000000000","longitude":"-87.942382000000000","publicwifi":"U","url":null,"broadband_type_id":5}
{"id":null,"anchorname":"KANSAS HIGH SCHOOL","address":"310 SOUTH FRONT","bldgnbr":"310","predir":"S","streetname":"FRONT","streettype":"ST","suffdir":null,"city":"KANSAS","state_code":"IL","zip5":"61933","latitude":"39.5510030000000000","longitude":"-87.939527000000000","publicwifi":"U","url":null,"broadband_type_id":6}
{"id":null,"anchorname":"KANSAS ELEM SCHOOL","address":"310 SOUTH FRONT","bldgnbr":"310","predir":"\u003cNull\u003e","streetname":"SOUTH FRONT","streettype":null,"suffdir":null,"city":"KANSAS","state_code":"IL","zip5":"61933","latitude":"39.5510030000000000","longitude":"-87.939527000000000","publicwifi":"U","url":null,"broadband_type_id":6}
{"id":null,"anchorname":"KANSAS POLICE DEPARTMENT","address":"104 SOUTH FRONT ST","bldgnbr":"104","predir":"S","streetname":"FRONT","streettype":"ST","suffdir":null,"city":"KANSAS","state_code":"IL","zip5":"61933","latitude":"39.5527890000000000","longitude":"-87.939647000000000","publicwifi":"U","url":null,"broadband_type_id":4}
{"id":null,"anchorname":"WEST SALEM GRADE SCHOOL","address":"105 EAST SCHOOL ST","bldgnbr":"105","predir":"E","streetname":"SCHOOL","streettype":"ST","suffdir":null,"city":"WEST SALEM","state_code":"IL","zip5":"62476","latitude":"38.5225780000000000","longitude":"-88.004763000000000","publicwifi":"U","url":null,"broadband_type_id":6}
{"id":null,"anchorname":"WEST SALEM FIRE DEPARTMENT","address":"106 E SOUTH ST","bldgnbr":"106","predir":"E","streetname":"SOUTH","streettype":"ST","suffdir":null,"city":"WEST SALEM","state_code":"IL","zip5":"62476","latitude":"38.5200490000000000","longitude":"-88.004741000000000","publicwifi":"U","url":null,"broadband_type_id":5}
{"id":null,"anchorname":"WEST SALEM POLICE DEPARTMENT","address":"106 EAST SOUTH","bldgnbr":"106","predir":"E","streetname":"SOUTH","streettype":null,"suffdir":null,"city":"WEST SALEM","state_code":"IL","zip5":"62476","latitude":"38.5200490000000000","longitude":"-88.004741000000000","publicwifi":"U","url":null,"broadband_type_id":4}
{"id":null,"anchorname":"WEST SALEM PUBLIC LIBRARY","address":"112 WEST SOUTH ST","bldgnbr":"112","predir":"W","streetname":"SOUTH","streettype":"ST","suffdir":null,"city":"WEST SALEM","state_code":"IL","zip5":"62476","latitude":"38.5200440000000000","longitude":"-88.005009000000000","publicwifi":"N","url":null,"broadband_type_id":6}
{"id":null,"anchorname":"BONE GAP RURAL FIRE PROTECTION DISTRICT","address":"STATE ST","bldgnbr":"N/A","predir":null,"streetname":"STATE","streettype":"ST","suffdir":null,"city":"BONE GAP","state_code":"IL","zip5":"62815","latitude":"38.4476920000000000","longitude":"-87.996093000000000","publicwifi":"U","url":null,"broadband_type_id":5}
{"id":null,"anchorname":"BROWNS FIRE DEPARTMENT","address":"315 FRONT ST","bldgnbr":"315","predir":null,"streetname":"FRONT WILLIAMS","streettype":"ST","suffdir":null,"city":"BROWNS","state_code":"IL","zip5":"62818","latitude":"38.3759340000000000","longitude":"-87.983155000000000","publicwifi":"U","url":null,"broadband_type_id":5}
{"id":null,"anchorname":"ILLINOIS STATE POLICE  NETWORK (LOC)","address":"50 EAST MAIN ST , STE 6","bldgnbr":"50","predir":"E","streetname":"MAIN","streettype":"ST","suffdir":null,"city":"ALBION","state_code":"IL","zip5":"62806","latitude":"38.3770700000000000","longitude":"-88.056766000000000","publicwifi":"U","url":null,"broadband_type_id":4}
{"id":null,"anchorname":"ALBION PUBLIC LIBRARY","address":"6 NORTH FOURTH ST","bldgnbr":"6","predir":"N","streetname":"FOURTH","streettype":"ST","suffdir":null,"city":"ALBION","state_code":"IL","zip5":"62806","latitude":"38.3771290000000000","longitude":"-88.056209000000000","publicwifi":"Y","url":"http://www.albion.lib.il.us/","broadband_type_id":6}
{"id":null,"anchorname":"EDWARDS COUNTY SHERIFF","address":"50 MAIN ST","bldgnbr":"50","predir":null,"streetname":"MAIN","streettype":"ST","suffdir":null,"city":"ALBION","state_code":"IL","zip5":"62806","latitude":"38.3770520000000000","longitude":"-88.058685000000000","publicwifi":"U","url":null,"broadband_type_id":4}
{"id":null,"anchorname":"EDWARDS COUNTY SHERIFF_S OFFICE","address":"50 MAIN ST","bldgnbr":"50","predir":null,"streetname":"MAIN","streettype":"ST","suffdir":null,"city":"ALBION","state_code":"IL","zip5":"62806","latitude":"38.3770520000000000","longitude":"-88.058685000000000","publicwifi":"U","url":null,"broadband_type_id":4}
{"id":null,"anchorname":"ALBION GRADE SCHOOL","address":"361 WEST MAIN ST","bldgnbr":"361","predir":"\u003cNull\u003e","streetname":"WEST MAIN ST","streettype":null,"suffdir":null,"city":"ALBION","state_code":"IL","zip5":"62806","latitude":"38.3769510000000000","longitude":"-88.066064000000000","publicwifi":"U","url":null,"broadband_type_id":6}
{"id":null,"anchorname":"EDWARDS COUNTY HIGH SCHOOL","address":"361 WEST MAIN ST","bldgnbr":"361","predir":"W","streetname":"MAIN","streettype":"ST","suffdir":null,"city":"ALBION","state_code":"IL","zip5":"62806","latitude":"38.3769510000000000","longitude":"-88.066064000000000","publicwifi":"U","url":null,"broadband_type_id":6}
{"id":null,"anchorname":"TEUTOPOLIS JUNIOR HIGH SCHOOL","address":"904 WEST WATER ST","bldgnbr":"904","predir":"W","streetname":"WATER","streettype":"ST","suffdir":null,"city":"TEUTOPOLIS","state_code":"IL","zip5":"62467","latitude":"39.1337700000000000","longitude":"-88.484252000000000","publicwifi":"U","url":null,"broadband_type_id":6}
{"id":null,"anchorname":"TEUTOPOLIS GRADE SCHOOL","address":"309 EAST MAIN ST","bldgnbr":"309","predir":"E","streetname":"MAIN","streettype":"ST","suffdir":null,"city":"TEUTOPOLIS","state_code":"IL","zip5":"62467","latitude":"39.1329580000000000","longitude":"-88.470180000000000","publicwifi":"U","url":null,"broadband_type_id":6}
{"id":null,"anchorname":"TEUTOPOLIS POLICE DEPARTMENT","address":"106 WEST MAIN ST","bldgnbr":"106","predir":"W","streetname":"MAIN","streettype":"ST","suffdir":null,"city":"TEUTOPOLIS","state_code":"IL","zip5":"62467","latitude":"39.1323860000000000","longitude":"-88.473852000000000","publicwifi":"U","url":null,"broadband_type_id":4}
{"id":null,"anchorname":"TEUTOPOLIS FIRE DEPARTMENT","address":"200 WEST MAIN ST","bldgnbr":"200","predir":"W","streetname":"MAIN","streettype":"ST","suffdir":null,"city":"TEUTOPOLIS","state_code":"IL","zip5":"62467","latitude":"39.1320620000000000","longitude":"-88.475460000000000","publicwifi":"U","url":null,"broadband_type_id":5}
{"id":null,"anchorname":"TEUTOPOLIS HIGH SCHOOL","address":"801 WEST MAIN ST","bldgnbr":"801","predir":"W","streetname":"MAIN","streettype":null,"suffdir":null,"city":"TEUTOPOLIS","state_code":"IL","zip5":"62467","latitude":"39.1311510000000000","longitude":"-88.479634000000000","publicwifi":"U","url":null,"broadband_type_id":6}
{"id":null,"anchorname":"MONTROSE FIRE PROTECTION DISTRICT","address":"207 W NATIONAL RD","bldgnbr":"207","predir":"W","streetname":"NATIONAL","streettype":"RD","suffdir":null,"city":"MONTROSE","state_code":"IL","zip5":"62445","latitude":"39.1647050000000000","longitude":"-88.380408000000000","publicwifi":"U","url":null,"broadband_type_id":5}
{"id":null,"anchorname":"BEECHER CITY BRANCH LIBRARY","address":"205 SOUTH SWEAZY  ST","bldgnbr":"205","predir":"S","streetname":"SWEAZY","streettype":"ST","suffdir":null,"city":"BEECHER CITY","state_code":"IL","zip5":"62414","latitude":"39.1860830000000000","longitude":"-88.788228000000000","publicwifi":"Y","url":"http://www.stelmolibrary.org/","broadband_type_id":6}
{"id":null,"anchorname":"TRI-COUNTY FIRE DEPARTMENT","address":"101 E POPLAR","bldgnbr":"101","predir":"E","streetname":"POPLAR","streettype":null,"suffdir":null,"city":"BEECHER CITY","state_code":"IL","zip5":"62414","latitude":"39.1870960000000000","longitude":"-88.786945000000000","publicwifi":"U","url":null,"broadband_type_id":5}
{"id":null,"anchorname":"BEECHER CITY GRADE SCHOOL","address":"306 EAST VINE","bldgnbr":"304","predir":"E","streetname":"VINE","streettype":"ST","suffdir":null,"city":"BEECHER CITY","state_code":"IL","zip5":"62414","latitude":"39.1881800000000000","longitude":"-88.784538000000000","publicwifi":"U","url":null,"broadband_type_id":6}
{"id":null,"anchorname":"EFFINGHAM WATER AUTHORITY POLICE DEPARTMENT","address":"9352 EAST PARK LANE","bldgnbr":"9352","predir":"E","streetname":"PARK","streettype":"LN","suffdir":null,"city":"EFFINGHAM","state_code":"IL","zip5":"62401","latitude":"39.1233030000000000","longitude":"-88.619680000000000","publicwifi":"U","url":null,"broadband_type_id":4}
{"id":null,"anchorname":"SHUMWAY FIRE PROTECTION DISTRICT","address":"14949 N PARK RD","bldgnbr":"14949","predir":"N","streetname":"PARK","streettype":"RD","suffdir":null,"city":"EFFINGHAM","state_code":"IL","zip5":"62401","latitude":"39.1345230000000000","longitude":"-88.611628000000000","publicwifi":"U","url":null,"broadband_type_id":5}
{"id":null,"anchorname":"ALTAMONT GRADE SCHOOL","address":"407 SOUTH EDWARDS ST","bldgnbr":"407","predir":"S","streetname":"EDWARDS","streettype":"ST","suffdir":null,"city":"ALTAMONT","state_code":"IL","zip5":"62411","latitude":"39.0558450000000000","longitude":"-88.745767000000000","publicwifi":"U","url":null,"broadband_type_id":6}
{"id":null,"anchorname":"LUTHERAN CARE CENTER","address":"702 WEST CUMBERLAND ROAD","bldgnbr":"702","predir":"W","streetname":"CUMBERLAND","streettype":"RD","suffdir":null,"city":"ALTAMONT","state_code":"IL","zip5":"62411","latitude":"39.0534840000000000","longitude":"-88.753298000000000","publicwifi":"U","url":null,"broadband_type_id":3}
{"id":null,"anchorname":"ALTAMONT HIGH SCHOOL","address":"7 SOUTH EWING ST","bldgnbr":"7","predir":"S","streetname":"EWING","streettype":"ST","suffdir":null,"city":"ALTAMONT","state_code":"IL","zip5":"62411","latitude":"39.0595790000000000","longitude":"-88.741225000000000","publicwifi":"U","url":null,"broadband_type_id":6}
{"id":null,"anchorname":"ALTAMONT LUTHERAN INTERPARISH SCHOOL","address":"7 S EDWARDS ST","bldgnbr":"7","predir":"\u003cNull\u003e","streetname":"EDWARDS","streettype":null,"suffdir":null,"city":"ALTAMONT","state_code":"IL","zip5":"62411","latitude":"39.0596848310000000","longitude":"-88.745702520000000","publicwifi":"U","url":null,"broadband_type_id":6}
{"id":null,"anchorname":"ALTAMONT FIRE PROTECTION DISTRICT","address":"109 W JEFFERSON AVE","bldgnbr":"109","predir":"W","streetname":"JEFFERSON","streettype":"AVE","suffdir":null,"city":"ALTAMONT","state_code":"IL","zip5":"62411","latitude":"39.0619450000000000","longitude":"-88.749171000000000","publicwifi":"U","url":null,"broadband_type_id":5}
{"id":null,"anchorname":"ALTAMONT POLICE DEPARTMENT","address":"202 NORTH 2ND ST","bldgnbr":"202","predir":"N","streetname":"2ND","streettype":"ST","suffdir":null,"city":"ALTAMONT","state_code":"IL","zip5":"62411","latitude":"39.0619520000000000","longitude":"-88.749104000000000","publicwifi":"U","url":null,"broadband_type_id":4}
{"id":null,"anchorname":"ALTAMONT PUBLIC LIBRARY","address":"121 WEST WASHINGTON AVENUE","bldgnbr":"121","predir":"W","streetname":"WASHINGTON","streettype":"AVE","suffdir":null,"city":"ALTAMONT","state_code":"IL","zip5":"62411","latitude":"39.0606350000000000","longitude":"-88.748658000000000","publicwifi":"Y","url":"http://www.altamontpubliclibrary.com/","broadband_type_id":6}
{"id":null,"anchorname":"WATSON FIRE PROTECTION DISTRICT","address":"100 MONROE ST","bldgnbr":"100","predir":null,"streetname":"MONROE","streettype":"ST","suffdir":null,"city":"WATSON","state_code":"IL","zip5":"62473","latitude":"39.0257660000000000","longitude":"-88.571417000000000","publicwifi":"U","url":null,"broadband_type_id":5}
{"id":null,"anchorname":"KARE PHYSICIANS ASSOCIATES PA","address":"15750 NEW HAMPSHIRE CT, FORT MYERS, FL, 33908","bldgnbr":"15750","predir":"0","streetname":"NEW HAMPSHIRE","streettype":"CT","suffdir":"0","city":"FORT MYERS","state_code":"FL","zip5":"33908","latitude":"26.5140150000000000","longitude":"-81.897694000000000","publicwifi":"U","url":"0","broadband_type_id":6}
{"id":null,"anchorname":"ILLINOIS SECRETARY OF STATE","address":"444 SOUTH WILLOW","bldgnbr":"444","predir":"S","streetname":"WILLOW","streettype":null,"suffdir":null,"city":"EFFINGHAM","state_code":"IL","zip5":"62401","latitude":"39.1183060000000000","longitude":"-88.537397000000000","publicwifi":"U","url":null,"broadband_type_id":6}
{"id":null,"anchorname":"TRISTAR ACAD SAFE SCH PROGRAM","address":"1901 SOUTH 4TH ST","bldgnbr":"1901","predir":"\u003cNull\u003e","streetname":"SOUTH 4TH ST","streettype":null,"suffdir":null,"city":"EFFINGHAM","state_code":"IL","zip5":"62401","latitude":"39.1050980000000000","longitude":"-88.542331000000000","publicwifi":"U","url":null,"broadband_type_id":6}
{"id":null,"anchorname":"CROSSROADS WORKFORCE CENTER-EFFINGHAM","address":"2311 HOFFMAN DRIVE","bldgnbr":"2311","predir":null,"streetname":"HOFFMAN","streettype":"DR","suffdir":null,"city":"EFFINGHAM","state_code":"IL","zip5":"62401","latitude":"39.0993890000000000","longitude":"-88.544387000000000","publicwifi":"U","url":null,"broadband_type_id":4}
{"id":null,"anchorname":"SOUTHERN ILLINOIS HAND CTR","address":"901 MEDICAL PARK DR # 100","bldgnbr":"901","predir":null,"streetname":"MEDICAL PARK","streettype":"DR","suffdir":null,"city":"EFFINGHAM","state_code":"IL","zip5":"62401","latitude":"39.1286800000000000","longitude":"-88.554169000000000","publicwifi":"U","url":null,"broadband_type_id":6}
{"id":null,"anchorname":"FRIENDSHIP MANOR OF ST. ELMO","address":"221 E. CUMBERLAND ROAD","bldgnbr":"221","predir":"E","streetname":"CUMBERLAND","streettype":"RD","suffdir":null,"city":"ST ELMO","state_code":"IL","zip5":"62458","latitude":"39.0244750000000000","longitude":"-88.485229000000000","publicwifi":"U","url":null,"broadband_type_id":null}
{"id":null,"anchorname":"FRESH START TREATMENT \u0026 LEARNING","address":"215 NORTH 1ST ST","bldgnbr":"215","predir":"\u003cNull\u003e","streetname":"NORTH 1ST ST","streettype":null,"suffdir":null,"city":"EFFINGHAM","state_code":"IL","zip5":"62401","latitude":"39.1233000000000000","longitude":"-88.538420000000000","publicwifi":"U","url":null,"broadband_type_id":6}
{"id":null,"anchorname":"EFFINGHAM TERRACE","address":"1101 SOUTH 3RD ST","bldgnbr":"1101","predir":"S","streetname":"3RD","streettype":"ST","suffdir":null,"city":"EFFINGHAM","state_code":"IL","zip5":"62401","latitude":"39.1126710000000000","longitude":"-88.541078000000000","publicwifi":"U","url":null,"broadband_type_id":null}
{"id":null,"anchorname":"EFFINGHAM COUNTY BUILDING","address":"101 NORTH 4TH, ROOM 204","bldgnbr":"101","predir":"N","streetname":"4TH","streettype":null,"suffdir":null,"city":"EFFINGHAM","state_code":"IL","zip5":"62401","latitude":"39.1214150000000000","longitude":"-88.542090000000000","publicwifi":"U","url":null,"broadband_type_id":1}
{"id":null,"anchorname":"OAKVIEW","address":"2311 VETERAN'S DRIVE","bldgnbr":"2311","predir":null,"streetname":"VETERAN'S","streettype":null,"suffdir":null,"city":"EFFINGHAM","state_code":"IL","zip5":"62401","latitude":"39.1016220000000000","longitude":"-88.540512000000000","publicwifi":"U","url":null,"broadband_type_id":null}
{"id":null,"anchorname":"EVERGREEN NSG \u0026 REHAB CENTER","address":"1115 NORTH WENTHE","bldgnbr":"1115","predir":"N","streetname":"WENTHE","streettype":null,"suffdir":null,"city":"EFFINGHAM","state_code":"IL","zip5":"62401","latitude":"39.1364650000000000","longitude":"-88.557340000000000","publicwifi":"U","url":null,"broadband_type_id":null}
{"id":null,"anchorname":"WETHERELL PLACE","address":"1026 NORTH MERCHANT ST","bldgnbr":"1026","predir":"N","streetname":"MERCHANT","streettype":"ST","suffdir":null,"city":"EFFINGHAM","state_code":"IL","zip5":"62401","latitude":"39.1322340000000000","longitude":"-88.544454000000000","publicwifi":"U","url":null,"broadband_type_id":null}
{"id":null,"anchorname":"LAKELAND REHAB \u0026 HCC","address":"800 WEST TEMPLE ST","bldgnbr":"800","predir":"W","streetname":"TEMPLE","streettype":"ST","suffdir":null,"city":"EFFINGHAM","state_code":"IL","zip5":"62401","latitude":"39.1275390000000000","longitude":"-88.551545000000000","publicwifi":"U","url":null,"broadband_type_id":null}
{"id":null,"anchorname":"ILLINOIS DEPT OF PUBLIC AID","address":"120 WEST JEFFERSON AVENUE, STE 101","bldgnbr":"120","predir":"W","streetname":"JEFFERSON","streettype":"AVE","suffdir":null,"city":"EFFINGHAM","state_code":"IL","zip5":"62401","latitude":"39.1214450000000000","longitude":"-88.542303000000000","publicwifi":"U","url":null,"broadband_type_id":6}
{"id":null,"anchorname":"ILLINOIS DEPT OF CENTRAL MANAGEMENT SERVICES","address":"400 WEST WABASH, FLOOR 1","bldgnbr":"400","predir":"W","streetname":"WABASH","streettype":null,"suffdir":null,"city":"EFFINGHAM","state_code":"IL","zip5":"62401","latitude":"39.1128870000000000","longitude":"-88.546989000000000","publicwifi":"U","url":null,"broadband_type_id":6}
{"id":null,"anchorname":"SENIOR CENTER","address":"209 S Market St","bldgnbr":"209","predir":"S","streetname":"Market","streettype":"ST","suffdir":null,"city":"EFFINGHAM","state_code":"IL","zip5":"62401","latitude":"39.1204830000000000","longitude":"-88.547180000000000","publicwifi":"U","url":null,"broadband_type_id":null}
{"id":null,"anchorname":"ILLINOIS DEPT OF TRANSPORTATION","address":"400 WABASH  AVENUE","bldgnbr":"400","predir":null,"streetname":"WABASH","streettype":"AVE","suffdir":null,"city":"EFFINGHAM","state_code":"IL","zip5":"62401","latitude":"39.1128870000000000","longitude":"-88.546989000000000","publicwifi":"U","url":null,"broadband_type_id":6}
{"id":null,"anchorname":"ILLINOIS DEPT OF TRANSPORTATION","address":"400 WEST WABASH","bldgnbr":"400","predir":"W","streetname":"WABASH","streettype":null,"suffdir":null,"city":"EFFINGHAM","state_code":"IL","zip5":"62401","latitude":"39.1128870000000000","longitude":"-88.546989000000000","publicwifi":"U","url":null,"broadband_type_id":6}
{"id":null,"anchorname":"ILLINOIS DEPT OF CHILDREN AND FAMILY SERVICES - NETWORK(CFS)","address":"401 WEST INDUSTRIAL  DRIVE","bldgnbr":"401","predir":"W","streetname":"INDUSTRIAL","streettype":"DR","suffdir":null,"city":"EFFINGHAM","state_code":"IL","zip5":"62401","latitude":"39.0978090000000000","longitude":"-88.547400000000000","publicwifi":"U","url":null,"broadband_type_id":6}
{"id":null,"anchorname":"EARLY LEARNING CENTER","address":"3224 SOUTH BANKER ST","bldgnbr":"1000","predir":null,"streetname":"FIFTH","streettype":"ST","suffdir":null,"city":"EFFINGHAM","state_code":"IL","zip5":"62401","latitude":"39.0815090000000000","longitude":"-88.547688000000000","publicwifi":"U","url":null,"broadband_type_id":6}
{"id":null,"anchorname":"EDGEWOOD GRADE SCHOOL","address":"710 INDIANA ST","bldgnbr":"710","predir":null,"streetname":"INDIANA","streettype":"ST","suffdir":null,"city":"EDGEWOOD","state_code":"IL","zip5":"62426","latitude":"38.9255200000000000","longitude":"-88.664017000000000","publicwifi":"U","url":null,"broadband_type_id":6}
{"id":null,"anchorname":"DIETERICH FIRE PROTECTION DISTRICT","address":"102 W SECTION","bldgnbr":"102","predir":"W","streetname":"SECTION","streettype":null,"suffdir":null,"city":"DIETERICH","state_code":"IL","zip5":"62424","latitude":"39.0603550000000000","longitude":"-88.380076000000000","publicwifi":"U","url":null,"broadband_type_id":5}
{"id":null,"anchorname":"DIETERICH ELEM SCHOOL","address":"205 SOUTH PINE ST","bldgnbr":"204","predir":"N","streetname":"PINE","streettype":"ST","suffdir":null,"city":"DIETERICH","state_code":"IL","zip5":"62424","latitude":"39.0579900000000000","longitude":"-88.382340000000000","publicwifi":"U","url":null,"broadband_type_id":6}
{"id":null,"anchorname":"DIETERICH JR/SR HIGH SCHOOL","address":"108 WEST CHURCH ST","bldgnbr":"108","predir":"W","streetname":"CHURCH","streettype":"ST","suffdir":null,"city":"DIETERICH","state_code":"IL","zip5":"62424","latitude":"39.0581160000000000","longitude":"-88.381458000000000","publicwifi":"U","url":null,"broadband_type_id":6}
{"id":null,"anchorname":"ST ANTHONY HIGH SCHOOL","address":"304 E ROADWAY AVE","bldgnbr":"304","predir":"\u003cNull\u003e","streetname":"ROADWAY","streettype":null,"suffdir":null,"city":"EFFINGHAM","state_code":"IL","zip5":"62401","latitude":"39.1283738290000000","longitude":"-88.539528020000000","publicwifi":"U","url":null,"broadband_type_id":6}
{"id":null,"anchorname":"ASPIRE ALTERNATIVE HIGH SCHOOL","address":"1901 SOUTH 4TH ST","bldgnbr":"1901","predir":"\u003cNull\u003e","streetname":"SOUTH 4TH ST","streettype":null,"suffdir":null,"city":"EFFINGHAM","state_code":"IL","zip5":"62401","latitude":"39.1050980000000000","longitude":"-88.542331000000000","publicwifi":"U","url":null,"broadband_type_id":6}
{"id":null,"anchorname":"ST ANTHONY ELEMENTARY SCHOOL","address":"405 N 2ND ST","bldgnbr":"405","predir":"\u003cNull\u003e","streetname":"2ND ST","streettype":null,"suffdir":null,"city":"EFFINGHAM","state_code":"IL","zip5":"62401","latitude":"39.1247552440000000","longitude":"-88.539668158000000","publicwifi":"U","url":null,"broadband_type_id":6}
{"id":null,"anchorname":"EFFINGHAM FIRE DEPARTMENT","address":"505 WEST FAYETTE AVENUE","bldgnbr":"505","predir":"W","streetname":"FAYETTE","streettype":"AVE","suffdir":null,"city":"EFFINGHAM","state_code":"IL","zip5":"62401","latitude":"39.1200310000000000","longitude":"-88.547752000000000","publicwifi":"U","url":null,"broadband_type_id":5}
{"id":null,"anchorname":"WEST SIDE PRE-SCHOOL","address":"900 WEST EDGAR AVE","bldgnbr":"900","predir":"W","streetname":"EDGAR","streettype":"AVE","suffdir":null,"city":"EFFINGHAM","state_code":"IL","zip5":"62401","latitude":"39.1194270000000000","longitude":"-88.552843000000000","publicwifi":"U","url":null,"broadband_type_id":6}
{"id":null,"anchorname":"ILLINOIS STATE POLICE  NETWORK (LOC)","address":"101 NORTH 4TH , STE 101","bldgnbr":"101","predir":"N","streetname":"4TH","streettype":null,"suffdir":null,"city":"EFFINGHAM","state_code":"IL","zip5":"62401","latitude":"39.1214150000000000","longitude":"-88.542090000000000","publicwifi":"U","url":null,"broadband_type_id":4}
{"id":null,"anchorname":"EFFINGHAM COUNTY SHERIFF'S OFFICE","address":"101 NORTH 4TH , SUITE 101","bldgnbr":"101","predir":"N","streetname":"4TH","streettype":null,"suffdir":null,"city":"EFFINGHAM","state_code":"IL","zip5":"62401","latitude":"39.1214150000000000","longitude":"-88.542090000000000","publicwifi":"U","url":null,"broadband_type_id":4}
{"id":null,"anchorname":"EFFINGHAM POLICE DEPARTMENT","address":"206 EAST SECTION AVENUE","bldgnbr":"206","predir":"E","streetname":"SECTION","streettype":"AVE","suffdir":null,"city":"EFFINGHAM","state_code":"IL","zip5":"62401","latitude":"39.1204560000000000","longitude":"-88.540719000000000","publicwifi":"U","url":null,"broadband_type_id":4}
{"id":null,"anchorname":"ILLINOIS STATE POLICE  NETWORK (LOC)","address":"206 EAST SECTION , FLOOR 1","bldgnbr":"206","predir":"E","streetname":"SECTION","streettype":null,"suffdir":null,"city":"EFFINGHAM","state_code":"IL","zip5":"62401","latitude":"39.1204560000000000","longitude":"-88.540719000000000","publicwifi":"U","url":null,"broadband_type_id":4}
{"id":null,"anchorname":"EFFINGHAM JUNIOR HIGH SCHOOL","address":"600 SOUTH HENRIETTA ST","bldgnbr":"600","predir":"S","streetname":"HENRIETTA","streettype":"ST","suffdir":null,"city":"EFFINGHAM","state_code":"IL","zip5":"62401","latitude":"39.1176200000000000","longitude":"-88.556129000000000","publicwifi":"U","url":null,"broadband_type_id":6}
{"id":null,"anchorname":"SOUTH SIDE GRADE SCHOOL","address":"211 WEST DOUGLAS AVE","bldgnbr":"211","predir":"W","streetname":"DOUGLAS","streettype":"AVE","suffdir":null,"city":"EFFINGHAM","state_code":"IL","zip5":"62401","latitude":"39.1118720000000000","longitude":"-88.543632000000000","publicwifi":"U","url":null,"broadband_type_id":6}
{"id":null,"anchorname":"ILLINOIS HEALTHCARE AND FAMILY SERVICES","address":"401 INDUSTRIAL  AVENUE","bldgnbr":"401","predir":null,"streetname":"INDUSTRIAL","streettype":"AVE","suffdir":null,"city":"EFFINGHAM","state_code":"IL","zip5":"62401","latitude":"39.0978090000000000","longitude":"-88.547400000000000","publicwifi":"U","url":null,"broadband_type_id":3}
{"id":null,"anchorname":"ILLINOIS STATE POLICE","address":"401 INDUSTRIAL   DRIVE, FLOOR 1 STE A","bldgnbr":"401","predir":null,"streetname":"INDUSTRIAL","streettype":"DR","suffdir":null,"city":"EFFINGHAM","state_code":"IL","zip5":"62401","latitude":"39.0978090000000000","longitude":"-88.547400000000000","publicwifi":"U","url":null,"broadband_type_id":4}
{"id":null,"anchorname":"CENTRAL GRADE SCHOOL","address":"10421 NORTH US HWY 45","bldgnbr":"10421","predir":"N","streetname":"US HIGHWAY 45","streettype":null,"suffdir":null,"city":"EFFINGHAM","state_code":"IL","zip5":"62401","latitude":"39.0717950000000000","longitude":"-88.549372000000000","publicwifi":"U","url":null,"broadband_type_id":6}
{"id":null,"anchorname":"EFFINGHAM REHAB \u0026 HEALTH C CTR","address":"1610 NORTH LAKEWOOD DRIVE","bldgnbr":"1610","predir":"N","streetname":"LAKEWOOD","streettype":"DR","suffdir":null,"city":"EFFINGHAM","state_code":"IL","zip5":"62401","latitude":"39.1250620000000000","longitude":"-88.564175000000000","publicwifi":"U","url":null,"broadband_type_id":3}
{"id":null,"anchorname":"SHELL POINT VILLAGE","address":"15051 SHELL POINT BLVD, FORT MYERS, FL, 33908","bldgnbr":"15051","predir":"0","streetname":"SHELL POINT","streettype":"BLVD","suffdir":"0","city":"FORT MYERS","state_code":"FL","zip5":"33908","latitude":"26.5176790000000000","longitude":"-81.996960000000000","publicwifi":"U","url":"0","broadband_type_id":1}
{"id":null,"anchorname":"GULF COAST BAPTIST ACADEMY","address":"312 SE 24TH AVENUE, CAPE CORAL, FL 33990","bldgnbr":"312","predir":null,"streetname":"24TH","streettype":"AVE","suffdir":null,"city":"CAPE CORAL","state_code":"FL","zip5":"33990","latitude":"26.6463801400000000","longitude":"-81.924523670000000","publicwifi":"U","url":"0","broadband_type_id":6}
{"id":null,"anchorname":"FLORIDA DEPARTMENT OF CHILDREN AND FAMILIES","address":"5820 BUCKINGHAM RD, FORT MYERS, FL 33905","bldgnbr":"5820","predir":null,"streetname":"BUCKINGHAM","streettype":"RD","suffdir":null,"city":"FT MYERS","state_code":"FL","zip5":"33905","latitude":"26.6599969300000000","longitude":"-81.731610010000000","publicwifi":"Y","url":"0","broadband_type_id":6}
{"id":null,"anchorname":"FAYETTE COUNTY FARM BUREAU","address":"1125 Sunset Dr","bldgnbr":"1125","predir":null,"streetname":"Sunset","streettype":"DR","suffdir":null,"city":"VANDALIA","state_code":"IL","zip5":"62471","latitude":"38.9724730000000000","longitude":"-89.115112000000000","publicwifi":"U","url":null,"broadband_type_id":1}
{"id":null,"anchorname":"CEFS, AN ILLINOIS WORKNET PARTNER-VANDALIA","address":"517 WEST GALLATIN","bldgnbr":"517","predir":"W","streetname":"GALLATIN","streettype":null,"suffdir":null,"city":"VANDALIA","state_code":"IL","zip5":"62471","latitude":"38.9607820000000000","longitude":"-89.096355000000000","publicwifi":"U","url":null,"broadband_type_id":6}
{"id":null,"anchorname":"ILLINOIS SECRETARY OF STATE","address":"13 OLD CAPITOL SHOPPING  COURT","bldgnbr":"13","predir":null,"streetname":"OLD CAPITAL SHOPPING","streettype":"CT","suffdir":null,"city":"VANDALIA","state_code":"IL","zip5":"62471","latitude":"38.9603270000000000","longitude":"-89.092224000000000","publicwifi":"U","url":null,"broadband_type_id":6}
{"id":null,"anchorname":"ILLINOIS DEPT OF HUMAN SERVICES","address":"228 WEST JOHNSON","bldgnbr":"228","predir":"W","streetname":"JOHNSON","streettype":null,"suffdir":null,"city":"VANDALIA","state_code":"IL","zip5":"62471","latitude":"38.9595100000000000","longitude":"-89.092308000000000","publicwifi":"U","url":null,"broadband_type_id":6}
{"id":null,"anchorname":"VANDALIA TERRACE","address":"1610 HILLSBORO ROAD","bldgnbr":"1610","predir":null,"streetname":"HILLSBORO","streettype":"RD","suffdir":null,"city":"VANDALIA","state_code":"IL","zip5":"62471","latitude":"38.9763870000000000","longitude":"-89.115618000000000","publicwifi":"U","url":null,"broadband_type_id":null}
