{"id":null,"anchorname":"Parkston School District 33-3","address":"102A S CHAPMAN, PARKSTON, SD 57366","bldgnbr":"102","predir":null,"streetname":"AS HIGHWAY CHAPMAN","streettype":null,"suffdir":null,"city":"PARKSTON","state_code":"SD","zip5":"57366","latitude":"43.3988680690000000","longitude":"-97.983674166000000","publicwifi":"U","url":null,"broadband_type_id":6}
{"id":null,"anchorname":"Parkston School District 33-3","address":"102 A S. Chapman, PARKSTON, SD 57366","bldgnbr":"102","predir":null,"streetname":"AS HIGHWAY CHAPMAN","streettype":null,"suffdir":null,"city":"PARKSTON","state_code":"SD","zip5":"57366","latitude":"43.3988680690000000","longitude":"-97.983674166000000","publicwifi":"U","url":null,"broadband_type_id":6}
{"id":null,"anchorname":"Parkston School District 33-3","address":"102C S CHAPMAN, PARKSTON, SD 57366","bldgnbr":"102","predir":null,"streetname":"AS HIGHWAY CHAPMAN","streettype":null,"suffdir":null,"city":"PARKSTON","state_code":"SD","zip5":"57366","latitude":"43.3988680690000000","longitude":"-97.983674166000000","publicwifi":"U","url":null,"broadband_type_id":6}
{"id":null,"anchorname":"South Dakota Dept. of Health","address":"401 W GLENN DR, PARKSTON, SD 57366","bldgnbr":"401","predir":"W","streetname":"GLENN","streettype":"DR","suffdir":null,"city":"PARKSTON","state_code":"SD","zip5":"57366","latitude":"43.3988680690000000","longitude":"-97.983674166000000","publicwifi":"U","url":"http://doh.sd.gov","broadband_type_id":3}
{"id":null,"anchorname":"Parkston Police Dept.","address":"201 W Main St, Parkston, SD 57366-490","bldgnbr":"201","predir":"W","streetname":"Main","streettype":"ST","suffdir":null,"city":"Parkston","state_code":"SD","zip5":"57366","latitude":"43.3947674770000000","longitude":"-97.987312358000000","publicwifi":"U","url":null,"broadband_type_id":4}
{"id":null,"anchorname":"PARKSTON PUBLIC LIBRARY","address":"110 W MAIN ST, PARKSTON, SD 57366-1207","bldgnbr":"110","predir":"W","streetname":"MAIN","streettype":"ST","suffdir":null,"city":"PARKSTON","state_code":"SD","zip5":"57366","latitude":"43.3947215700000000","longitude":"-97.986134166000000","publicwifi":"U","url":null,"broadband_type_id":6}
{"id":null,"anchorname":"Freeman School District 33-1","address":"27709 Tschetter Ave, Olivet, SD 57052","bldgnbr":"27709","predir":null,"streetname":"Tschetter","streettype":"AVE","suffdir":null,"city":"Olivet","state_code":"SD","zip5":"57052","latitude":"43.3681361120000000","longitude":"-97.687764432000000","publicwifi":"U","url":null,"broadband_type_id":6}
{"id":null,"anchorname":"Hutchinson County Courthouse","address":"140 E EUCLID, OLIVET, SD 57052","bldgnbr":"140","predir":"E","streetname":"EUCLID","streettype":null,"suffdir":null,"city":"OLIVET","state_code":"SD","zip5":"57052","latitude":"43.2407381700000000","longitude":"-97.677259369000000","publicwifi":"U","url":null,"broadband_type_id":1}
{"id":null,"anchorname":"Scotland School District 04-3","address":"711 4TH ST, SCOTLAND, SD 57059","bldgnbr":"711","predir":null,"streetname":"4TH","streettype":"ST","suffdir":null,"city":"SCOTLAND","state_code":"SD","zip5":"57059","latitude":"43.1900823880000000","longitude":"-97.839691433000000","publicwifi":"U","url":null,"broadband_type_id":6}
{"id":null,"anchorname":"Scotland School District 04-3","address":"711 4TH ST, SCOTLAND, SD 57059","bldgnbr":"711","predir":null,"streetname":"4TH","streettype":"ST","suffdir":null,"city":"SCOTLAND","state_code":"SD","zip5":"57059","latitude":"43.1900823880000000","longitude":"-97.839691433000000","publicwifi":"U","url":null,"broadband_type_id":6}
{"id":null,"anchorname":"Menno School District 33-2","address":"42805 Maxwell Rd, Scotland, SD 57059","bldgnbr":"42805","predir":null,"streetname":"Maxwell","streettype":"RD","suffdir":null,"city":"Scotland","state_code":"SD","zip5":"57059","latitude":"43.1840241240000000","longitude":"-97.638164903000000","publicwifi":"U","url":null,"broadband_type_id":6}
{"id":null,"anchorname":"Hutchinson County Sheriffs Office","address":"140 E Euclid, Olivet, SD 57052-2103","bldgnbr":"140","predir":"E","streetname":"Euclid","streettype":null,"suffdir":null,"city":"Olivet","state_code":"SD","zip5":"57052","latitude":"43.2408274780000000","longitude":"-97.674740745000000","publicwifi":"U","url":null,"broadband_type_id":4}
{"id":null,"anchorname":"Tripp-Delmont School District 33-5","address":"105 S SLOAN ST, TRIPP, SD 57376","bldgnbr":"105","predir":"S","streetname":"SLOAN","streettype":"ST","suffdir":null,"city":"TRIPP","state_code":"SD","zip5":"57376","latitude":"43.2244863930000000","longitude":"-97.966978394000000","publicwifi":"N","url":"http://www.tridel.k12.sd.us/","broadband_type_id":6}
{"id":null,"anchorname":"Tripp Police Department","address":"105 S Main St, Tripp, SD 57376","bldgnbr":"105","predir":"S","streetname":"Main","streettype":"ST","suffdir":null,"city":"Tripp","state_code":"SD","zip5":"57376","latitude":"43.2264420140000000","longitude":"-97.965713724000000","publicwifi":"N","url":null,"broadband_type_id":4}
{"id":null,"anchorname":"Tripp Vol. Fire Department / Ambulance","address":"205 S Main St, Tripp, SD 57376","bldgnbr":"205","predir":"S","streetname":"Main","streettype":"ST","suffdir":null,"city":"Tripp","state_code":"SD","zip5":"57376","latitude":"43.2254341330000000","longitude":"-97.965675138000000","publicwifi":"U","url":null,"broadband_type_id":5}
{"id":null,"anchorname":"TRIPP PUBLIC LIBRARY","address":"102 E 2ND ST, TRIPP, SD 57376-336","bldgnbr":"102","predir":"E","streetname":"2ND","streettype":"ST","suffdir":null,"city":"TRIPP","state_code":"SD","zip5":"57376","latitude":"43.2245015930000000","longitude":"-97.965421195000000","publicwifi":"U","url":null,"broadband_type_id":6}
{"id":null,"anchorname":"HYDE COUNTY LIBRARY","address":"107 COMMERCIAL AVE SE, HIGHMORE, SD 57345-479","bldgnbr":"107","predir":null,"streetname":"COMMERCIAL","streettype":"AVE","suffdir":"SE","city":"HIGHMORE","state_code":"SD","zip5":"57345","latitude":"44.5202025230000000","longitude":"-99.440177622000000","publicwifi":"U","url":null,"broadband_type_id":6}
{"id":null,"anchorname":"Highmore Healthcare Center","address":"410   8th St SE, Highmore, SD 57345-2200","bldgnbr":"410","predir":null,"streetname":"8th","streettype":"ST","suffdir":"SE","city":"Highmore","state_code":"SD","zip5":"57345","latitude":"44.5200662770000000","longitude":"-99.440158926000000","publicwifi":"U","url":null,"broadband_type_id":3}
{"id":null,"anchorname":"Highmore-Harrold School District 34-2","address":"415 IOWA AVE S, HIGHMORE, SD 57345","bldgnbr":"415","predir":null,"streetname":"IOWA","streettype":"AVE","suffdir":"S","city":"HIGHMORE","state_code":"SD","zip5":"57345","latitude":"44.5167932240000000","longitude":"-99.441604023000000","publicwifi":"U","url":null,"broadband_type_id":6}
{"id":null,"anchorname":"Highmore-Harrold School District 34-2","address":"415 IOWA AVE S, HIGHMORE, SD 57345","bldgnbr":"415","predir":null,"streetname":"IOWA","streettype":"AVE","suffdir":"S","city":"HIGHMORE","state_code":"SD","zip5":"57345","latitude":"44.5167932240000000","longitude":"-99.441604023000000","publicwifi":"U","url":null,"broadband_type_id":6}
{"id":null,"anchorname":"Community Action Partnership of Strafford County","address":"1 Wakefield St, Rochester, NH 03867","bldgnbr":"1","predir":null,"streetname":"Wakefield","streettype":"St","suffdir":null,"city":"Rochester","state_code":"NH","zip5":"03867","latitude":"43.3044089320000000","longitude":"-70.975717756000000","publicwifi":"U","url":"http://www.straffordcap.org","broadband_type_id":1}
{"id":null,"anchorname":"Rochester - Water Treatment Plant","address":"64 Strafford Rd, Rochester, NH 03867","bldgnbr":"64","predir":null,"streetname":"Strafford","streettype":"Rd","suffdir":null,"city":"Rochester","state_code":"NH","zip5":"03867","latitude":"43.2904137550000000","longitude":"-71.042678899000000","publicwifi":"N","url":null,"broadband_type_id":6}
{"id":null,"anchorname":"Croydon - Highway","address":"14 Pine Hill Rd, Croydon, NH 03773","bldgnbr":"14","predir":null,"streetname":"Pine Hill","streettype":"Rd","suffdir":null,"city":"Croydon","state_code":"NH","zip5":"03773","latitude":"43.4525016170000000","longitude":"-72.159394441000000","publicwifi":"N","url":"http://www.croydonnh.us/","broadband_type_id":6}
{"id":null,"anchorname":"State of South Dakota","address":"245 CRAZY HORSE SCHOOL DR, WANBLEE, SD 57577","bldgnbr":"245","predir":null,"streetname":"CRAZY HORSE SCHOOL","streettype":"DR","suffdir":null,"city":"WANBLEE","state_code":"SD","zip5":"57577","latitude":"43.5480983970000000","longitude":"-101.81372429000000","publicwifi":"U","url":"http://www.sd.gov","broadband_type_id":1}
{"id":null,"anchorname":"State of South Dakota","address":"606 1ST ST NE, WESSINGTON SPRINGS, SD 57582","bldgnbr":"606","predir":null,"streetname":"1ST","streettype":"ST","suffdir":"NE","city":"WESSINGTON SPRINGS","state_code":"SD","zip5":"57582","latitude":"44.0783537170000000","longitude":"-98.563632318000000","publicwifi":"U","url":"http://www.sd.gov","broadband_type_id":1}
{"id":null,"anchorname":"Interior CPO","address":"109 N Main St, Interior, SD 57750","bldgnbr":"109","predir":"N","streetname":"Main","streettype":"St","suffdir":null,"city":"Interior","state_code":"SD","zip5":"57750","latitude":"43.7270104790000000","longitude":"-101.98540536600000","publicwifi":"N","url":null,"broadband_type_id":null}
{"id":null,"anchorname":"Highmore Police Department","address":"412   Commercial   SE, Highmore, SD 57345","bldgnbr":"412","predir":null,"streetname":"Commercial","streettype":null,"suffdir":"SE","city":"Highmore","state_code":"SD","zip5":"57345","latitude":"44.5168308400000000","longitude":"-99.440040890000000","publicwifi":"U","url":null,"broadband_type_id":4}
{"id":null,"anchorname":"Highmore Fire Department And Ambulance","address":"100   Commercial   SE,  , SD 57345","bldgnbr":"100","predir":null,"streetname":"COMMERCIAL","streettype":null,"suffdir":"SE","city":"N/A","state_code":"SD","zip5":"57345","latitude":"44.5226252650000000","longitude":"-99.440084037000000","publicwifi":"U","url":null,"broadband_type_id":5}
{"id":null,"anchorname":"Kadoka School District 35-1","address":"26840 SD HIGHWAY 73, LONG VALLEY, SD 57547","bldgnbr":"26840","predir":null,"streetname":"SD HIGHWAY 73","streettype":null,"suffdir":null,"city":"LONG VALLEY","state_code":"SD","zip5":"57547","latitude":"43.4982753170000000","longitude":"-101.50098344300000","publicwifi":"U","url":null,"broadband_type_id":6}
{"id":null,"anchorname":"LONG VALLEY BRANCH JACKSON COUNTY LIBRARY","address":"PO BOX 27, LONG VALLEY, SD 57547-27","bldgnbr":"0","predir":null,"streetname":"N/A","streettype":null,"suffdir":null,"city":"LONG VALLEY","state_code":"SD","zip5":"57547","latitude":"43.5868947950000000","longitude":"-101.36904026400000","publicwifi":"U","url":null,"broadband_type_id":6}
{"id":null,"anchorname":"EAGLES NEST COLLEGE CENTER-OLC","address":"PO BOX 476, WANBLEE, SD 57577-476","bldgnbr":"0","predir":null,"streetname":"N/A","streettype":null,"suffdir":null,"city":"WANBLEE","state_code":"SD","zip5":"57577","latitude":"43.5443298350000000","longitude":"-101.80915015900000","publicwifi":"U","url":null,"broadband_type_id":6}
{"id":null,"anchorname":"South Dakota Game Fish and Parks","address":"25650 SD HIGHWAY 73, KADOKA, SD 57543","bldgnbr":"25650","predir":null,"streetname":"SD HIGHWAY 73","streettype":null,"suffdir":null,"city":"KADOKA","state_code":"SD","zip5":"57543","latitude":"43.8429075740000000","longitude":"-101.52458558700000","publicwifi":"U","url":"http://gfp.sd.gov","broadband_type_id":2}
{"id":null,"anchorname":"Kadoka Clinic","address":"601   Chestnut, Kadoka, SD 57543-460","bldgnbr":"601","predir":null,"streetname":"Chestnut","streettype":null,"suffdir":null,"city":"Kadoka","state_code":"SD","zip5":"57543","latitude":"43.8373073250000000","longitude":"-101.52008550300000","publicwifi":"U","url":null,"broadband_type_id":3}
{"id":null,"anchorname":"South Dakota Dept. of Health","address":"720 6TH AVE, KADOKA, SD 57543","bldgnbr":"720","predir":null,"streetname":"6TH","streettype":"AVE","suffdir":null,"city":"KADOKA","state_code":"SD","zip5":"57543","latitude":"43.8375957740000000","longitude":"-101.52052018900000","publicwifi":"U","url":"http://doh.sd.gov","broadband_type_id":3}
{"id":null,"anchorname":"Jackson County Courthouse","address":"1 S MAIN ST, KADOKA, SD 57543","bldgnbr":"1","predir":"S","streetname":"MAIN","streettype":"ST","suffdir":null,"city":"KADOKA","state_code":"SD","zip5":"57543","latitude":"43.8314455740000000","longitude":"-101.50973799300000","publicwifi":"U","url":null,"broadband_type_id":1}
{"id":null,"anchorname":"JACKSON COUNTY LIBRARY","address":"910 MAIN STREET, KADOKA, SD 57543-368","bldgnbr":"910","predir":null,"streetname":"MAIN","streettype":"ST","suffdir":null,"city":"KADOKA","state_code":"SD","zip5":"57543","latitude":"43.8298147740000000","longitude":"-101.50857319300000","publicwifi":"Y","url":"https://sites.google.com/site/jacksoncountylibrary/","broadband_type_id":6}
{"id":null,"anchorname":"Kadoka Vol. Ambulance / Fire Dept.","address":"810   Main St, Kadoka, SD 57543","bldgnbr":"810","predir":null,"streetname":"Main","streettype":"ST","suffdir":null,"city":"Kadoka","state_code":"SD","zip5":"57543","latitude":"43.8310548850000000","longitude":"-101.50950976200000","publicwifi":"N","url":null,"broadband_type_id":5}
{"id":null,"anchorname":"Kadoka School District 35-1","address":"800 BAYBERRY ST, KADOKA, SD 57543","bldgnbr":"800","predir":null,"streetname":"BAYBERRY","streettype":"ST","suffdir":null,"city":"KADOKA","state_code":"SD","zip5":"57543","latitude":"43.8368042730000000","longitude":"-101.50876599200000","publicwifi":"U","url":null,"broadband_type_id":6}
{"id":null,"anchorname":"Kadoka School District 35-1","address":"800 BAYBERRY ST, KADOKA, SD 57543","bldgnbr":"800","predir":null,"streetname":"BAYBERRY","streettype":"ST","suffdir":null,"city":"KADOKA","state_code":"SD","zip5":"57543","latitude":"43.8368042730000000","longitude":"-101.50876599200000","publicwifi":"U","url":null,"broadband_type_id":6}
{"id":null,"anchorname":"Kadoka Police Dept / Jackson County Sheriff","address":"700   Main St, Kadoka, SD 57543","bldgnbr":"700","predir":null,"streetname":"Main","streettype":"ST","suffdir":null,"city":"Kadoka","state_code":"SD","zip5":"57543","latitude":"43.8317520200000000","longitude":"-101.51006705800000","publicwifi":"U","url":null,"broadband_type_id":4}
{"id":null,"anchorname":"Wessington Springs School District 36-2","address":"23064 365th Ave, WESSINGTON SPRINGS, SD 57382","bldgnbr":"23064","predir":null,"streetname":"365th","streettype":"AVE","suffdir":null,"city":"WESSINGTON SPRINGS","state_code":"SD","zip5":"57382","latitude":"44.0428658440000000","longitude":"-98.887188460000000","publicwifi":"N","url":"http://www.wessingtonsprings.k12.sd.us","broadband_type_id":6}
{"id":null,"anchorname":"Wessington Springs School District 36-2","address":"904 2ND ST NE, WESSINGTON SPRINGS, SD 57382","bldgnbr":"904","predir":null,"streetname":"2ND","streettype":"ST","suffdir":"NE","city":"WESSINGTON SPRINGS","state_code":"SD","zip5":"57382","latitude":"44.0817575160000000","longitude":"-98.559952119000000","publicwifi":"N","url":"http://www.wessingtonsprings.k12.sd.us","broadband_type_id":6}
{"id":null,"anchorname":"Wessington Springs School District 36-2","address":"904 2ND ST NE, WESSINGTON SPRINGS, SD 57382","bldgnbr":"904","predir":null,"streetname":"2ND","streettype":"ST","suffdir":"NE","city":"WESSINGTON SPRINGS","state_code":"SD","zip5":"57382","latitude":"44.0817575160000000","longitude":"-98.559952119000000","publicwifi":"N","url":"http://www.wessingtonsprings.k12.sd.us","broadband_type_id":6}
{"id":null,"anchorname":"Wessington Springs School District 36-2","address":"302 DAKOTA AVE N, WESSINGTON SPRINGS, SD 57382","bldgnbr":"302","predir":null,"streetname":"DAKOTA","streettype":"AVE","suffdir":"N","city":"WESSINGTON SPRINGS","state_code":"SD","zip5":"57382","latitude":"44.0814191170000000","longitude":"-98.570888816000000","publicwifi":"N","url":"http://www.wessingtonsprings.k12.sd.us","broadband_type_id":6}
{"id":null,"anchorname":"WESSINGTON SPRINGS CARNEGIE LIBRARY","address":"109 WEST MAIN STREET, WESSINGTON SPRINGS, SD 57382-336","bldgnbr":"109","predir":"W","streetname":"MAIN","streettype":"ST","suffdir":null,"city":"WESSINGTON SPRINGS","state_code":"SD","zip5":"57382","latitude":"44.0793695170000000","longitude":"-98.571014916000000","publicwifi":"U","url":null,"broadband_type_id":6}
{"id":null,"anchorname":"Jerauld County Courthouse","address":"205 S WALLACE, WESSINGTON SPRINGS, SD 57382","bldgnbr":"205","predir":"S","streetname":"WALLACE","streettype":null,"suffdir":null,"city":"WESSINGTON SPRINGS","state_code":"SD","zip5":"57382","latitude":"44.0783899170000000","longitude":"-98.569442216000000","publicwifi":"U","url":null,"broadband_type_id":1}
{"id":null,"anchorname":"South Dakota Dept. of Health","address":"115 E MAIN, WESSINGTON SPRINGS, SD 57382","bldgnbr":"115","predir":"E","streetname":"MAIN","streettype":null,"suffdir":null,"city":"WESSINGTON SPRINGS","state_code":"SD","zip5":"57382","latitude":"44.0793512170000000","longitude":"-98.570645516000000","publicwifi":"U","url":"http://doh.sd.gov","broadband_type_id":3}
{"id":null,"anchorname":"Jerauld County Sheriffs Department","address":"205 S Wallace, Wessington Springs, SD 57382","bldgnbr":"205","predir":"S","streetname":"Wallace","streettype":null,"suffdir":null,"city":"Wessington Springs","state_code":"SD","zip5":"57382","latitude":"44.0782126030000000","longitude":"-98.569451494000000","publicwifi":"U","url":null,"broadband_type_id":4}
{"id":null,"anchorname":"Jones County Courthouse","address":"310 MAIN ST, MURDO, SD 57559","bldgnbr":"310","predir":null,"streetname":"MAIN","streettype":"ST","suffdir":null,"city":"MURDO","state_code":"SD","zip5":"57559","latitude":"43.8909886050000000","longitude":"-100.71322308600000","publicwifi":"U","url":null,"broadband_type_id":1}
{"id":null,"anchorname":"Jones County School District 37-3","address":"305 Jefferson Ave, MURDO, SD 57559","bldgnbr":"305","predir":null,"streetname":"Jefferson","streettype":"AVE","suffdir":null,"city":"MURDO","state_code":"SD","zip5":"57559","latitude":"43.8885728830000000","longitude":"-100.70901762900000","publicwifi":"U","url":null,"broadband_type_id":6}
{"id":null,"anchorname":"Jones County School District 37-3","address":"404 JACKSON AVE, MURDO, SD 57559","bldgnbr":"404","predir":null,"streetname":"JACKSON","streettype":"AVE","suffdir":null,"city":"MURDO","state_code":"SD","zip5":"57559","latitude":"43.8875364300000000","longitude":"-100.70755425000000","publicwifi":"U","url":null,"broadband_type_id":6}
{"id":null,"anchorname":"Jones County School District 37-3","address":"404 JACKSON AVE, MURDO, SD 57559","bldgnbr":"404","predir":null,"streetname":"JACKSON","streettype":"AVE","suffdir":null,"city":"MURDO","state_code":"SD","zip5":"57559","latitude":"43.8875364300000000","longitude":"-100.70755425000000","publicwifi":"U","url":null,"broadband_type_id":6}
{"id":null,"anchorname":"South Dakota Dept. of Health","address":"609 GARFIELD, MURDO, SD 57559","bldgnbr":"609","predir":null,"streetname":"GARFIELD","streettype":null,"suffdir":null,"city":"MURDO","state_code":"SD","zip5":"57559","latitude":"43.8855456050000000","longitude":"-100.71180028700000","publicwifi":"U","url":"http://doh.sd.gov","broadband_type_id":3}
{"id":null,"anchorname":"Jones County Clinic","address":"609   Garfield, Murdo, SD 57559","bldgnbr":"609","predir":null,"streetname":"Garfield","streettype":null,"suffdir":null,"city":"Murdo","state_code":"SD","zip5":"57559","latitude":"43.8855454090000000","longitude":"-100.71203950700000","publicwifi":"U","url":null,"broadband_type_id":3}
{"id":null,"anchorname":"South Dakota Dept. of Transportation","address":"SOUTH HIGHWAY 83, MURDO, SD 57559","bldgnbr":"N/A","predir":null,"streetname":"N/A","streettype":null,"suffdir":null,"city":"MURDO","state_code":"SD","zip5":"57559","latitude":"43.8540463130000000","longitude":"-100.75487548100000","publicwifi":"U","url":"http://www.sddot.com","broadband_type_id":null}
{"id":null,"anchorname":"Lighthouse Christian Academy","address":"17 Heaton St, Rochester, NH 03867","bldgnbr":"17","predir":null,"streetname":"Heaton","streettype":"St","suffdir":null,"city":"Rochester","state_code":"NH","zip5":"03867","latitude":"43.3050661310000000","longitude":"-70.969970595000000","publicwifi":"N","url":"http://harvestofpraisecog.com/LightHouseChristianAcademy.dsp","broadband_type_id":6}
{"id":null,"anchorname":"Emma Ramsey Community Center","address":"424 White Mountain Hwy, Milton, NH 03851","bldgnbr":"424","predir":null,"streetname":"White Mountain","streettype":"Hwy","suffdir":null,"city":"Milton","state_code":"NH","zip5":"03851","latitude":"43.4056418740000000","longitude":"-70.989026190000000","publicwifi":"U","url":"http://www.miltonnh-us.com/","broadband_type_id":6}
{"id":null,"anchorname":"J.H.S. 067 Louis Pasteur","address":"51-60 MARATHON PARKWAY","bldgnbr":"51-60","predir":null,"streetname":"MARATHON","streettype":"Parkway","suffdir":null,"city":"QUEENS","state_code":"NY","zip5":"11362","latitude":"40.7625585580000000","longitude":"-73.734281890000000","publicwifi":"N","url":null,"broadband_type_id":6}
{"id":null,"anchorname":"Good Samaritan Society - De Smet","address":"411   Calumet   NW, De Smet, SD 57231-2114","bldgnbr":"411","predir":null,"streetname":"Calumet","streettype":null,"suffdir":"NW","city":"De Smet","state_code":"SD","zip5":"57231","latitude":"44.3910675780000000","longitude":"-97.548491415000000","publicwifi":"U","url":null,"broadband_type_id":null}
{"id":null,"anchorname":"South Dakota Dept. of Transportation","address":"20455 N HIGHWAY 25, DESMET, SD 57231","bldgnbr":"20455","predir":"N","streetname":"HIGHWAY 25","streettype":null,"suffdir":null,"city":"DESMET","state_code":"SD","zip5":"57231","latitude":"44.3686108010000000","longitude":"-97.551682646000000","publicwifi":"U","url":"http://www.sddot.com","broadband_type_id":null}
{"id":null,"anchorname":"Lake Preston Police Department","address":"111   3rd St NE, Lake Preston, SD 57249","bldgnbr":"111","predir":null,"streetname":"3rd","streettype":"ST","suffdir":"NE","city":"Lake Preston","state_code":"SD","zip5":"57249","latitude":"44.3634137640000000","longitude":"-97.377119074000000","publicwifi":"U","url":null,"broadband_type_id":4}
{"id":null,"anchorname":"Lake Preston Vol. Fire Dept / Ambulance","address":"225   Main Ave N, Lake Preston, SD 57249","bldgnbr":"225","predir":null,"streetname":"Main","streettype":"AVE","suffdir":"N","city":"Lake Preston","state_code":"SD","zip5":"57249","latitude":"44.3626534190000000","longitude":"-97.377207794000000","publicwifi":"U","url":null,"broadband_type_id":5}
{"id":null,"anchorname":"Arlington Ambulance Service / Fire Dept.","address":"202 W Elm, Arlington, SD 57212-2068","bldgnbr":"202","predir":"W","streetname":"Elm","streettype":null,"suffdir":null,"city":"Arlington","state_code":"SD","zip5":"57212","latitude":"44.3651430250000000","longitude":"-97.134737332000000","publicwifi":"U","url":null,"broadband_type_id":5}
{"id":null,"anchorname":"Badger Volunteer Fire Department","address":"332 E Main St, Badger, SD 57214","bldgnbr":"332","predir":"E","streetname":"Main","streettype":"ST","suffdir":null,"city":"Badger","state_code":"SD","zip5":"57214","latitude":"44.4851580510000000","longitude":"-97.208761854000000","publicwifi":"U","url":null,"broadband_type_id":5}
{"id":null,"anchorname":"Arlington Medical Clinic","address":"104 W Birch, Arlington, SD 57212","bldgnbr":"104","predir":"W","streetname":"Birch","streettype":null,"suffdir":null,"city":"Arlington","state_code":"SD","zip5":"57212","latitude":"44.3634990520000000","longitude":"-97.134670587000000","publicwifi":"U","url":null,"broadband_type_id":3}
{"id":null,"anchorname":"Arlington School District 38-1","address":"306 S MAIN ST, ARLINGTON, SD 57212","bldgnbr":"306","predir":"S","streetname":"MAIN","streettype":"ST","suffdir":null,"city":"ARLINGTON","state_code":"SD","zip5":"57212","latitude":"44.3620789720000000","longitude":"-97.137003659000000","publicwifi":"U","url":null,"broadband_type_id":6}
{"id":null,"anchorname":"Arlington School District 38-1","address":"306 S MAIN ST, ARLINGTON, SD 57212","bldgnbr":"306","predir":"S","streetname":"MAIN","streettype":"ST","suffdir":null,"city":"ARLINGTON","state_code":"SD","zip5":"57212","latitude":"44.3620789720000000","longitude":"-97.137003659000000","publicwifi":"U","url":null,"broadband_type_id":6}
{"id":null,"anchorname":"Arlington School District 38-1","address":"306 S MAIN ST, ARLINGTON, SD 57212","bldgnbr":"306","predir":"S","streetname":"MAIN","streettype":"ST","suffdir":null,"city":"ARLINGTON","state_code":"SD","zip5":"57212","latitude":"44.3620789720000000","longitude":"-97.137003659000000","publicwifi":"U","url":null,"broadband_type_id":6}
{"id":null,"anchorname":"Oldham - Ramona School District 39-5","address":"21727 452nd Ave, Arlington, SD 57212","bldgnbr":"21727","predir":null,"streetname":"452nd","streettype":"AVE","suffdir":null,"city":"Arlington","state_code":"SD","zip5":"57212","latitude":"44.2353505610000000","longitude":"-97.169628733000000","publicwifi":"U","url":null,"broadband_type_id":6}
{"id":null,"anchorname":"Lake Preston School District 38-3","address":"303 1ST ST, LAKE PRESTON, SD 57249","bldgnbr":"303","predir":null,"streetname":"1ST","streettype":"ST","suffdir":null,"city":"LAKE PRESTON","state_code":"SD","zip5":"57249","latitude":"44.3613242900000000","longitude":"-97.387395691000000","publicwifi":"U","url":null,"broadband_type_id":6}
{"id":null,"anchorname":"Lake Preston School District 38-3","address":"303 1ST ST, LAKE PRESTON, SD 57249","bldgnbr":"303","predir":null,"streetname":"1ST","streettype":"ST","suffdir":null,"city":"LAKE PRESTON","state_code":"SD","zip5":"57249","latitude":"44.3613242900000000","longitude":"-97.387395691000000","publicwifi":"U","url":null,"broadband_type_id":6}
{"id":null,"anchorname":"Lake Preston School District 38-3","address":"303 1ST ST, LAKE PRESTON, SD 57249","bldgnbr":"303","predir":null,"streetname":"1ST","streettype":"ST","suffdir":null,"city":"LAKE PRESTON","state_code":"SD","zip5":"57249","latitude":"44.3613242900000000","longitude":"-97.387395691000000","publicwifi":"U","url":null,"broadband_type_id":6}
{"id":null,"anchorname":"South Dakota Game Fish and Parks","address":"21176 FLOOD CLUB RD, LAKE PRESTON, SD 57249","bldgnbr":"21176","predir":null,"streetname":"FLOOD CLUB","streettype":"RD","suffdir":null,"city":"LAKE PRESTON","state_code":"SD","zip5":"57249","latitude":"44.3218680000000000","longitude":"-97.444029382000000","publicwifi":"U","url":"http://gfp.sd.gov","broadband_type_id":2}
{"id":null,"anchorname":"Oldham Volunteer Fire Department","address":"101 N Railroad, Oldham, SD 57051","bldgnbr":"101","predir":"N","streetname":"Railroad","streettype":null,"suffdir":null,"city":"Oldham","state_code":"SD","zip5":"57051","latitude":"44.2276524190000000","longitude":"-97.307554969000000","publicwifi":"U","url":null,"broadband_type_id":5}
{"id":null,"anchorname":"Kingsbury County Sheriffs Office","address":"204   2nd St SE, De Smet, SD 57231","bldgnbr":"204","predir":null,"streetname":"2nd","streettype":"ST","suffdir":"SE","city":"De Smet","state_code":"SD","zip5":"57231","latitude":"44.3859720000000000","longitude":"-97.547334299000000","publicwifi":"N","url":null,"broadband_type_id":4}
{"id":null,"anchorname":"Kingsbury County Courthouse","address":"202 2ND ST SE, DESMET, SD 57231","bldgnbr":"202","predir":null,"streetname":"2ND","streettype":"ST","suffdir":"SE","city":"DESMET","state_code":"SD","zip5":"57231","latitude":"44.3859515990000000","longitude":"-97.547435745000000","publicwifi":"U","url":null,"broadband_type_id":1}
{"id":null,"anchorname":"Desmet Vol. Fire Dept / Emergency Rescue","address":"307   Calumet   SE, De Smet, SD 57231","bldgnbr":"307","predir":null,"streetname":"Calumet","streettype":null,"suffdir":"SE","city":"De Smet","state_code":"SD","zip5":"57231","latitude":"44.3848613720000000","longitude":"-97.549556967000000","publicwifi":"U","url":null,"broadband_type_id":5}
{"id":null,"anchorname":"HAZEL L. MEYER MEMORIAL LIBRARY","address":"114 1ST STREET, DE SMET, SD 57231-156","bldgnbr":"114","predir":null,"streetname":"1ST","streettype":"ST","suffdir":null,"city":"DE SMET","state_code":"SD","zip5":"57231","latitude":"44.3849403990000000","longitude":"-97.554463143000000","publicwifi":"U","url":null,"broadband_type_id":6}
{"id":null,"anchorname":"De Smet School District 38-2","address":"405 SW 3RD ST, DESMET, SD 57231","bldgnbr":"405","predir":"SW","streetname":"3RD","streettype":"ST","suffdir":null,"city":"DESMET","state_code":"SD","zip5":"57231","latitude":"44.3855832990000000","longitude":"-97.554507043000000","publicwifi":"U","url":null,"broadband_type_id":6}
{"id":null,"anchorname":"De Smet School District 38-2","address":"405 SW 3RD ST, DESMET, SD 57231","bldgnbr":"405","predir":null,"streetname":"3RD","streettype":"ST","suffdir":"SW","city":"DESMET","state_code":"SD","zip5":"57231","latitude":"44.3855832990000000","longitude":"-97.554507043000000","publicwifi":"U","url":null,"broadband_type_id":6}
{"id":null,"anchorname":"Avera Desmet Memorial Hospital","address":"306   Prairie   SW, De Smet, SD 57231-9499","bldgnbr":"306","predir":null,"streetname":"Prairie","streettype":null,"suffdir":"SW","city":"De Smet","state_code":"SD","zip5":"57231","latitude":"44.3863547980000000","longitude":"-97.561605383000000","publicwifi":"U","url":null,"broadband_type_id":3}
{"id":null,"anchorname":"De Smet Memorial Hospital","address":"306   Prairie   SW, De Smet, SD 57231-2285","bldgnbr":"306","predir":null,"streetname":"Prairie","streettype":null,"suffdir":"SW","city":"De Smet","state_code":"SD","zip5":"57231","latitude":"44.3863547980000000","longitude":"-97.561605383000000","publicwifi":"U","url":null,"broadband_type_id":3}
{"id":null,"anchorname":"Iroquois Fire And Rescue District","address":"120   Ottowa, Iroquois, SD 57353-2003","bldgnbr":"120","predir":null,"streetname":"Ottowa","streettype":null,"suffdir":null,"city":"Iroquois","state_code":"SD","zip5":"57353","latitude":"44.3676095630000000","longitude":"-97.849140199000000","publicwifi":"U","url":null,"broadband_type_id":5}
{"id":null,"anchorname":"Iroquois School District 02-3","address":"111 E WASHITA ST, IROQUOIS, SD 57353","bldgnbr":"111","predir":"E","streetname":"WASHITA","streettype":"ST","suffdir":null,"city":"IROQUOIS","state_code":"SD","zip5":"57353","latitude":"44.3669842240000000","longitude":"-97.852979266000000","publicwifi":"N","url":"http://www.iroquois.k12.sd.us/","broadband_type_id":6}
{"id":null,"anchorname":"Iroquois School District 02-3","address":"111 E WASHITA ST, IROQUOIS, SD 57353","bldgnbr":"111","predir":"E","streetname":"WASHITA","streettype":"ST","suffdir":null,"city":"IROQUOIS","state_code":"SD","zip5":"57353","latitude":"44.3669842240000000","longitude":"-97.852979266000000","publicwifi":"N","url":"http://www.iroquois.k12.sd.us/","broadband_type_id":6}
{"id":null,"anchorname":"Iroquois School District 02-3","address":"111 E WASHITA ST, IROQUOIS, SD 57353","bldgnbr":"111","predir":"E","streetname":"WASHITA","streettype":"ST","suffdir":null,"city":"IROQUOIS","state_code":"SD","zip5":"57353","latitude":"44.3669842240000000","longitude":"-97.852979266000000","publicwifi":"N","url":"http://www.iroquois.k12.sd.us/","broadband_type_id":6}
{"id":null,"anchorname":"Iroquois School District 02-3","address":"111 E WASHITA ST, IROQUOIS, SD 57353","bldgnbr":"111","predir":"E","streetname":"WASHITA","streettype":"ST","suffdir":null,"city":"IROQUOIS","state_code":"SD","zip5":"57353","latitude":"44.3669842240000000","longitude":"-97.852979266000000","publicwifi":"N","url":"http://www.iroquois.k12.sd.us/","broadband_type_id":6}
{"id":null,"anchorname":"Rutland School District 39-4","address":"123 MAIN ST, RUTLAND, SD 57057","bldgnbr":"123","predir":null,"streetname":"MAIN","streettype":"ST","suffdir":null,"city":"RUTLAND","state_code":"SD","zip5":"57057","latitude":"44.0895337980000000","longitude":"-96.965853544000000","publicwifi":"U","url":null,"broadband_type_id":6}
{"id":null,"anchorname":"Rutland School District 39-4","address":"123 MAIN ST, RUTLAND, SD 57057","bldgnbr":"123","predir":null,"streetname":"MAIN","streettype":"ST","suffdir":null,"city":"RUTLAND","state_code":"SD","zip5":"57057","latitude":"44.0895337980000000","longitude":"-96.965853544000000","publicwifi":"U","url":null,"broadband_type_id":6}
{"id":null,"anchorname":"Rutland School District 39-4","address":"123 MAIN ST, RUTLAND, SD 57057","bldgnbr":"123","predir":null,"streetname":"MAIN","streettype":"ST","suffdir":null,"city":"RUTLAND","state_code":"SD","zip5":"57057","latitude":"44.0895337980000000","longitude":"-96.965853544000000","publicwifi":"U","url":null,"broadband_type_id":6}
{"id":null,"anchorname":"Sunapee - Highway","address":"621 NH Rte 11 Rte, Sunapee, NH 03782","bldgnbr":"621","predir":null,"streetname":"NH Rte 11","streettype":"Rte","suffdir":null,"city":"Sunapee","state_code":"NH","zip5":"03782","latitude":"43.3941814270000000","longitude":"-72.087047535000000","publicwifi":"Y","url":null,"broadband_type_id":6}
{"id":null,"anchorname":"DIVINE WISDOM CATHOLIC ACADEMY","address":"45-11 245TH ST","bldgnbr":"45-11","predir":null,"streetname":"245TH","streettype":"St","suffdir":null,"city":"DOUGLASTON","state_code":"NY","zip5":"11362","latitude":"40.7651799980000000","longitude":"-73.740480002000000","publicwifi":"N","url":null,"broadband_type_id":6}
{"id":null,"anchorname":"The Community Center","address":"500 NE 11th St, Madison, SD 57042","bldgnbr":"500","predir":"NE","streetname":"11th","streettype":"ST","suffdir":null,"city":"Madison","state_code":"SD","zip5":"57042","latitude":"44.0170976210000000","longitude":"-97.108298883000000","publicwifi":"U","url":null,"broadband_type_id":1}
{"id":null,"anchorname":"State of South Dakota","address":"223 S VAN EPS AVE STE 101, MADISON, SD 57042","bldgnbr":"223","predir":"S","streetname":"VAN EPS","streettype":"AVE","suffdir":null,"city":"MADISON","state_code":"SD","zip5":"57042","latitude":"44.0037332210000000","longitude":"-97.115416715000000","publicwifi":"U","url":"http://www.sd.gov","broadband_type_id":1}
{"id":null,"anchorname":"South Dakota Dept. of Transportation","address":"45656 HIGHWAY 34, MADISON, SD 57042","bldgnbr":"45656","predir":null,"streetname":"HIGHWAY 34","streettype":null,"suffdir":null,"city":"MADISON","state_code":"SD","zip5":"57042","latitude":"44.0082130240000000","longitude":"-97.171622199000000","publicwifi":"U","url":"http://www.sddot.com","broadband_type_id":null}
{"id":null,"anchorname":"Black Hills Academy at Canyon Hills","address":"2519 Windmill Dr, Spearfish, SD 57783","bldgnbr":"2519","predir":null,"streetname":"Windmill","streettype":"DR","suffdir":null,"city":"Spearfish","state_code":"SD","zip5":"57783","latitude":"44.4851565580000000","longitude":"-103.81886013700000","publicwifi":"U","url":null,"broadband_type_id":6}
{"id":null,"anchorname":"Bethel Lutheran Home","address":"1001 Egan Ave S,  , SD 57042","bldgnbr":"1001","predir":"S","streetname":"EGAN","streettype":"AVE","suffdir":"S","city":"N/A","state_code":"SD","zip5":"57042","latitude":"43.9944906550000000","longitude":"-97.114041716000000","publicwifi":"Y","url":"http://www.bethelcommunity.com/","broadband_type_id":null}
{"id":null,"anchorname":"South Dakota Dept. of Agriculture","address":"RR 1 BOX 88, WENTWORTH, SD 57075","bldgnbr":"N/A","predir":null,"streetname":"N/A","streettype":null,"suffdir":null,"city":"WENTWORTH","state_code":"SD","zip5":"57075","latitude":"43.9971870100000000","longitude":"-96.964215657000000","publicwifi":"U","url":"http://sdda.sd.gov","broadband_type_id":null}
{"id":null,"anchorname":"South Dakota Dept. of Transportation","address":"3510 CACTUS PL, SPEARFISH, SD 57783","bldgnbr":"3510","predir":null,"streetname":"CACTUS","streettype":"PL","suffdir":null,"city":"SPEARFISH","state_code":"SD","zip5":"57783","latitude":"44.5218256740000000","longitude":"-103.86110750200000","publicwifi":"U","url":"http://www.sddot.com","broadband_type_id":null}
{"id":null,"anchorname":"Oldham - Ramona School District 39-5","address":"220 W 2ND, RAMONA, SD 57054","bldgnbr":"220","predir":"W","streetname":"2ND","streettype":null,"suffdir":null,"city":"RAMONA","state_code":"SD","zip5":"57054","latitude":"44.1204865120000000","longitude":"-97.218846971000000","publicwifi":"U","url":null,"broadband_type_id":6}
{"id":null,"anchorname":"Oldham - Ramona School District 39-5","address":"220 W 2ND, RAMONA, SD 57054","bldgnbr":"220","predir":"W","streetname":"2ND","streettype":null,"suffdir":null,"city":"RAMONA","state_code":"SD","zip5":"57054","latitude":"44.1204865120000000","longitude":"-97.218846971000000","publicwifi":"U","url":null,"broadband_type_id":6}
{"id":null,"anchorname":"Ramona Fire Department","address":"245 E Main St, Ramona, SD 57054","bldgnbr":"245","predir":"E","streetname":"Main","streettype":"ST","suffdir":null,"city":"Ramona","state_code":"SD","zip5":"57054","latitude":"44.1193285910000000","longitude":"-97.215423553000000","publicwifi":"N","url":null,"broadband_type_id":5}
{"id":null,"anchorname":"Winfred Fire Department","address":"401   Main St, Winfred, SD 57076","bldgnbr":"401","predir":null,"streetname":"Main","streettype":"ST","suffdir":null,"city":"Winfred","state_code":"SD","zip5":"57076","latitude":"43.9973121630000000","longitude":"-97.362367555000000","publicwifi":"U","url":null,"broadband_type_id":5}
{"id":null,"anchorname":"South Dakota Game Fish and Parks","address":"23409 STATE PARK DR, MADISON, SD 57042","bldgnbr":"23409","predir":null,"streetname":"STATE PARK","streettype":"DR","suffdir":null,"city":"MADISON","state_code":"SD","zip5":"57042","latitude":"43.9917014260000000","longitude":"-97.165100304000000","publicwifi":"U","url":"http://gfp.sd.gov","broadband_type_id":2}
{"id":null,"anchorname":"Madison Central School District 39-2","address":"830 NE 9TH ST, MADISON, SD 57042","bldgnbr":"830","predir":"NE","streetname":"9TH","streettype":"ST","suffdir":null,"city":"MADISON","state_code":"SD","zip5":"57042","latitude":"44.0150291180000000","longitude":"-97.102951417000000","publicwifi":"Y","url":"http://madison.k12.sd.us/","broadband_type_id":6}
{"id":null,"anchorname":"Madison Central School District 39-2","address":"800 NE 9TH ST, MADISON, SD 57042","bldgnbr":"800","predir":"NE","streetname":"9TH","streettype":"ST","suffdir":null,"city":"MADISON","state_code":"SD","zip5":"57042","latitude":"44.0150291180000000","longitude":"-97.102951417000000","publicwifi":"N","url":"http://madison.k12.sd.us/","broadband_type_id":6}
{"id":null,"anchorname":"Madison Central School District 39-2","address":"700 NW 9TH ST, MADISON, SD 57042","bldgnbr":"700","predir":"NW","streetname":"9TH","streettype":"ST","suffdir":null,"city":"MADISON","state_code":"SD","zip5":"57042","latitude":"44.0147933190000000","longitude":"-97.122825012000000","publicwifi":"N","url":"http://madison.k12.sd.us/","broadband_type_id":6}
{"id":null,"anchorname":"Madison Clinic","address":"220 NE 9th St, Madison, SD 57042","bldgnbr":"220","predir":"NE","streetname":"9th","streettype":"ST","suffdir":null,"city":"Madison","state_code":"SD","zip5":"57042","latitude":"44.0150095500000000","longitude":"-97.112194853000000","publicwifi":"U","url":null,"broadband_type_id":3}
{"id":null,"anchorname":"Dakota State University","address":"820 N WASHINGTON, MADISON, SD 57042","bldgnbr":"820","predir":"N","streetname":"WASHINGTON","streettype":null,"suffdir":null,"city":"MADISON","state_code":"SD","zip5":"57042","latitude":"44.0135671190000000","longitude":"-97.110219015000000","publicwifi":"U","url":"http://www.dsu.edu","broadband_type_id":6}
{"id":null,"anchorname":"Madison Community Hospital","address":"917 N Washington, Madison, SD 57042-1634","bldgnbr":"917","predir":"N","streetname":"Washington","streettype":null,"suffdir":null,"city":"Madison","state_code":"SD","zip5":"57042","latitude":"44.0140635880000000","longitude":"-97.109827238000000","publicwifi":"U","url":null,"broadband_type_id":3}
{"id":null,"anchorname":"St Thomas School","address":"401 N Van Eps Ave, Madison, SD 57042","bldgnbr":"401","predir":"N","streetname":"Van Eps","streettype":"AVE","suffdir":null,"city":"Madison","state_code":"SD","zip5":"57042","latitude":"44.0082636460000000","longitude":"-97.115427589000000","publicwifi":"N","url":null,"broadband_type_id":6}
{"id":null,"anchorname":"Chester Area School District 39-1","address":"24243 40056th Ave, MADISON, SD 57042","bldgnbr":"24243","predir":null,"streetname":"40056th","streettype":"AVE","suffdir":null,"city":"MADISON","state_code":"SD","zip5":"57042","latitude":"44.0094227850000000","longitude":"-97.121333730000000","publicwifi":"U","url":null,"broadband_type_id":6}
{"id":null,"anchorname":"Madison Police Dept.","address":"116 W Center St, Madison, SD 57042","bldgnbr":"116","predir":"W","streetname":"Center","streettype":"ST","suffdir":null,"city":"Madison","state_code":"SD","zip5":"57042","latitude":"44.0051154790000000","longitude":"-97.114243474000000","publicwifi":"N","url":"cityofmadisonsd.com","broadband_type_id":4}
{"id":null,"anchorname":"Lake County Sheriffs Office / Lake County Jail","address":"219 NE 1st St, Madison, SD 57042-2954","bldgnbr":"219","predir":"NE","streetname":"1st","streettype":"ST","suffdir":null,"city":"Madison","state_code":"SD","zip5":"57042","latitude":"44.0060658000000000","longitude":"-97.112196598000000","publicwifi":"U","url":null,"broadband_type_id":4}
{"id":null,"anchorname":"Lake County Courthouse","address":"200 E CENTER ST, MADISON, SD 57042","bldgnbr":"200","predir":"E","streetname":"CENTER","streettype":"ST","suffdir":null,"city":"MADISON","state_code":"SD","zip5":"57042","latitude":"44.0051052200000000","longitude":"-97.112451516000000","publicwifi":"U","url":null,"broadband_type_id":1}
{"id":null,"anchorname":"MADISON PUBLIC LIBRARY","address":"209 E CENTER, MADISON, SD 57042-2998","bldgnbr":"209","predir":"E","streetname":"CENTER","streettype":null,"suffdir":null,"city":"MADISON","state_code":"SD","zip5":"57042","latitude":"44.0050884200000000","longitude":"-97.111570316000000","publicwifi":"Y","url":null,"broadband_type_id":6}
{"id":null,"anchorname":"Madison Fire Department","address":"200 SE 3rd St, Madison, SD 57042-2937","bldgnbr":"200","predir":"SE","streetname":"3rd","streettype":"ST","suffdir":null,"city":"Madison","state_code":"SD","zip5":"57042","latitude":"44.0020489910000000","longitude":"-97.112452230000000","publicwifi":"U","url":null,"broadband_type_id":5}
{"id":null,"anchorname":"Wentworth Fire Department","address":"425 S Main St, Wentworth, SD 57075-2043","bldgnbr":"425","predir":"S","streetname":"Main","streettype":"ST","suffdir":null,"city":"Wentworth","state_code":"SD","zip5":"57075","latitude":"43.9947729480000000","longitude":"-96.963714703000000","publicwifi":"U","url":null,"broadband_type_id":5}
{"id":null,"anchorname":"Chester Area School District 39-1","address":"102 2ND AVE, CHESTER, SD 57016","bldgnbr":"102","predir":null,"streetname":"2ND","streettype":"AVE","suffdir":null,"city":"CHESTER","state_code":"SD","zip5":"57016","latitude":"43.8988766220000000","longitude":"-96.928907780000000","publicwifi":"U","url":null,"broadband_type_id":6}
{"id":null,"anchorname":"Chester Area School District 39-1","address":"102 2ND AVE, CHESTER, SD 57016","bldgnbr":"102","predir":null,"streetname":"2ND","streettype":"AVE","suffdir":null,"city":"CHESTER","state_code":"SD","zip5":"57016","latitude":"43.8988766220000000","longitude":"-96.928907780000000","publicwifi":"U","url":null,"broadband_type_id":6}
{"id":null,"anchorname":"Chester Area School District 39-1","address":"102 2ND AVE, CHESTER, SD 57016","bldgnbr":"102","predir":null,"streetname":"2ND","streettype":"AVE","suffdir":null,"city":"CHESTER","state_code":"SD","zip5":"57016","latitude":"43.8988766220000000","longitude":"-96.928907780000000","publicwifi":"U","url":null,"broadband_type_id":6}
{"id":null,"anchorname":"Chester Area School District 39-1","address":"102 2ND AVE, CHESTER, SD 57016","bldgnbr":"102","predir":null,"streetname":"2ND","streettype":"AVE","suffdir":null,"city":"CHESTER","state_code":"SD","zip5":"57016","latitude":"43.8988766220000000","longitude":"-96.928907780000000","publicwifi":"U","url":null,"broadband_type_id":6}
{"id":null,"anchorname":"Chester Volunteer Fire Department","address":"401   4th St, Chester, SD 57016","bldgnbr":"401","predir":null,"streetname":"4th","streettype":"ST","suffdir":null,"city":"Chester","state_code":"SD","zip5":"57016","latitude":"43.8949575510000000","longitude":"-96.927685099000000","publicwifi":"U","url":null,"broadband_type_id":5}
{"id":null,"anchorname":"Chester Area School District 39-1","address":"500 5TH ST, CHESTER, SD 57016","bldgnbr":"500","predir":null,"streetname":"5TH","streettype":"ST","suffdir":null,"city":"CHESTER","state_code":"SD","zip5":"57016","latitude":"43.8938573700000000","longitude":"-96.926312190000000","publicwifi":"U","url":null,"broadband_type_id":6}
{"id":null,"anchorname":"Lempster - Highway Department","address":"33 Town Pit Rd, Lempster, NH 03605","bldgnbr":"33","predir":null,"streetname":"Town Pit","streettype":"Rd","suffdir":null,"city":"Lempster","state_code":"NH","zip5":"03605","latitude":"43.2103936220000000","longitude":"-72.182547156000000","publicwifi":"N","url":"http://www.lempsternh.org/","broadband_type_id":6}
{"id":null,"anchorname":"PS/IS 208","address":"74-30 COMMONWLTH BLVD","bldgnbr":"74-30","predir":null,"streetname":"COMMONWLTH","streettype":"Boulevard","suffdir":null,"city":"SAINT ALBANS","state_code":"NY","zip5":"11412","latitude":"40.7444165580000000","longitude":"-73.727772890000000","publicwifi":"N","url":null,"broadband_type_id":6}
{"id":null,"anchorname":"State of South Dakota - Judicial Services","address":"78 SHERMAN ST, DEADWOOD, SD 57732","bldgnbr":"78","predir":null,"streetname":"SHERMAN","streettype":"ST","suffdir":null,"city":"DEADWOOD","state_code":"SD","zip5":"57732","latitude":"44.3747690730000000","longitude":"-103.72925104400000","publicwifi":"U","url":"http://www.sd.gov","broadband_type_id":6}
{"id":null,"anchorname":"State of South Dakota - Dept. of Revenue","address":"87 SHERMAN ST, DEADWOOD, SD 57732","bldgnbr":"87","predir":null,"streetname":"SHERMAN","streettype":"ST","suffdir":null,"city":"DEADWOOD","state_code":"SD","zip5":"57732","latitude":"44.3759027820000000","longitude":"-103.72912695700000","publicwifi":"U","url":"http://dor.sd.gov","broadband_type_id":1}
{"id":null,"anchorname":"State of South Dakota","address":"622 N CANYON ST, SPEARFISH, SD 57783","bldgnbr":"622","predir":"N","streetname":"CANYON","streettype":"ST","suffdir":null,"city":"SPEARFISH","state_code":"SD","zip5":"57783","latitude":"44.4887833730000000","longitude":"-103.86162880300000","publicwifi":"U","url":"http://www.sd.gov","broadband_type_id":1}
{"id":null,"anchorname":"City of Spearfish","address":"625 N 5th St, Spearfish, SD 57783","bldgnbr":"625","predir":"N","streetname":"5th","streettype":"ST","suffdir":null,"city":"Spearfish","state_code":"SD","zip5":"57783","latitude":"44.4889919500000000","longitude":"-103.86032793800000","publicwifi":"U","url":null,"broadband_type_id":6}
{"id":null,"anchorname":"South Dakota Dept. of Transportation","address":"42 CRESCENT DR, DEADWOOD, SD 57732","bldgnbr":"42","predir":null,"streetname":"CRESCENT","streettype":"DR","suffdir":null,"city":"DEADWOOD","state_code":"SD","zip5":"57732","latitude":"44.3862772940000000","longitude":"-103.71645928200000","publicwifi":"U","url":"http://www.sddot.com","broadband_type_id":null}
{"id":null,"anchorname":"The Salvation Army","address":"320   Ryan, Spearfish, SD 57783","bldgnbr":"320","predir":null,"streetname":"Ryan","streettype":null,"suffdir":null,"city":"Spearfish","state_code":"SD","zip5":"57783","latitude":"44.5010800000000000","longitude":"-103.85789557500000","publicwifi":"U","url":null,"broadband_type_id":null}
{"id":null,"anchorname":"South Dakota Dept. of Labor and Regulation","address":"1300 NORTH AVE, SPEARFISH, SD 57783","bldgnbr":"1300","predir":null,"streetname":"NORTH","streettype":"AVE","suffdir":null,"city":"SPEARFISH","state_code":"SD","zip5":"57783","latitude":"44.4973488770000000","longitude":"-103.86012550600000","publicwifi":"U","url":"http://dlr.sd.gov","broadband_type_id":null}
{"id":null,"anchorname":"South Dakota Dept. of Corrections","address":"735 12TH ST, SPEARFISH, SD 57783","bldgnbr":"735","predir":null,"streetname":"12TH","streettype":"ST","suffdir":null,"city":"SPEARFISH","state_code":"SD","zip5":"57783","latitude":"44.4915341770000000","longitude":"-103.85008940900000","publicwifi":"U","url":"http://doc.sd.gov","broadband_type_id":null}
{"id":null,"anchorname":"Dept. Of Corrections","address":"735   12th St, Spearfish, SD 57783","bldgnbr":"735","predir":null,"streetname":"12th","streettype":"ST","suffdir":null,"city":"Spearfish","state_code":"SD","zip5":"57783","latitude":"44.4918583420000000","longitude":"-103.85020401600000","publicwifi":"N","url":null,"broadband_type_id":null}
{"id":null,"anchorname":"WHITEWOOD PUBLIC LIBRARY","address":"1201 ASH ST, WHITEWOOD, SD 57793-505","bldgnbr":"1201","predir":null,"streetname":"ASH","streettype":"ST","suffdir":null,"city":"WHITEWOOD","state_code":"SD","zip5":"57793","latitude":"44.4637268630000000","longitude":"-103.63694856600000","publicwifi":"Y","url":"http://whitewood.govoffice.com","broadband_type_id":6}
{"id":null,"anchorname":"Whitewood Volunteer Fire Department - Rescue Hose Company 1","address":"912   Garfield, Whitewood, SD 57793-2151","bldgnbr":"912","predir":null,"streetname":"Garfield","streettype":null,"suffdir":null,"city":"Whitewood","state_code":"SD","zip5":"57793","latitude":"44.4636333910000000","longitude":"-103.63710697400000","publicwifi":"U","url":null,"broadband_type_id":5}
{"id":null,"anchorname":"Whitewood Police Department","address":"1102   Custer, Whitewood, SD 57793","bldgnbr":"1102","predir":null,"streetname":"Custer","streettype":null,"suffdir":null,"city":"Whitewood","state_code":"SD","zip5":"57793","latitude":"44.4595586330000000","longitude":"-103.63993730400000","publicwifi":"U","url":null,"broadband_type_id":4}
{"id":null,"anchorname":"Regional Medical Clinic","address":"71   Charles, Deadwood, SD 57732","bldgnbr":"71","predir":null,"streetname":"Charles","streettype":null,"suffdir":null,"city":"Deadwood","state_code":"SD","zip5":"57732","latitude":"44.3695590580000000","longitude":"-103.72932473700000","publicwifi":"U","url":null,"broadband_type_id":3}
{"id":null,"anchorname":"DEADWOOD PUBLIC LIBRARY","address":"435 WILLIAMS ST, DEADWOOD, SD 57732-1132","bldgnbr":"435","predir":null,"streetname":"WILLIAMS","streettype":"ST","suffdir":null,"city":"DEADWOOD","state_code":"SD","zip5":"57732","latitude":"44.3802018810000000","longitude":"-103.72677255700000","publicwifi":"U","url":null,"broadband_type_id":6}
{"id":null,"anchorname":"Lead-Deadwood School District 40-1","address":"716 MAIN ST, DEADWOOD, SD 57732","bldgnbr":"716","predir":null,"streetname":"MAIN","streettype":"ST","suffdir":null,"city":"DEADWOOD","state_code":"SD","zip5":"57732","latitude":"44.3857962790000000","longitude":"-103.71889675800000","publicwifi":"U","url":null,"broadband_type_id":6}
{"id":null,"anchorname":"South Dakota School for the Deaf","address":"83 SHERMAN ST, DEADWOOD, SD 57732","bldgnbr":"83","predir":null,"streetname":"SHERMAN","streettype":"ST","suffdir":null,"city":"DEADWOOD","state_code":"SD","zip5":"57732","latitude":"44.3759027820000000","longitude":"-103.72912695700000","publicwifi":"U","url":null,"broadband_type_id":6}
{"id":null,"anchorname":"Lawrence County Sheriffs Office","address":"80   Sherman St, Deadwood, SD 57732-1341","bldgnbr":"80","predir":null,"streetname":"Sherman","streettype":"ST","suffdir":null,"city":"Deadwood","state_code":"SD","zip5":"57732","latitude":"44.3746956790000000","longitude":"-103.72920704500000","publicwifi":"N","url":"www.lawrence.sd.us","broadband_type_id":4}
{"id":null,"anchorname":"Deadwood Police Department","address":"100   Sherman St, Deadwood, SD 57732-1309","bldgnbr":"100","predir":null,"streetname":"Sherman","streettype":"ST","suffdir":null,"city":"Deadwood","state_code":"SD","zip5":"57732","latitude":"44.3740097220000000","longitude":"-103.72873511200000","publicwifi":"N","url":"cityofdeadwood.com","broadband_type_id":4}
{"id":null,"anchorname":"Deadwood Volunteer Fire Department","address":"737   Main St, Deadwood, SD 57732-1015","bldgnbr":"737","predir":null,"streetname":"Main","streettype":"ST","suffdir":null,"city":"Deadwood","state_code":"SD","zip5":"57732","latitude":"44.3748525430000000","longitude":"-103.73216813400000","publicwifi":"U","url":null,"broadband_type_id":5}
{"id":null,"anchorname":"Queen City Medical Ctr","address":"1420 N 10th St, Spearfish, SD 57783","bldgnbr":"1420","predir":"N","streetname":"10th","streettype":"ST","suffdir":null,"city":"Spearfish","state_code":"SD","zip5":"57783","latitude":"44.4984729210000000","longitude":"-103.85500464300000","publicwifi":"U","url":null,"broadband_type_id":3}
{"id":null,"anchorname":"South Dakota Dept. of Health","address":"930 10TH ST, SPEARFISH, SD 57783","bldgnbr":"930","predir":null,"streetname":"10TH","streettype":"ST","suffdir":null,"city":"SPEARFISH","state_code":"SD","zip5":"57783","latitude":"44.4937129830000000","longitude":"-103.85358881100000","publicwifi":"U","url":"http://doh.sd.gov","broadband_type_id":3}
{"id":null,"anchorname":"Spearfish School District 40-2","address":"1600 N. Canyon, SPEARFISH, SD 57783","bldgnbr":"1600","predir":"N","streetname":"Canyon","streettype":null,"suffdir":null,"city":"SPEARFISH","state_code":"SD","zip5":"57783","latitude":"44.4994932210000000","longitude":"-103.85964061600000","publicwifi":"U","url":null,"broadband_type_id":6}
{"id":null,"anchorname":"Family Medical Ctr","address":"1445   North, Spearfish, SD 57783","bldgnbr":"1445","predir":null,"streetname":"North","streettype":null,"suffdir":null,"city":"Spearfish","state_code":"SD","zip5":"57783","latitude":"44.4988059220000000","longitude":"-103.85991967400000","publicwifi":"Y","url":null,"broadband_type_id":3}
{"id":null,"anchorname":"Spearfish School District 40-2","address":"2325 North Avenue, SPEARFISH, SD 57783","bldgnbr":"2325","predir":null,"streetname":"North","streettype":"AVE","suffdir":null,"city":"SPEARFISH","state_code":"SD","zip5":"57783","latitude":"44.5112433600000000","longitude":"-103.86076201100000","publicwifi":"U","url":null,"broadband_type_id":6}
{"id":null,"anchorname":"Spearfish School District 40-2","address":"1725 N MAIN, SPEARFISH, SD 57783","bldgnbr":"1725","predir":"N","streetname":"MAIN","streettype":null,"suffdir":null,"city":"SPEARFISH","state_code":"SD","zip5":"57783","latitude":"44.5005975770000000","longitude":"-103.86128870500000","publicwifi":"U","url":null,"broadband_type_id":6}
{"id":null,"anchorname":"Spearfish Regional Hospital","address":"1440 N Main St, Spearfish, SD 57783-1505","bldgnbr":"1440","predir":"N","streetname":"Main","streettype":"ST","suffdir":null,"city":"Spearfish","state_code":"SD","zip5":"57783","latitude":"44.4978418930000000","longitude":"-103.86101176700000","publicwifi":"U","url":null,"broadband_type_id":3}
{"id":null,"anchorname":"Spearfish School District 40-2","address":"400 E. Hudson St, SPEARFISH, SD 57783","bldgnbr":"400","predir":"E","streetname":"Hudson","streettype":"ST","suffdir":null,"city":"SPEARFISH","state_code":"SD","zip5":"57783","latitude":"44.4896211780000000","longitude":"-103.85412450100000","publicwifi":"U","url":null,"broadband_type_id":6}
{"id":null,"anchorname":"South Dakota Dept. of Health","address":"722 MAIN ST STE 3, SPEARFISH, SD 57783","bldgnbr":"722","predir":null,"streetname":"MAIN","streettype":"ST","suffdir":null,"city":"SPEARFISH","state_code":"SD","zip5":"57783","latitude":"44.4902994780000000","longitude":"-103.85902480700000","publicwifi":"U","url":"http://doh.sd.gov","broadband_type_id":3}
{"id":null,"anchorname":"GRACE BALLOCH MEMORIAL LIBRARY","address":"625 NORTH FIFTH STREET, SPEARFISH, SD 57783-2311","bldgnbr":"625","predir":"N","streetname":"FIFTH","streettype":"ST","suffdir":null,"city":"SPEARFISH","state_code":"SD","zip5":"57783","latitude":"44.4890738780000000","longitude":"-103.86026150700000","publicwifi":"Y","url":null,"broadband_type_id":6}
{"id":null,"anchorname":"South Dakota Game Fish and Parks","address":"19619 TROUT LOOP, SPEARFISH, SD 57783","bldgnbr":"19619","predir":null,"streetname":"TROUT","streettype":"LOOP","suffdir":null,"city":"SPEARFISH","state_code":"SD","zip5":"57783","latitude":"44.5579450820000000","longitude":"-104.00880056000000","publicwifi":"U","url":"http://gfp.sd.gov","broadband_type_id":2}
{"id":null,"anchorname":"Black Hills State University","address":"1200 UNIVERSITY, SPEARFISH, SD 57799","bldgnbr":"1200","predir":null,"streetname":"UNIVERSITY","streettype":null,"suffdir":null,"city":"SPEARFISH","state_code":"SD","zip5":"57799","latitude":"44.4964982780000000","longitude":"-103.87125380300000","publicwifi":"U","url":"http://www.bhsu.edu","broadband_type_id":6}
{"id":null,"anchorname":"Charlestown - Town Clerk","address":"26 Railroad St, Charlestown, NH 03603","bldgnbr":"26","predir":null,"streetname":"Railroad","streettype":"St","suffdir":null,"city":"Charlestown","state_code":"NH","zip5":"03603","latitude":"43.2410500380000000","longitude":"-72.425133861000000","publicwifi":"N","url":"http://www.charlestown-nh.gov/Public_Documents/index","broadband_type_id":6}
{"id":null,"anchorname":"South Dakota Dept. of Agriculture","address":"622 HEARST, LEAD, SD 57754","bldgnbr":"622","predir":null,"streetname":"HEARST","streettype":null,"suffdir":null,"city":"LEAD","state_code":"SD","zip5":"57754","latitude":"44.3480064470000000","longitude":"-103.78068860600000","publicwifi":"U","url":"http://sdda.sd.gov","broadband_type_id":null}
{"id":null,"anchorname":"Sanford Hiawatha Heights","address":"398 N Hiawatha, Canton, SD 57013","bldgnbr":"398","predir":"N","streetname":"Hiawatha","streettype":null,"suffdir":null,"city":"Canton","state_code":"SD","zip5":"57013","latitude":"43.3024166250000000","longitude":"-96.560215946000000","publicwifi":"Y","url":null,"broadband_type_id":null}
{"id":null,"anchorname":"INTERIOR BRANCH JACKSON COUNTY LIBRARY","address":"301 A ST, INTERIOR, SD 57759-24","bldgnbr":"301","predir":null,"streetname":"A","streettype":"ST","suffdir":null,"city":"INTERIOR","state_code":"SD","zip5":"57759","latitude":"44.2395588870000000","longitude":"-103.59592861100000","publicwifi":"U","url":null,"broadband_type_id":6}
{"id":null,"anchorname":"Spearfish Canyon Fire Protection District","address":"21116   Hwy 14A, Lead, SD 57754","bldgnbr":"21116","predir":null,"streetname":"Hwy 14A","streettype":null,"suffdir":null,"city":"Lead","state_code":"SD","zip5":"57754","latitude":"44.3406403870000000","longitude":"-103.91783747300000","publicwifi":"U","url":null,"broadband_type_id":5}
{"id":null,"anchorname":"Brownsville Volunteer Fire Department","address":"11790   Brownsville, Deadwood, SD 57732-7317","bldgnbr":"11790","predir":null,"streetname":"Brownsville","streettype":null,"suffdir":null,"city":"Deadwood","state_code":"SD","zip5":"57732","latitude":"44.2748124480000000","longitude":"-103.70563298500000","publicwifi":"U","url":null,"broadband_type_id":5}
{"id":null,"anchorname":"Lead-Deadwood School District 40-1","address":"22023 Job Corps Ctr, Nemo, SD 57759","bldgnbr":"22023","predir":null,"streetname":"Job Corps Ctr","streettype":null,"suffdir":null,"city":"Nemo","state_code":"SD","zip5":"57759","latitude":"44.2111992860000000","longitude":"-103.55043621600000","publicwifi":"U","url":null,"broadband_type_id":6}
{"id":null,"anchorname":"Nemo Volunteer Fire Department","address":"12748   Nemo, Nemo, SD 57759-7624","bldgnbr":"12748","predir":null,"streetname":"Nemo","streettype":null,"suffdir":null,"city":"Nemo","state_code":"SD","zip5":"57759","latitude":"44.1922399790000000","longitude":"-103.50414384900000","publicwifi":"U","url":null,"broadband_type_id":5}
{"id":null,"anchorname":"South Dakota Dept. of Health","address":"9 KIRK RD, DEADWOOD, SD 57732","bldgnbr":"9","predir":null,"streetname":"KIRK","streettype":"RD","suffdir":null,"city":"DEADWOOD","state_code":"SD","zip5":"57732","latitude":"44.3525651850000000","longitude":"-103.73969835800000","publicwifi":"U","url":"http://doh.sd.gov","broadband_type_id":3}
{"id":null,"anchorname":"South Dakota Game Fish and Parks","address":"71B AVE, WASTA, SD 57791","bldgnbr":"71B","predir":null,"streetname":"AVE","streettype":null,"suffdir":null,"city":"WASTA","state_code":"SD","zip5":"57791","latitude":"44.3503266880000000","longitude":"-103.76485635300000","publicwifi":"U","url":"http://gfp.sd.gov","broadband_type_id":2}
{"id":null,"anchorname":"PHOEBE APPERSON HEARST FREE LIBRARY","address":"315 WEST MAIN, LEAD, SD 57754-1604","bldgnbr":"315","predir":"W","streetname":"MAIN","streettype":null,"suffdir":null,"city":"LEAD","state_code":"SD","zip5":"57754","latitude":"44.3519558870000000","longitude":"-103.76643755200000","publicwifi":"U","url":null,"broadband_type_id":6}
{"id":null,"anchorname":"Lead Police / Fire Department","address":"801 W Main St, Lead, SD 57754-1533","bldgnbr":"801","predir":"W","streetname":"Main","streettype":"ST","suffdir":null,"city":"Lead","state_code":"SD","zip5":"57754","latitude":"44.3510102370000000","longitude":"-103.77246216800000","publicwifi":"U","url":null,"broadband_type_id":4}
{"id":null,"anchorname":"Lead-Deadwood School District 40-1","address":"320 S MAIN ST, LEAD, SD 57754","bldgnbr":"320","predir":"S","streetname":"MAIN","streettype":"ST","suffdir":null,"city":"LEAD","state_code":"SD","zip5":"57754","latitude":"44.3481409890000000","longitude":"-103.77548445000000","publicwifi":"U","url":null,"broadband_type_id":6}
{"id":null,"anchorname":"Lead-Deadwood School District 40-1","address":"234 S MAIN ST, LEAD, SD 57754","bldgnbr":"234","predir":"S","streetname":"MAIN","streettype":"ST","suffdir":null,"city":"LEAD","state_code":"SD","zip5":"57754","latitude":"44.3481842860000000","longitude":"-103.77538541600000","publicwifi":"U","url":null,"broadband_type_id":6}
{"id":null,"anchorname":"Tea Police Department","address":"120 S Main St, Tea, SD 57064","bldgnbr":"120","predir":"S","streetname":"Main","streettype":"ST","suffdir":null,"city":"Tea","state_code":"SD","zip5":"57064","latitude":"43.4462750620000000","longitude":"-96.836106010000000","publicwifi":"U","url":null,"broadband_type_id":4}
{"id":null,"anchorname":"Tea Area School District 41-5","address":"500 BRIAN ST, TEA, SD 57064","bldgnbr":"500","predir":null,"streetname":"BRIAN","streettype":"ST","suffdir":null,"city":"TEA","state_code":"SD","zip5":"57064","latitude":"43.4556244790000000","longitude":"-96.843930463000000","publicwifi":"N","url":"http://www.teaschools.k12.sd.us","broadband_type_id":6}
{"id":null,"anchorname":"Tea Area School District 41-5","address":"500 BRIAN ST, TEA, SD 57064","bldgnbr":"500","predir":null,"streetname":"BRIAN","streettype":"ST","suffdir":null,"city":"TEA","state_code":"SD","zip5":"57064","latitude":"43.4556244790000000","longitude":"-96.843930463000000","publicwifi":"N","url":"http://www.teaschools.k12.sd.us","broadband_type_id":6}
{"id":null,"anchorname":"Tea Fire And Rescue Department","address":"600 E 1st St, Tea, SD 57064","bldgnbr":"600","predir":"E","streetname":"1st","streettype":"ST","suffdir":null,"city":"Tea","state_code":"SD","zip5":"57064","latitude":"43.4465207630000000","longitude":"-96.828828046000000","publicwifi":"U","url":null,"broadband_type_id":5}
{"id":null,"anchorname":"Avera Tea Medical Clinic","address":"725 E Figzel, Tea, SD 57064","bldgnbr":"725","predir":"E","streetname":"Figzel","streettype":null,"suffdir":null,"city":"Tea","state_code":"SD","zip5":"57064","latitude":"43.4486277370000000","longitude":"-96.827698564000000","publicwifi":"U","url":null,"broadband_type_id":3}
{"id":null,"anchorname":"TEA COMMUNITY LIBRARY","address":"500 W. BRIAN ST, TEA, SD 57064-5706","bldgnbr":"500","predir":"W","streetname":"BRIAN","streettype":"ST","suffdir":null,"city":"TEA","state_code":"SD","zip5":"57064","latitude":"43.4537634790000000","longitude":"-96.840729464000000","publicwifi":"U","url":null,"broadband_type_id":6}
{"id":null,"anchorname":"Tea Area School District 41-5","address":"500 Charish St, TEA, SD 57064","bldgnbr":"500","predir":null,"streetname":"Charish","streettype":"ST","suffdir":null,"city":"TEA","state_code":"SD","zip5":"57064","latitude":"43.4493391340000000","longitude":"-96.842296815000000","publicwifi":"N","url":"http://www.teaschools.k12.sd.us","broadband_type_id":6}
{"id":null,"anchorname":"Harrisburg School District 41-1","address":"4010 W 82nd St, Sioux Falls, SD 57108","bldgnbr":"4010","predir":"W","streetname":"82nd","streettype":"ST","suffdir":null,"city":"Sioux Falls","state_code":"SD","zip5":"57108","latitude":"43.4784877330000000","longitude":"-96.775545728000000","publicwifi":"U","url":null,"broadband_type_id":6}
{"id":null,"anchorname":"Avera Heart Hospital Of South Dakota","address":"4500 W 69th St, Sioux Falls, SD 57108-8148","bldgnbr":"4500","predir":"W","streetname":"69th","streettype":"ST","suffdir":null,"city":"Sioux Falls","state_code":"SD","zip5":"57108","latitude":"43.4901645450000000","longitude":"-96.785514447000000","publicwifi":"U","url":null,"broadband_type_id":3}
{"id":null,"anchorname":"Avera Kannan Clinic","address":"4400 W 69th St, Sioux Falls, SD 57108","bldgnbr":"4400","predir":"W","streetname":"69th","streettype":"ST","suffdir":null,"city":"Sioux Falls","state_code":"SD","zip5":"57108","latitude":"43.4900814840000000","longitude":"-96.784192572000000","publicwifi":"U","url":null,"broadband_type_id":3}
{"id":null,"anchorname":"Sioux Falls Fire Rescue Station 4","address":"3100 W 69th St, Sioux Falls, SD 57108-5605","bldgnbr":"3100","predir":"W","streetname":"69th","streettype":"ST","suffdir":null,"city":"Sioux Falls","state_code":"SD","zip5":"57108","latitude":"43.4898388520000000","longitude":"-96.765514293000000","publicwifi":"U","url":null,"broadband_type_id":5}
{"id":null,"anchorname":"Avera McGreevy Clinic - 69th","address":"1910 W 69th ST, Sioux Falls, SD 57108","bldgnbr":"1910","predir":"W","streetname":"69th","streettype":"ST","suffdir":null,"city":"Sioux Falls","state_code":"SD","zip5":"57108","latitude":"43.4896373050000000","longitude":"-96.746583524000000","publicwifi":"U","url":null,"broadband_type_id":3}
{"id":null,"anchorname":"Harrisburg School District 41-1","address":"6801 S Grange Ave, Sioux Falls, SD 57108","bldgnbr":"6801","predir":"S","streetname":"Grange","streettype":"AVE","suffdir":null,"city":"Sioux Falls","state_code":"SD","zip5":"57108","latitude":"43.4821159380000000","longitude":"-96.735652567000000","publicwifi":"U","url":null,"broadband_type_id":6}
{"id":null,"anchorname":"Sanford Clinic - 69th \u0026 Minnesota","address":"6110 S Minnesota Ave, Sioux Falls, SD 57101","bldgnbr":"6110","predir":"S","streetname":"Minnesota","streettype":"AVE","suffdir":null,"city":"Sioux Falls","state_code":"SD","zip5":"57101","latitude":"43.4917620560000000","longitude":"-96.727442210000000","publicwifi":"Y","url":null,"broadband_type_id":3}
{"id":null,"anchorname":"Harrisburg Fire Department","address":"47591   273rd St, Harrisburg, SD 57032-8128","bldgnbr":"47591","predir":null,"streetname":"273rd","streettype":"ST","suffdir":null,"city":"Harrisburg","state_code":"SD","zip5":"57032","latitude":"43.4314498640000000","longitude":"-96.703644428000000","publicwifi":"U","url":null,"broadband_type_id":5}
{"id":null,"anchorname":"Harrisburg School District 41-1","address":"600 S CLIFF AVE, HARRISBURG, SD 57032","bldgnbr":"600","predir":"S","streetname":"CLIFF","streettype":"AVE","suffdir":null,"city":"HARRISBURG","state_code":"SD","zip5":"57032","latitude":"43.4260563740000000","longitude":"-96.704566505000000","publicwifi":"U","url":null,"broadband_type_id":6}
{"id":null,"anchorname":"Harrisburg City Hall","address":"203 Prairie Street, Harrisburg, SD 57032","bldgnbr":"203","predir":null,"streetname":"Prairie","streettype":"St","suffdir":null,"city":"Harrisburg","state_code":"SD","zip5":"57032","latitude":"43.4302839050000000","longitude":"-96.699622782000000","publicwifi":"Y","url":"www.harrisburg.govoffice.com","broadband_type_id":1}
{"id":null,"anchorname":"HARRISBURG COMMUNITY LIBRARY","address":"200 WILLOW ST. STE. A, HARRISBURG, SD 57032-1","bldgnbr":"200","predir":null,"streetname":"WILLOW","streettype":"ST","suffdir":null,"city":"HARRISBURG","state_code":"SD","zip5":"57032","latitude":"43.4315364730000000","longitude":"-96.700635505000000","publicwifi":"U","url":null,"broadband_type_id":6}
{"id":null,"anchorname":"Harrisburg School District 41-1","address":"200 Willow St, HARRISBURG, SD 57032","bldgnbr":"200","predir":null,"streetname":"Willow","streettype":"ST","suffdir":null,"city":"HARRISBURG","state_code":"SD","zip5":"57032","latitude":"43.4315470780000000","longitude":"-96.700788497000000","publicwifi":"U","url":null,"broadband_type_id":6}
{"id":null,"anchorname":"Harrisburg Police Dept","address":"0, Harrisburg, SD 57032","bldgnbr":"0","predir":null,"streetname":"N/A","streettype":null,"suffdir":null,"city":"Harrisburg","state_code":"SD","zip5":"57032","latitude":"43.4314323840000000","longitude":"-96.687681287000000","publicwifi":"U","url":null,"broadband_type_id":4}
{"id":null,"anchorname":"Harrisburg School District 41-1","address":"1300 W Willow St, HARRISBURG, SD 57032","bldgnbr":"1300","predir":"W","streetname":"Willow","streettype":"ST","suffdir":null,"city":"HARRISBURG","state_code":"SD","zip5":"57032","latitude":"43.4314323840000000","longitude":"-96.687681287000000","publicwifi":"U","url":null,"broadband_type_id":6}
{"id":null,"anchorname":"Charlestown - Town Office","address":"216 Main St, Charlestown, NH 03603","bldgnbr":"216","predir":null,"streetname":"Main","streettype":"St","suffdir":null,"city":"Charlestown","state_code":"NH","zip5":"03603","latitude":"43.2349250600000000","longitude":"-72.424664490000000","publicwifi":"N","url":"http://www.charlestown-nh.gov/Public_Documents/index","broadband_type_id":6}
{"id":null,"anchorname":"TRENTON AVENUE PHARMACY","address":"3803 Ventnor Avenue","bldgnbr":"3803","predir":null,"streetname":"Ventnor Avenue","streettype":null,"suffdir":null,"city":"Atlantic City","state_code":"NJ","zip5":"08401","latitude":"39.3509297000000000","longitude":"-74.456296000000000","publicwifi":"U","url":null,"broadband_type_id":3}
{"id":null,"anchorname":"City of Lennox","address":"107 S Main St, Lennox, SD 57039","bldgnbr":"107","predir":"S","streetname":"Main","streettype":"ST","suffdir":null,"city":"Lennox","state_code":"SD","zip5":"57039","latitude":"43.3552028750000000","longitude":"-96.891856022000000","publicwifi":"N","url":null,"broadband_type_id":1}
{"id":null,"anchorname":"South Dakota Dept. of Transportation","address":"47028 282ND ST, LENNOX, SD 57039","bldgnbr":"47028","predir":null,"streetname":"282ND","streettype":"ST","suffdir":null,"city":"LENNOX","state_code":"SD","zip5":"57039","latitude":"43.3022434980000000","longitude":"-96.800067495000000","publicwifi":"U","url":"http://www.sddot.com","broadband_type_id":null}
{"id":null,"anchorname":"South Dakota Dept. of Transportation","address":"1510 W CEDAR, BERESFORD, SD 57004","bldgnbr":"1510","predir":"W","streetname":"CEDAR","streettype":null,"suffdir":null,"city":"BERESFORD","state_code":"SD","zip5":"57004","latitude":"43.0836801300000000","longitude":"-96.801353324000000","publicwifi":"U","url":"http://www.sddot.com","broadband_type_id":null}
{"id":null,"anchorname":"Lower Brule Ambulance Service","address":"733 Little Bend Rd., Lower Brule, SD 57548","bldgnbr":"733","predir":null,"streetname":"Little Bend","streettype":"Rd","suffdir":null,"city":"Lower Brule","state_code":"SD","zip5":"57548","latitude":"44.0760756730000000","longitude":"-99.579745463000000","publicwifi":"N","url":null,"broadband_type_id":null}
{"id":null,"anchorname":"South Dakota Dept. of Transportation","address":"SOUTH MAIN STREET, PRESHO, SD 57568","bldgnbr":"N/A","predir":null,"streetname":"N/A","streettype":null,"suffdir":null,"city":"PRESHO","state_code":"SD","zip5":"57568","latitude":"43.9122581520000000","longitude":"-100.05875915100000","publicwifi":"U","url":"http://www.sddot.com","broadband_type_id":null}
{"id":null,"anchorname":"Canton School District 41-1","address":"724 N Sanborn, CANTON, SD 57013","bldgnbr":"724","predir":"N","streetname":"Sanborn","streettype":null,"suffdir":null,"city":"CANTON","state_code":"SD","zip5":"57013","latitude":"43.3065310760000000","longitude":"-96.582043700000000","publicwifi":"U","url":null,"broadband_type_id":6}
{"id":null,"anchorname":"Canton Police Department","address":"210 N Dakota, Canton, SD 57013-1834","bldgnbr":"210","predir":"N","streetname":"Dakota","streettype":null,"suffdir":null,"city":"Canton","state_code":"SD","zip5":"57013","latitude":"43.3018437720000000","longitude":"-96.588957569000000","publicwifi":"N","url":"www.cantonpd.com","broadband_type_id":4}
{"id":null,"anchorname":"Canton School District 41-1","address":"800 N MAIN ST, CANTON, SD 57013","bldgnbr":"800","predir":"N","streetname":"MAIN","streettype":"ST","suffdir":null,"city":"CANTON","state_code":"SD","zip5":"57013","latitude":"43.3068933730000000","longitude":"-96.592646301000000","publicwifi":"U","url":null,"broadband_type_id":6}
{"id":null,"anchorname":"Canton School District 41-1","address":"800 N MAIN ST, CANTON, SD 57013","bldgnbr":"800","predir":"N","streetname":"MAIN","streettype":"ST","suffdir":null,"city":"CANTON","state_code":"SD","zip5":"57013","latitude":"43.3068933730000000","longitude":"-96.592646301000000","publicwifi":"U","url":null,"broadband_type_id":6}
{"id":null,"anchorname":"CANTON PUBLIC LIBRARY","address":"225 N BROADWAY, CANTON, SD 57013-1715","bldgnbr":"225","predir":"N","streetname":"BROADWAY","streettype":null,"suffdir":null,"city":"CANTON","state_code":"SD","zip5":"57013","latitude":"43.3020874840000000","longitude":"-96.591508552000000","publicwifi":"U","url":null,"broadband_type_id":6}
{"id":null,"anchorname":"Lincoln County Courthouse","address":"104 N MAIN ST, CANTON, SD 57103","bldgnbr":"104","predir":"N","streetname":"MAIN","streettype":"ST","suffdir":null,"city":"CANTON","state_code":"SD","zip5":"57103","latitude":"43.3008973840000000","longitude":"-96.592705951000000","publicwifi":"U","url":null,"broadband_type_id":1}
{"id":null,"anchorname":"Canton Fire Department / Ambulance Service","address":"101 N Dakota, Canton, SD 57013-1831","bldgnbr":"101","predir":"N","streetname":"Dakota","streettype":null,"suffdir":null,"city":"Canton","state_code":"SD","zip5":"57013","latitude":"43.3008304120000000","longitude":"-96.589106972000000","publicwifi":"U","url":null,"broadband_type_id":5}
{"id":null,"anchorname":"Lennox School District 41-4","address":"1201 S Main, LENNOX, SD 57039","bldgnbr":"1201","predir":"S","streetname":"Main","streettype":null,"suffdir":null,"city":"LENNOX","state_code":"SD","zip5":"57039","latitude":"43.3432415270000000","longitude":"-96.891706623000000","publicwifi":"N","url":"http://lennox.k12.sd.us","broadband_type_id":6}
{"id":null,"anchorname":"Lennox Police Department","address":"204 N Main St, Lennox, SD 57039-2041","bldgnbr":"204","predir":"N","streetname":"Main","streettype":"ST","suffdir":null,"city":"Lennox","state_code":"SD","zip5":"57039","latitude":"43.3566331390000000","longitude":"-96.891715810000000","publicwifi":"U","url":null,"broadband_type_id":4}
{"id":null,"anchorname":"Lennox Area Medical Center","address":"108 S Main St, Lennox, SD 57039-662","bldgnbr":"108","predir":"S","streetname":"Main","streettype":"ST","suffdir":null,"city":"Lennox","state_code":"SD","zip5":"57039","latitude":"43.3551840880000000","longitude":"-96.891705039000000","publicwifi":"N","url":null,"broadband_type_id":3}
{"id":null,"anchorname":"Lennox Fire Department","address":"206 S Juniper, Lennox, SD 57039","bldgnbr":"206","predir":"S","streetname":"Juniper","streettype":null,"suffdir":null,"city":"Lennox","state_code":"SD","zip5":"57039","latitude":"43.3541845200000000","longitude":"-96.893065252000000","publicwifi":"U","url":null,"broadband_type_id":5}
{"id":null,"anchorname":"Lennox School District 41-4","address":"305 W Fifth Avenue, LENNOX, SD 57039","bldgnbr":"305","predir":"W","streetname":"FIFTH","streettype":"AVE","suffdir":null,"city":"LENNOX","state_code":"SD","zip5":"57039","latitude":"43.3505384100000000","longitude":"-96.894545907000000","publicwifi":"Y","url":"http://lennox.k12.sd.us","broadband_type_id":6}
{"id":null,"anchorname":"LENNOX COMMUNITY LIBRARY","address":"208 W. 5TH STREET, LENNOX, SD 57039-283","bldgnbr":"208","predir":"W","streetname":"5TH","streettype":"ST","suffdir":null,"city":"LENNOX","state_code":"SD","zip5":"57039","latitude":"43.3506194980000000","longitude":"-96.892827464000000","publicwifi":"U","url":null,"broadband_type_id":6}
{"id":null,"anchorname":"Lennox School District 41-4","address":"208 W FIFTH AVE, LENNOX, SD 57039","bldgnbr":"208","predir":"W","streetname":"FIFTH","streettype":"AVE","suffdir":null,"city":"LENNOX","state_code":"SD","zip5":"57039","latitude":"43.3511954980000000","longitude":"-96.893993464000000","publicwifi":"N","url":"http://lennox.k12.sd.us","broadband_type_id":6}
{"id":null,"anchorname":"Lennox School District 41-4","address":"230 CEDAR ST, WORTHING, SD 57077","bldgnbr":"230","predir":null,"streetname":"CEDAR","streettype":"ST","suffdir":null,"city":"WORTHING","state_code":"SD","zip5":"57077","latitude":"43.3290417920000000","longitude":"-96.765703801000000","publicwifi":"N","url":"http://lennox.k12.sd.us","broadband_type_id":6}
{"id":null,"anchorname":"Worthing Police Department","address":"212 S Main St, Worthing, SD 57077","bldgnbr":"212","predir":"S","streetname":"Main","streettype":"ST","suffdir":null,"city":"Worthing","state_code":"SD","zip5":"57077","latitude":"43.3291547760000000","longitude":"-96.762930538000000","publicwifi":"U","url":null,"broadband_type_id":4}
{"id":null,"anchorname":"Fairview Fire Department","address":"318   Lincoln, Fairview, SD 57027","bldgnbr":"318","predir":null,"streetname":"Lincoln","streettype":null,"suffdir":null,"city":"Fairview","state_code":"SD","zip5":"57027","latitude":"43.2216673170000000","longitude":"-96.487735383000000","publicwifi":"U","url":null,"broadband_type_id":5}
{"id":null,"anchorname":"HUDSON PUBLIC LIBRARY","address":"316 WHEELOCK, HUDSON, SD 57034-453","bldgnbr":"316","predir":null,"streetname":"WHEELOCK","streettype":null,"suffdir":null,"city":"HUDSON","state_code":"SD","zip5":"57034","latitude":"43.1303734990000000","longitude":"-96.453119611000000","publicwifi":"U","url":null,"broadband_type_id":6}
{"id":null,"anchorname":"Hudson Fire Dept. / Emer. Medical Serv.","address":"310   4th St, Hudson, SD 57034","bldgnbr":"310","predir":null,"streetname":"4th","streettype":"ST","suffdir":null,"city":"Hudson","state_code":"SD","zip5":"57034","latitude":"43.1285703820000000","longitude":"-96.454232696000000","publicwifi":"U","url":null,"broadband_type_id":3}
{"id":null,"anchorname":"Sanford Clinic Family Medicine Beresford","address":"600 W Cedar, Beresford, SD 57004-1120","bldgnbr":"600","predir":"W","streetname":"Cedar","streettype":null,"suffdir":null,"city":"Beresford","state_code":"SD","zip5":"57004","latitude":"43.0837273820000000","longitude":"-96.781360195000000","publicwifi":"U","url":null,"broadband_type_id":3}
{"id":null,"anchorname":"South Dakota Dept. of Health","address":"187 OYATE CIR, LOWER BRULE, SD 57548","bldgnbr":"187","predir":null,"streetname":"OYATE","streettype":"CIR","suffdir":null,"city":"LOWER BRULE","state_code":"SD","zip5":"57548","latitude":"44.0748719940000000","longitude":"-99.580071552000000","publicwifi":"U","url":"http://doh.sd.gov","broadband_type_id":3}
{"id":null,"anchorname":"South Dakota Game Fish and Parks","address":"103 N MAIN ST, PRESHO, SD 57568","bldgnbr":"103","predir":"N","streetname":"MAIN","streettype":"ST","suffdir":null,"city":"PRESHO","state_code":"SD","zip5":"57568","latitude":"43.9144902520000000","longitude":"-100.05904215100000","publicwifi":"U","url":"http://gfp.sd.gov","broadband_type_id":2}
{"id":null,"anchorname":"Lyman School District 42-1","address":"201 BIRCH AVE, PRESHO, SD 57568","bldgnbr":"201","predir":null,"streetname":"BIRCH","streettype":"AVE","suffdir":null,"city":"PRESHO","state_code":"SD","zip5":"57568","latitude":"43.9095963530000000","longitude":"-100.06299975100000","publicwifi":"U","url":null,"broadband_type_id":6}
{"id":null,"anchorname":"Lyman School District 42-1","address":"201 BIRCH AVE, PRESHO, SD 57568","bldgnbr":"201","predir":null,"streetname":"BIRCH","streettype":"AVE","suffdir":null,"city":"PRESHO","state_code":"SD","zip5":"57568","latitude":"43.9095963530000000","longitude":"-100.06299975100000","publicwifi":"U","url":null,"broadband_type_id":6}
{"id":null,"anchorname":"Vivian Fire Department","address":"0   Main Street And 1st, Vivian, SD 57576","bldgnbr":"0","predir":null,"streetname":"Main Street And 1st","streettype":null,"suffdir":null,"city":"Vivian","state_code":"SD","zip5":"57576","latitude":"43.9052099300000000","longitude":"-100.31985394300000","publicwifi":"U","url":null,"broadband_type_id":5}
{"id":null,"anchorname":"Presho Fire Dept / Lyman Cnty Ambulance","address":"209 N Fir,  , SD 57568","bldgnbr":"209","predir":null,"streetname":"FIR","streettype":null,"suffdir":null,"city":"N/A","state_code":"SD","zip5":"57568","latitude":"43.9083921680000000","longitude":"-100.06014252600000","publicwifi":"U","url":null,"broadband_type_id":5}
{"id":null,"anchorname":"PRESHO PUBLIC LIBRARY","address":"108 MAIN, PRESHO, SD 57568-118","bldgnbr":"108","predir":null,"streetname":"MAIN","streettype":null,"suffdir":null,"city":"PRESHO","state_code":"SD","zip5":"57568","latitude":"43.9020166530000000","longitude":"-100.05876355300000","publicwifi":"Y","url":null,"broadband_type_id":6}
{"id":null,"anchorname":"Lyman County Courthouse","address":"300 S MAIN ST, KENNEBEC, SD 57544","bldgnbr":"300","predir":"S","streetname":"MAIN","streettype":"ST","suffdir":null,"city":"KENNEBEC","state_code":"SD","zip5":"57544","latitude":"43.9112707370000000","longitude":"-99.861891602000000","publicwifi":"U","url":null,"broadband_type_id":1}
{"id":null,"anchorname":"Lyman County Sheriffs Office / Health Nurse","address":"300 S Main St, Kennebec, SD 57544","bldgnbr":"300","predir":"S","streetname":"Main","streettype":"ST","suffdir":null,"city":"Kennebec","state_code":"SD","zip5":"57544","latitude":"43.9078288510000000","longitude":"-99.862031566000000","publicwifi":"U","url":null,"broadband_type_id":4}
{"id":null,"anchorname":"PS / IS 266","address":"74-10 COMMONWEALTH BOULEVARD","bldgnbr":"74-10","predir":null,"streetname":"COMMONWEALTH","streettype":"Boulevard","suffdir":null,"city":"QUEENS","state_code":"NY","zip5":"11426","latitude":"40.7454315580000000","longitude":"-73.727177890000000","publicwifi":"N","url":null,"broadband_type_id":6}
{"id":null,"anchorname":"South Dakota Dept. of Transportation","address":"EAST OF HIGHWAY 38, SALEM, SD 57058","bldgnbr":"N/A","predir":null,"streetname":"N/A","streettype":null,"suffdir":null,"city":"SALEM","state_code":"SD","zip5":"57058","latitude":"43.7171188820000000","longitude":"-97.400969378000000","publicwifi":"U","url":"http://www.sddot.comhttp://www.sddot.com","broadband_type_id":null}
{"id":null,"anchorname":"Sanford Clinic Kennebec","address":"120 S Main St, Kennebec, SD 57544","bldgnbr":"120","predir":"S","streetname":"Main","streettype":"ST","suffdir":null,"city":"Kennebec","state_code":"SD","zip5":"57544","latitude":"43.9033158650000000","longitude":"-99.862035045000000","publicwifi":"U","url":null,"broadband_type_id":3}
{"id":null,"anchorname":"Kennebec City Hall","address":"211 S Main, Kennebec, SD 57544","bldgnbr":"211","predir":"S","streetname":"Main","streettype":null,"suffdir":null,"city":"Kennebec","state_code":"SD","zip5":"57544","latitude":"43.9031674820000000","longitude":"-99.862249266000000","publicwifi":"Y","url":"www.kennebecsd.com","broadband_type_id":1}
{"id":null,"anchorname":"Lyman School District 42-1","address":"411 E 2ND ST, KENNEBEC, SD 57544","bldgnbr":"411","predir":"E","streetname":"2ND","streettype":"ST","suffdir":null,"city":"KENNEBEC","state_code":"SD","zip5":"57544","latitude":"43.9026297380000000","longitude":"-99.860532404000000","publicwifi":"U","url":null,"broadband_type_id":6}
{"id":null,"anchorname":"Lyman School District 42-1","address":"411 E 2ND ST, KENNEBEC, SD 57544","bldgnbr":"411","predir":"E","streetname":"2ND","streettype":"ST","suffdir":null,"city":"KENNEBEC","state_code":"SD","zip5":"57544","latitude":"43.9026297380000000","longitude":"-99.860532404000000","publicwifi":"U","url":null,"broadband_type_id":6}
{"id":null,"anchorname":"Oacoma City Town Hall","address":"100 E 3rd Street, Oacoma, SD 57365","bldgnbr":"100","predir":"E","streetname":"3rd","streettype":"St","suffdir":null,"city":"Oacoma","state_code":"SD","zip5":"57365","latitude":"43.7996355070000000","longitude":"-99.394497338000000","publicwifi":"Y","url":null,"broadband_type_id":1}
{"id":null,"anchorname":"Montrose School District 43-2","address":"45050 246th St, MONTROSE, SD 57048","bldgnbr":"45050","predir":null,"streetname":"246th","streettype":"ST","suffdir":null,"city":"MONTROSE","state_code":"SD","zip5":"57048","latitude":"43.8179381220000000","longitude":"-97.203685292000000","publicwifi":"U","url":null,"broadband_type_id":6}
{"id":null,"anchorname":"Montrose Volunteer Fire Department","address":"101 N 1st St, Montrose, SD 57048","bldgnbr":"101","predir":"N","streetname":"1st","streettype":"ST","suffdir":null,"city":"Montrose","state_code":"SD","zip5":"57048","latitude":"43.7010400060000000","longitude":"-97.183737183000000","publicwifi":"U","url":null,"broadband_type_id":5}
{"id":null,"anchorname":"Montrose School District 43-2","address":"309 CHURCH ST, MONTROSE, SD 57048","bldgnbr":"309","predir":null,"streetname":"CHURCH","streettype":"ST","suffdir":null,"city":"MONTROSE","state_code":"SD","zip5":"57048","latitude":"43.6998575690000000","longitude":"-97.186663038000000","publicwifi":"U","url":null,"broadband_type_id":6}
{"id":null,"anchorname":"Montrose School District 43-2","address":"309 CHURCH ST, MONTROSE, SD 57048","bldgnbr":"309","predir":null,"streetname":"CHURCH","streettype":"ST","suffdir":null,"city":"MONTROSE","state_code":"SD","zip5":"57048","latitude":"43.6998575690000000","longitude":"-97.186663038000000","publicwifi":"U","url":null,"broadband_type_id":6}
{"id":null,"anchorname":"Montrose School District 43-2","address":"309 CHURCH ST, MONTROSE, SD 57048","bldgnbr":"309","predir":null,"streetname":"CHURCH","streettype":"ST","suffdir":null,"city":"MONTROSE","state_code":"SD","zip5":"57048","latitude":"43.6998575690000000","longitude":"-97.186663038000000","publicwifi":"U","url":null,"broadband_type_id":6}
{"id":null,"anchorname":"Spencer Volunteer Fire Department","address":"115 E 3rd St, Spencer, SD 57374","bldgnbr":"115","predir":"E","streetname":"3rd","streettype":"ST","suffdir":null,"city":"Spencer","state_code":"SD","zip5":"57374","latitude":"43.7252910200000000","longitude":"-97.593799757000000","publicwifi":"N","url":null,"broadband_type_id":5}
{"id":null,"anchorname":"HANSON-MCCOOK REGIONAL LIBRARY","address":"306 MAIN STREET, SPENCER, SD 57374-227","bldgnbr":"306","predir":null,"streetname":"MAIN","streettype":"ST","suffdir":null,"city":"SPENCER","state_code":"SD","zip5":"57374","latitude":"43.7264974940000000","longitude":"-97.594025225000000","publicwifi":"U","url":null,"broadband_type_id":6}
{"id":null,"anchorname":"HANSON-MCCOOK REGIONAL LIBRARY- BOOKMOBILE","address":"306 MAIN STREET, SPENCER, SD 57374-227","bldgnbr":"306","predir":null,"streetname":"MAIN","streettype":"ST","suffdir":null,"city":"SPENCER","state_code":"SD","zip5":"57374","latitude":"43.7264974940000000","longitude":"-97.594025225000000","publicwifi":"U","url":null,"broadband_type_id":6}
{"id":null,"anchorname":"McCook Central School District 43-7","address":"25473 438th Ave, SALEM, SD 57058","bldgnbr":"25473","predir":null,"streetname":"438th","streettype":"AVE","suffdir":null,"city":"SALEM","state_code":"SD","zip5":"57058","latitude":"43.6922637310000000","longitude":"-97.448663497000000","publicwifi":"U","url":null,"broadband_type_id":6}
{"id":null,"anchorname":"Salem Fire Department","address":"400 N Main St, Salem, SD 57058-8855","bldgnbr":"400","predir":"N","streetname":"Main","streettype":"ST","suffdir":null,"city":"Salem","state_code":"SD","zip5":"57058","latitude":"43.7275655960000000","longitude":"-97.387295763000000","publicwifi":"U","url":null,"broadband_type_id":5}
{"id":null,"anchorname":"Salem Public Library","address":"200 East Essex Avenue, Salem, SD 57058","bldgnbr":"200","predir":"E","streetname":"Essex","streettype":"AVE","suffdir":null,"city":"Salem","state_code":"SD","zip5":"57058","latitude":"43.7275973490000000","longitude":"-97.385805746000000","publicwifi":"N","url":null,"broadband_type_id":6}
{"id":null,"anchorname":"Salem City Hall","address":"400 N Main St, Salem, SD 57058","bldgnbr":"400","predir":"N","streetname":"Main","streettype":"St","suffdir":null,"city":"Salem","state_code":"SD","zip5":"57058","latitude":"43.7276967650000000","longitude":"-97.387102181000000","publicwifi":"N","url":"www.salemsd.com","broadband_type_id":1}
{"id":null,"anchorname":"McCook Central School District 43-7","address":"200 E ESSEX ST, SALEM, SD 57058","bldgnbr":"200","predir":"E","streetname":"ESSEX","streettype":"ST","suffdir":null,"city":"SALEM","state_code":"SD","zip5":"57058","latitude":"43.7275725790000000","longitude":"-97.385663281000000","publicwifi":"U","url":null,"broadband_type_id":6}
{"id":null,"anchorname":"McCook Central School District 43-7","address":"200 E ESSEX ST, SALEM, SD 57058","bldgnbr":"200","predir":"E","streetname":"ESSEX","streettype":"ST","suffdir":null,"city":"SALEM","state_code":"SD","zip5":"57058","latitude":"43.7275725790000000","longitude":"-97.385663281000000","publicwifi":"U","url":null,"broadband_type_id":6}
{"id":null,"anchorname":"McCook Central School District 43-7","address":"200 E ESSEX ST, SALEM, SD 57058","bldgnbr":"200","predir":"E","streetname":"ESSEX","streettype":"ST","suffdir":null,"city":"SALEM","state_code":"SD","zip5":"57058","latitude":"43.7275725790000000","longitude":"-97.385663281000000","publicwifi":"U","url":null,"broadband_type_id":6}
{"id":null,"anchorname":"Mccook County Sheriffs Department","address":"130 E Essex, Salem, SD 57058-8821","bldgnbr":"130","predir":"E","streetname":"Essex","streettype":null,"suffdir":null,"city":"Salem","state_code":"SD","zip5":"57058","latitude":"43.7275905300000000","longitude":"-97.386889036000000","publicwifi":"U","url":null,"broadband_type_id":4}
{"id":null,"anchorname":"McCook County Courthouse","address":"130 W ESSEX, SALEM, SD 57058","bldgnbr":"130","predir":"W","streetname":"ESSEX","streettype":null,"suffdir":null,"city":"SALEM","state_code":"SD","zip5":"57058","latitude":"43.7275304790000000","longitude":"-97.387840380000000","publicwifi":"U","url":null,"broadband_type_id":1}
{"id":null,"anchorname":"South Dakota Game Fish and Parks","address":"222 N MAIN STE 1, SALEM, SD 57058","bldgnbr":"222","predir":"N","streetname":"MAIN","streettype":null,"suffdir":null,"city":"SALEM","state_code":"SD","zip5":"57058","latitude":"43.7232406800000000","longitude":"-97.387303281000000","publicwifi":"U","url":"http://gfp.sd.gov","broadband_type_id":2}
{"id":null,"anchorname":"Avera Salem Family Medical Clinic","address":"741 S Hill, Salem, SD 57058-8761","bldgnbr":"741","predir":"S","streetname":"Hill","streettype":null,"suffdir":null,"city":"Salem","state_code":"SD","zip5":"57058","latitude":"43.7176430030000000","longitude":"-97.382627164000000","publicwifi":"U","url":null,"broadband_type_id":3}
{"id":null,"anchorname":"South Dakota Game Fish and Parks","address":"26140 451ST AVE, CANISTOTA, SD 57012","bldgnbr":"26140","predir":null,"streetname":"451ST","streettype":"AVE","suffdir":null,"city":"CANISTOTA","state_code":"SD","zip5":"57012","latitude":"43.5946029840000000","longitude":"-97.188440252000000","publicwifi":"U","url":"http://gfp.sd.gov","broadband_type_id":2}
{"id":null,"anchorname":"Canistota Fire Department","address":"540 N 3rd St, Canistota, SD 57012","bldgnbr":"540","predir":"N","streetname":"3rd","streettype":"ST","suffdir":null,"city":"Canistota","state_code":"SD","zip5":"57012","latitude":"43.5984275650000000","longitude":"-97.292605686000000","publicwifi":"U","url":null,"broadband_type_id":5}
{"id":null,"anchorname":"Canistota School District 43-1","address":"431 4TH AVE, CANISTOTA, SD 57012","bldgnbr":"431","predir":null,"streetname":"4TH","streettype":"AVE","suffdir":null,"city":"CANISTOTA","state_code":"SD","zip5":"57012","latitude":"43.5972609910000000","longitude":"-97.294179923000000","publicwifi":"U","url":null,"broadband_type_id":6}
{"id":null,"anchorname":"Canistota School District 43-1","address":"431 4TH AVE, CANISTOTA, SD 57012","bldgnbr":"431","predir":null,"streetname":"4TH","streettype":"AVE","suffdir":null,"city":"CANISTOTA","state_code":"SD","zip5":"57012","latitude":"43.5972609910000000","longitude":"-97.294179923000000","publicwifi":"U","url":null,"broadband_type_id":6}
{"id":null,"anchorname":"Canistota School District 43-1","address":"431 4TH AVE, CANISTOTA, SD 57012","bldgnbr":"431","predir":null,"streetname":"4TH","streettype":"AVE","suffdir":null,"city":"CANISTOTA","state_code":"SD","zip5":"57012","latitude":"43.5972609910000000","longitude":"-97.294179923000000","publicwifi":"U","url":null,"broadband_type_id":6}
{"id":null,"anchorname":"Eureka School District 44-1","address":"706 9TH ST, EUREKA, SD 57437","bldgnbr":"706","predir":null,"streetname":"9TH","streettype":"ST","suffdir":null,"city":"EUREKA","state_code":"SD","zip5":"57437","latitude":"45.7695685750000000","longitude":"-99.622651678000000","publicwifi":"U","url":null,"broadband_type_id":6}
{"id":null,"anchorname":"Eureka School District 44-1","address":"706 9TH ST, EUREKA, SD 57437","bldgnbr":"706","predir":null,"streetname":"9TH","streettype":"ST","suffdir":null,"city":"EUREKA","state_code":"SD","zip5":"57437","latitude":"45.7695685750000000","longitude":"-99.622651678000000","publicwifi":"U","url":null,"broadband_type_id":6}
{"id":null,"anchorname":"Eureka School District 44-1","address":"706 9TH ST, EUREKA, SD 57437","bldgnbr":"706","predir":null,"streetname":"9TH","streettype":"ST","suffdir":null,"city":"EUREKA","state_code":"SD","zip5":"57437","latitude":"45.7695685750000000","longitude":"-99.622651678000000","publicwifi":"U","url":null,"broadband_type_id":6}
{"id":null,"anchorname":"South Dakota Dept. of Health","address":"410 9TH ST, EUREKA, SD 57437","bldgnbr":"410","predir":null,"streetname":"9TH","streettype":"ST","suffdir":null,"city":"EUREKA","state_code":"SD","zip5":"57437","latitude":"45.7726092740000000","longitude":"-99.622659478000000","publicwifi":"U","url":"http://doh.sd.gov","broadband_type_id":3}
{"id":null,"anchorname":"Eureka Community Health Service/Avera","address":"410   9th ST, Eureka, SD 57437","bldgnbr":"410","predir":null,"streetname":"9th","streettype":"ST","suffdir":null,"city":"Eureka","state_code":"SD","zip5":"57437","latitude":"45.7726068580000000","longitude":"-99.622696526000000","publicwifi":"U","url":null,"broadband_type_id":3}
{"id":null,"anchorname":"Eureka City Police Station","address":"609   7th St, Eureka, SD 57437","bldgnbr":"609","predir":null,"streetname":"7th","streettype":"ST","suffdir":null,"city":"Eureka","state_code":"SD","zip5":"57437","latitude":"45.7705642450000000","longitude":"-99.619623944000000","publicwifi":"U","url":null,"broadband_type_id":4}
{"id":null,"anchorname":"Converge Diagnostic Services - Claremont","address":"7 Dunning St Claremont, NH 03743","bldgnbr":"7","predir":null,"streetname":"Dunning","streettype":"St","suffdir":null,"city":"Claremont","state_code":"NH","zip5":"03743","latitude":"43.3859273270000000","longitude":"-72.340365178000000","publicwifi":"U","url":"http://www.convergedx.com/","broadband_type_id":6}
{"id":null,"anchorname":"State of South Dakota - Judicial Services","address":"442428 S SHORE DR, LAKE CITY, SD 57247","bldgnbr":"442428","predir":"S","streetname":"SHORE","streettype":"DR","suffdir":null,"city":"LAKE CITY","state_code":"SD","zip5":"57247","latitude":"45.6820903080000000","longitude":"-97.351132503000000","publicwifi":"U","url":"http://www.sd.gov","broadband_type_id":6}
{"id":null,"anchorname":"State of South Dakota","address":"909 S MAIN, BRITTON, SD 57430","bldgnbr":"909","predir":"S","streetname":"MAIN","streettype":null,"suffdir":null,"city":"BRITTON","state_code":"SD","zip5":"57430","latitude":"45.7927323240000000","longitude":"-97.750517177000000","publicwifi":"U","url":"http://www.sd.gov","broadband_type_id":1}
{"id":null,"anchorname":"South Dakota Dept. of Transportation","address":", LEOLA, SD 57456","bldgnbr":"N/A","predir":null,"streetname":"N/A","streettype":null,"suffdir":null,"city":"LEOLA","state_code":"SD","zip5":"57456","latitude":"45.7440019240000000","longitude":"-98.946355062000000","publicwifi":"U","url":"http://www.sddot.com","broadband_type_id":null}
{"id":null,"anchorname":"Town of Langford","address":"306 Main St, Langford, SD 57454","bldgnbr":"306","predir":null,"streetname":"Main","streettype":"ST","suffdir":null,"city":"Langford","state_code":"SD","zip5":"57454","latitude":"45.6025961890000000","longitude":"-97.831934033000000","publicwifi":"U","url":null,"broadband_type_id":null}
{"id":null,"anchorname":"South Dakota Dept. of Transportation","address":"EAST HIGHWAY 10, BRITTON, SD 57430","bldgnbr":"N/A","predir":null,"streetname":"N/A","streettype":null,"suffdir":null,"city":"BRITTON","state_code":"SD","zip5":"57430","latitude":"45.7911185220000000","longitude":"-97.722238785000000","publicwifi":"U","url":"http://www.sddot.com","broadband_type_id":null}
{"id":null,"anchorname":"Eureka Fire Department","address":"518   F, Eureka, SD 57437","bldgnbr":"518","predir":null,"streetname":"F","streettype":null,"suffdir":null,"city":"Eureka","state_code":"SD","zip5":"57437","latitude":"45.7695859350000000","longitude":"-99.620458749000000","publicwifi":"U","url":null,"broadband_type_id":5}
{"id":null,"anchorname":"Long Lake Fire Dept","address":"10373   347th St, Longlake, SD 57457","bldgnbr":"10373","predir":null,"streetname":"347th","streettype":"ST","suffdir":null,"city":"Longlake","state_code":"SD","zip5":"57457","latitude":"45.7998116340000000","longitude":"-99.263016053000000","publicwifi":"U","url":null,"broadband_type_id":5}
{"id":null,"anchorname":"Leola School District 44-2","address":"11865 370th Ave, Westport, SD 57481","bldgnbr":"11865","predir":null,"streetname":"370th","streettype":"AVE","suffdir":null,"city":"Westport","state_code":"SD","zip5":"57481","latitude":"45.6696355460000000","longitude":"-98.787259992000000","publicwifi":"U","url":null,"broadband_type_id":6}
{"id":null,"anchorname":"Ipswich School District 22-6","address":"12434 364th Ave, Leola, SD 57456","bldgnbr":"12434","predir":null,"streetname":"364th","streettype":"AVE","suffdir":null,"city":"Leola","state_code":"SD","zip5":"57456","latitude":"45.7236331920000000","longitude":"-98.962150831000000","publicwifi":"U","url":null,"broadband_type_id":6}
