{"id":null,"anchorname":"WARREN","address":"220  SWEETAPPLE RD VINCENT, OH 45784-5005","bldgnbr":"220","predir":null,"streetname":"SWEETAPPLE RD","streettype":null,"suffdir":null,"city":"VINCENT","state_code":"OH","zip5":"45784","latitude":"39.3793900000000000","longitude":"-81.666440000000000","publicwifi":"U","url":null,"broadband_type_id":null}
{"id":null,"anchorname":"DECATUR COMMUNITY ASSOCIATION","address":"4550 TWO MILE RUN ROAD DECATUR, OH 45723","bldgnbr":"4550","predir":null,"streetname":"TWO MILE RUN ROAD","streettype":null,"suffdir":null,"city":"DECATUR","state_code":"OH","zip5":"45723","latitude":"39.3494340000000000","longitude":"-81.796283000000000","publicwifi":"U","url":null,"broadband_type_id":1}
{"id":null,"anchorname":"OHIO STATE UNIV AG TECH INST","address":"1328 DOVER RD WOOSTER, OH 44691-8905","bldgnbr":"1328","predir":null,"streetname":"DOVER RD","streettype":null,"suffdir":null,"city":"WOOSTER","state_code":"OH","zip5":"44691","latitude":"40.7741400000000000","longitude":"-81.922760000000000","publicwifi":"U","url":null,"broadband_type_id":1}
{"id":null,"anchorname":"WOOSTER NORTH HEAD START","address":"301 N MARKET ST WOOSTER, OH 44691-3513","bldgnbr":"301","predir":null,"streetname":"N MARKET ST","streettype":null,"suffdir":null,"city":"WOOSTER","state_code":"OH","zip5":"44691","latitude":"40.8007500000000000","longitude":"-81.940440000000000","publicwifi":"U","url":null,"broadband_type_id":null}
{"id":null,"anchorname":"PERKY'S WORLD OF CHILDREN","address":"647 E BOWMAN ST WOOSTER, OH 44691-3111","bldgnbr":"647","predir":null,"streetname":"E BOWMAN ST","streettype":null,"suffdir":null,"city":"WOOSTER","state_code":"OH","zip5":"44691","latitude":"40.8048600000000000","longitude":"-81.930750000000000","publicwifi":"U","url":null,"broadband_type_id":null}
{"id":null,"anchorname":"LAKEVIEW CTR CREATIVE LIVING","address":"876 S GEYERS CHAPEL RD WOOSTER, OH 44691-3908","bldgnbr":"876","predir":null,"streetname":"S GEYERS CHAPEL RD","streettype":null,"suffdir":null,"city":"WOOSTER","state_code":"OH","zip5":"44691","latitude":"40.7848500000000000","longitude":"-81.895680000000000","publicwifi":"U","url":null,"broadband_type_id":null}
{"id":null,"anchorname":"WOOSTER OSHP","address":"1786 DOVER RD WOOSTER, OH 44691-8965","bldgnbr":"1786","predir":null,"streetname":"DOVER RD","streettype":null,"suffdir":null,"city":"WOOSTER","state_code":"OH","zip5":"44691","latitude":"40.7722500000000000","longitude":"-81.918250000000000","publicwifi":"U","url":null,"broadband_type_id":null}
{"id":null,"anchorname":"WATERFORD ELEMENTARY SCHOOL","address":"19700 STATE ROUTE 339 WATERFORD, OH 45786","bldgnbr":"19700","predir":null,"streetname":"STATE ROUTE 339","streettype":null,"suffdir":null,"city":"WATERFORD","state_code":"OH","zip5":"45786","latitude":"39.5360490000000000","longitude":"-81.643296000000000","publicwifi":"U","url":null,"broadband_type_id":6}
{"id":null,"anchorname":"WATERFORD HIGH SCHOOL","address":"330 MAIN STREET WATERFORD, OH 45786","bldgnbr":"330","predir":null,"streetname":"MAIN STREET","streettype":null,"suffdir":null,"city":"WATERFORD","state_code":"OH","zip5":"45786","latitude":"39.5384260000000000","longitude":"-81.639057000000000","publicwifi":"U","url":null,"broadband_type_id":6}
{"id":null,"anchorname":"WATERTOWN VOLUNTEER FIRE DEPARTMENT","address":"55 WATERTOWN ROAD WATERTOWN, OH 45787","bldgnbr":"55","predir":null,"streetname":"WATERTOWN ROAD","streettype":null,"suffdir":null,"city":"WATERTOWN","state_code":"OH","zip5":"45787","latitude":"39.4665700000000000","longitude":"-81.633640000000000","publicwifi":"U","url":null,"broadband_type_id":5}
{"id":null,"anchorname":"WESLEY TOWNSHIP VOLUNTEER FIRE DEPARTMENT","address":"2060 STATE ROUTE 550 BARTLETT, OH 45713","bldgnbr":"2060","predir":null,"streetname":"STATE ROUTE 550","streettype":null,"suffdir":null,"city":"BARTLETT","state_code":"OH","zip5":"45713","latitude":"39.4194000000000000","longitude":"-81.815800000000000","publicwifi":"U","url":null,"broadband_type_id":5}
{"id":null,"anchorname":"BARLOW-VINCENT ELEMENTARY SCHOOL","address":"70 WARRIOR DR VINCENT, OH 45784","bldgnbr":"70","predir":null,"streetname":"WARRIOR DR","streettype":null,"suffdir":null,"city":"VINCENT","state_code":"OH","zip5":"45784","latitude":"39.3863900000000000","longitude":"-81.665630000000000","publicwifi":"U","url":null,"broadband_type_id":6}
{"id":null,"anchorname":"WARREN HIGH SCHOOL","address":"130 WARRIOR DR VINCENT, OH 45784","bldgnbr":"130","predir":null,"streetname":"WARRIOR DR","streettype":null,"suffdir":null,"city":"VINCENT","state_code":"OH","zip5":"45784","latitude":"39.3877600000000000","longitude":"-81.665530000000000","publicwifi":"U","url":null,"broadband_type_id":6}
{"id":null,"anchorname":"BARLOW BRANCH LIBRARY","address":"45 WHITE OAK PROFESSIONAL CENTER BARLOW, OH 45712","bldgnbr":"45","predir":null,"streetname":"WHITE OAK PROFESSIONAL CENTER","streettype":null,"suffdir":null,"city":"BARLOW","state_code":"OH","zip5":"45712","latitude":"39.3986000000000000","longitude":"-81.665000000000000","publicwifi":"Y","url":null,"broadband_type_id":6}
{"id":null,"anchorname":"BARLOW VOLUNTEER FIRE DEPARTMENT","address":"549 WARRIOR DRIVE VINCENT, OH 45784","bldgnbr":"549","predir":null,"streetname":"WARRIOR DRIVE","streettype":null,"suffdir":null,"city":"VINCENT","state_code":"OH","zip5":"45784","latitude":"39.3935600000000000","longitude":"-81.665400000000000","publicwifi":"U","url":null,"broadband_type_id":5}
{"id":null,"anchorname":"FIRST PRESBY CH-WEE CARE CN","address":"424 E BOWMAN ST WOOSTER, OH 44691-3540","bldgnbr":"424","predir":null,"streetname":"E BOWMAN ST","streettype":null,"suffdir":null,"city":"WOOSTER","state_code":"OH","zip5":"44691","latitude":"40.8050200000000000","longitude":"-81.935810000000000","publicwifi":"U","url":null,"broadband_type_id":3}
{"id":null,"anchorname":"WEE CARE CENTER","address":"424 E BOWMAN ST WOOSTER, OH 44691-3540","bldgnbr":"424","predir":null,"streetname":"E BOWMAN ST","streettype":null,"suffdir":null,"city":"WOOSTER","state_code":"OH","zip5":"44691","latitude":"40.8050200000000000","longitude":"-81.935810000000000","publicwifi":"U","url":null,"broadband_type_id":3}
{"id":null,"anchorname":"WOOSTER FIRE DIVISION STATION 2","address":"433 EAST HIGHLAND AVENUE WOOSTER, OH 44691","bldgnbr":"433","predir":null,"streetname":"EAST HIGHLAND AVENUE","streettype":null,"suffdir":null,"city":"WOOSTER","state_code":"OH","zip5":"44691","latitude":"40.8284900000000000","longitude":"-81.934670000000000","publicwifi":"U","url":null,"broadband_type_id":5}
{"id":null,"anchorname":"PARKVIEW ELEMENTARY SCHOOL","address":"773 PARKVIEW DR WOOSTER, OH 44691","bldgnbr":"773","predir":null,"streetname":"PARKVIEW DR","streettype":null,"suffdir":null,"city":"WOOSTER","state_code":"OH","zip5":"44691","latitude":"40.8066500000000000","longitude":"-81.952730000000000","publicwifi":"U","url":null,"broadband_type_id":6}
{"id":null,"anchorname":"CORNERSTONE ELEMENTARY SCHOOL","address":"101 W BOWMAN ST WOOSTER, OH 44691","bldgnbr":"101","predir":null,"streetname":"W BOWMAN ST","streettype":null,"suffdir":null,"city":"WOOSTER","state_code":"OH","zip5":"44691","latitude":"40.8046700000000000","longitude":"-81.942560000000000","publicwifi":"U","url":null,"broadband_type_id":6}
{"id":null,"anchorname":"COLLEGE HILLS RETIREMENT VILLAGE","address":"905 PORTAGE RD WOOSTER, OH 44691","bldgnbr":"905","predir":null,"streetname":"PORTAGE RD","streettype":null,"suffdir":null,"city":"WOOSTER","state_code":"OH","zip5":"44691","latitude":"40.8233700000000000","longitude":"-81.927490000000000","publicwifi":"U","url":null,"broadband_type_id":6}
{"id":null,"anchorname":"WOOSTER COMMUNITY HOSPITAL","address":"1761 BEALL AVENUE WOOSTER, OH 44691","bldgnbr":"1761","predir":null,"streetname":"BEALL AVENUE","streettype":null,"suffdir":null,"city":"WOOSTER","state_code":"OH","zip5":"44691","latitude":"40.8208000000000000","longitude":"-81.931670000000000","publicwifi":"U","url":null,"broadband_type_id":3}
{"id":null,"anchorname":"WAYNE COUNTY CARE CENTER","address":"876 S GEYERS CHAPEL RD WOOSTER, OH 44691","bldgnbr":"876","predir":null,"streetname":"S GEYERS CHAPEL RD","streettype":null,"suffdir":null,"city":"WOOSTER","state_code":"OH","zip5":"44691","latitude":"40.7848500000000000","longitude":"-81.895680000000000","publicwifi":"U","url":null,"broadband_type_id":3}
{"id":null,"anchorname":"WOOSTER TOWNSHIP FIRE DEPARTMENT","address":"1917 MILLERSBURG ROAD WOOSTER, OH 44691","bldgnbr":"1917","predir":null,"streetname":"MILLERSBURG ROAD","streettype":null,"suffdir":null,"city":"WOOSTER","state_code":"OH","zip5":"44691","latitude":"40.7763100000000000","longitude":"-81.930430000000000","publicwifi":"U","url":null,"broadband_type_id":5}
{"id":null,"anchorname":"WOOSTER TWP ELEMENTARY SCHOOL","address":"1071 DOVER RD WOOSTER, OH 44691","bldgnbr":"1071","predir":null,"streetname":"DOVER RD","streettype":null,"suffdir":null,"city":"WOOSTER","state_code":"OH","zip5":"44691","latitude":"40.7746500000000000","longitude":"-81.925650000000000","publicwifi":"U","url":null,"broadband_type_id":6}
{"id":null,"anchorname":"OHIO STATE UNIVERSITY POLICE DEPARTMENT","address":"1328 DOVER RD WOOSTER, OH 44691-8905","bldgnbr":"1328","predir":null,"streetname":"DOVER RD","streettype":null,"suffdir":null,"city":"WOOSTER","state_code":"OH","zip5":"44691","latitude":"40.7741400000000000","longitude":"-81.922760000000000","publicwifi":"U","url":null,"broadband_type_id":4}
{"id":null,"anchorname":"WOOSTER AREA DAY CARE CTR","address":"241 S BEVER ST WOOSTER, OH 44691-4327","bldgnbr":"241","predir":null,"streetname":"S BEVER ST","streettype":null,"suffdir":null,"city":"WOOSTER","state_code":"OH","zip5":"44691","latitude":"40.7968900000000000","longitude":"-81.936450000000000","publicwifi":"U","url":null,"broadband_type_id":3}
{"id":null,"anchorname":"HORN NURSING REHAB CENTER","address":"230 N MARKET ST WOOSTER, OH 44691","bldgnbr":"230","predir":null,"streetname":"N MARKET ST","streettype":null,"suffdir":null,"city":"WOOSTER","state_code":"OH","zip5":"44691","latitude":"40.8001500000000000","longitude":"-81.940590000000000","publicwifi":"U","url":null,"broadband_type_id":3}
{"id":null,"anchorname":"WAYNE COUNTY PUBLIC LIBRARY","address":"220 W. LIBERTY ST. WOOSTER, OH 44691","bldgnbr":"220","predir":null,"streetname":"W. LIBERTY ST.","streettype":null,"suffdir":null,"city":"WOOSTER","state_code":"OH","zip5":"44691","latitude":"40.8007490000000000","longitude":"-81.940805000000000","publicwifi":"Y","url":null,"broadband_type_id":6}
{"id":null,"anchorname":"WAYNE COUNTY JAIL-SHERIFF DEPARTMENT","address":"201 W NORTH ST WOOSTER, OH 44691","bldgnbr":"201","predir":null,"streetname":"W NORTH ST","streettype":null,"suffdir":null,"city":"WOOSTER","state_code":"OH","zip5":"44691","latitude":"40.7991800000000000","longitude":"-81.942250000000000","publicwifi":"U","url":null,"broadband_type_id":4}
{"id":null,"anchorname":"WAYNE COUNTY SHERIFFS OFFICE","address":"201 W NORTH ST WOOSTER, OH 44691-4805","bldgnbr":"201","predir":null,"streetname":"W NORTH ST","streettype":null,"suffdir":null,"city":"WOOSTER","state_code":"OH","zip5":"44691","latitude":"40.7991800000000000","longitude":"-81.942250000000000","publicwifi":"U","url":null,"broadband_type_id":4}
{"id":null,"anchorname":"PAPILLION-LA VISTA SENIOR HIGH","address":"402 E CENTENNIAL RD, PAPILLION, NE 68046, PAPILLION, NE 68046","bldgnbr":"402","predir":"E","streetname":"CENTENNIAL","streettype":"RD","suffdir":null,"city":"PAPILLION","state_code":"NE","zip5":"68046","latitude":"41.1688717810000000","longitude":"-96.039386303000000","publicwifi":"U","url":null,"broadband_type_id":6}
{"id":null,"anchorname":"WAYNE-MEDINA COMMUNITY ACTION AGENCY","address":"2375B BENDEN DR WOOSTER, OH 44691-2571","bldgnbr":"2375","predir":null,"streetname":"BENDEN DR","streettype":null,"suffdir":null,"city":"WOOSTER","state_code":"OH","zip5":"44691","latitude":"40.8223200000000000","longitude":"-81.904540000000000","publicwifi":"U","url":null,"broadband_type_id":1}
{"id":null,"anchorname":"WOOSTER","address":"144  N MARKET ST WOOSTER, OH 44691-4810","bldgnbr":"144","predir":null,"streetname":"N MARKET ST","streettype":null,"suffdir":null,"city":"WOOSTER","state_code":"OH","zip5":"44691","latitude":"40.7991900000000000","longitude":"-81.940330000000000","publicwifi":"U","url":null,"broadband_type_id":null}
{"id":null,"anchorname":"WAYNE CENTER FOR THE ARTS","address":"237 S WALNUT ST WOOSTER, OH 44691-4753","bldgnbr":"237","predir":null,"streetname":"S WALNUT ST","streettype":null,"suffdir":null,"city":"WOOSTER","state_code":"OH","zip5":"44691","latitude":"40.7959400000000000","longitude":"-81.941130000000000","publicwifi":"U","url":null,"broadband_type_id":null}
{"id":null,"anchorname":"WOOSTER CHILD DEVELOP CENTER","address":"237 S WALNUT ST WOOSTER, OH 44691-4753","bldgnbr":"237","predir":null,"streetname":"S WALNUT ST","streettype":null,"suffdir":null,"city":"WOOSTER","state_code":"OH","zip5":"44691","latitude":"40.7959400000000000","longitude":"-81.941130000000000","publicwifi":"U","url":null,"broadband_type_id":null}
{"id":null,"anchorname":"ELEMENTARY SCH AT VALPARAISO","address":"406 E THIRD, VALPARAISO, NE 68065, VALPARAISO, NE 68065","bldgnbr":"406","predir":"E","streetname":"3RD","streettype":null,"suffdir":null,"city":"VALPARAISO","state_code":"NE","zip5":"68065","latitude":"41.0806910870000000","longitude":"-96.828140235000000","publicwifi":"U","url":null,"broadband_type_id":6}
{"id":null,"anchorname":"WAYNE COUNTY MUNICIPAL COURT","address":"215 N GRANT ST WOOSTER, OH 44691-4817","bldgnbr":"215","predir":null,"streetname":"N GRANT ST","streettype":null,"suffdir":null,"city":"WOOSTER","state_code":"OH","zip5":"44691","latitude":"40.7991800000000000","longitude":"-81.943370000000000","publicwifi":"U","url":null,"broadband_type_id":1}
{"id":null,"anchorname":"AMERICAN RED CROSS WAYNE COUNTY CHAPTER","address":"140 SOUTH WALNUT STREET WOOSTER, OH 44691","bldgnbr":"140","predir":null,"streetname":"SOUTH WALNUT STREET","streettype":null,"suffdir":null,"city":"WOOSTER","state_code":"OH","zip5":"44691","latitude":"40.7975400000000000","longitude":"-81.941240000000000","publicwifi":"U","url":null,"broadband_type_id":1}
{"id":null,"anchorname":"WAYNE COUNTY","address":"215 S WALNUT ST WOOSTER, OH 44691","bldgnbr":"215","predir":null,"streetname":"S WALNUT ST","streettype":null,"suffdir":null,"city":"WOOSTER","state_code":"OH","zip5":"44691","latitude":"40.7963300000000000","longitude":"-81.941240000000000","publicwifi":"U","url":null,"broadband_type_id":1}
{"id":null,"anchorname":"WAYNE COUNTY MH \u0026 RECOVERY BD","address":"215 S WALNUT ST WOOSTER, OH 44691-4753","bldgnbr":"215","predir":null,"streetname":"S WALNUT ST","streettype":null,"suffdir":null,"city":"WOOSTER","state_code":"OH","zip5":"44691","latitude":"40.7963300000000000","longitude":"-81.941240000000000","publicwifi":"U","url":null,"broadband_type_id":1}
{"id":null,"anchorname":"OHIO BUREAU OF MOTOR VEHICLES","address":"340 S MARKET ST WOOSTER, OH 44691-4726","bldgnbr":"340","predir":null,"streetname":"S MARKET ST","streettype":null,"suffdir":null,"city":"WOOSTER","state_code":"OH","zip5":"44691","latitude":"40.7952790000000000","longitude":"-81.939155000000000","publicwifi":"U","url":null,"broadband_type_id":6}
{"id":null,"anchorname":"WAYNE CO BRD OF COMMISSIONERS","address":"428 W LIBERTY ST WOOSTER, OH 44691-4851","bldgnbr":"428","predir":null,"streetname":"W LIBERTY ST","streettype":null,"suffdir":null,"city":"WOOSTER","state_code":"OH","zip5":"44691","latitude":"40.7975900000000000","longitude":"-81.947350000000000","publicwifi":"U","url":null,"broadband_type_id":6}
{"id":null,"anchorname":"WAYNE COUNTY AUDITOR","address":"428 W LIBERTY ST WOOSTER, OH 44691-4851","bldgnbr":"428","predir":null,"streetname":"W LIBERTY ST","streettype":null,"suffdir":null,"city":"WOOSTER","state_code":"OH","zip5":"44691","latitude":"40.7975900000000000","longitude":"-81.947350000000000","publicwifi":"U","url":null,"broadband_type_id":1}
{"id":null,"anchorname":"WAYNE CO BD OF MR\u0026DD","address":"266 OLDMAN RD WOOSTER, OH 44691-8540","bldgnbr":"266","predir":null,"streetname":"OLDMAN RD","streettype":null,"suffdir":null,"city":"WOOSTER","state_code":"OH","zip5":"44691","latitude":"40.8353000000000000","longitude":"-81.943160000000000","publicwifi":"U","url":null,"broadband_type_id":null}
{"id":null,"anchorname":"OHIO BUREAU OF MOTOR VEHICLES","address":"200 VANOVER ST WOOSTER, OH 44691-4849","bldgnbr":"200","predir":null,"streetname":"VANOVER ST","streettype":null,"suffdir":null,"city":"WOOSTER","state_code":"OH","zip5":"44691","latitude":"40.7967050000000000","longitude":"-81.948421000000000","publicwifi":"U","url":null,"broadband_type_id":6}
{"id":null,"anchorname":"TRI-COUNTY ESC","address":"741 WINKLER DR WOOSTER, OH 44691","bldgnbr":"741","predir":null,"streetname":"WINKLER DR","streettype":null,"suffdir":null,"city":"WOOSTER","state_code":"OH","zip5":"44691","latitude":"40.8360220000000000","longitude":"-81.930856000000000","publicwifi":"U","url":null,"broadband_type_id":6}
{"id":null,"anchorname":"TRI-COUNTY","address":"741 WINKLER DR WOOSTER, OH 44691-1652","bldgnbr":"741","predir":null,"streetname":"WINKLER DR","streettype":null,"suffdir":null,"city":"WOOSTER","state_code":"OH","zip5":"44691","latitude":"40.8357400000000000","longitude":"-81.930410000000000","publicwifi":"U","url":null,"broadband_type_id":1}
{"id":null,"anchorname":"WAYNE MANOR ASSISTED LIVING","address":"4138 SWANSON BLVD WOOSTER, OH 44691","bldgnbr":"4138","predir":null,"streetname":"SWANSON BLVD","streettype":null,"suffdir":null,"city":"WOOSTER","state_code":"OH","zip5":"44691","latitude":"40.8578500000000000","longitude":"-81.888860000000000","publicwifi":"U","url":null,"broadband_type_id":6}
{"id":null,"anchorname":"HANDS OF GOD CHURCH","address":"4497 MELROSE DR WOOSTER, OH 44691-1875","bldgnbr":"4497","predir":null,"streetname":"MELROSE DR","streettype":null,"suffdir":null,"city":"WOOSTER","state_code":"OH","zip5":"44691","latitude":"40.8539100000000000","longitude":"-81.914970000000000","publicwifi":"U","url":null,"broadband_type_id":null}
{"id":null,"anchorname":"TRI-COUNTY COMPUTER SERVICE ASSOCIATION","address":"2125 EAGLE PASS WOOSTER, OH 44691-5320","bldgnbr":"2125","predir":null,"streetname":"EAGLE PASS","streettype":null,"suffdir":null,"city":"WOOSTER","state_code":"OH","zip5":"44691","latitude":"40.8255400000000000","longitude":"-81.903150000000000","publicwifi":"U","url":null,"broadband_type_id":1}
{"id":null,"anchorname":"WOOSTER 3 HEAD START CENTER","address":"3666 FRIENDSVILLE RD WOOSTER, OH 44691-9601","bldgnbr":"3666","predir":null,"streetname":"FRIENDSVILLE RD","streettype":null,"suffdir":null,"city":"WOOSTER","state_code":"OH","zip5":"44691","latitude":"40.8430100000000000","longitude":"-81.939600000000000","publicwifi":"U","url":null,"broadband_type_id":null}
{"id":null,"anchorname":"MIDLAND COUNCIL OF GOVERNMENTS","address":"2125B EAGLE PASS WOOSTER, OH 44691-5320","bldgnbr":"2125","predir":null,"streetname":"EAGLE PASS","streettype":null,"suffdir":null,"city":"WOOSTER","state_code":"OH","zip5":"44691","latitude":"40.8258100000000000","longitude":"-81.903870000000000","publicwifi":"U","url":null,"broadband_type_id":1}
{"id":null,"anchorname":"WOOSTER FIRE DIVISION STATION 1","address":"510 NORTH MARKET STREET WOOSTER, OH 44691","bldgnbr":"510","predir":null,"streetname":"NORTH MARKET STREET","streettype":null,"suffdir":null,"city":"WOOSTER","state_code":"OH","zip5":"44691","latitude":"40.8030500000000000","longitude":"-81.941360000000000","publicwifi":"U","url":null,"broadband_type_id":5}
{"id":null,"anchorname":"WOOSTER LITTLEST GENERALS PRESCHOOL","address":"101 W BOWMAN ST WOOSTER, OH 44691","bldgnbr":"101","predir":null,"streetname":"W BOWMAN ST","streettype":null,"suffdir":null,"city":"WOOSTER","state_code":"OH","zip5":"44691","latitude":"40.8047170000000000","longitude":"-81.941620000000000","publicwifi":"U","url":null,"broadband_type_id":6}
{"id":null,"anchorname":"TRIWAY JUNIOR HIGH SCHOOL","address":"3145 SHREVE RD WOOSTER, OH 44691","bldgnbr":"3145","predir":null,"streetname":"SHREVE RD","streettype":null,"suffdir":null,"city":"WOOSTER","state_code":"OH","zip5":"44691","latitude":"40.7609800000000000","longitude":"-81.975020000000000","publicwifi":"U","url":null,"broadband_type_id":6}
{"id":null,"anchorname":"TRIWAY HIGH SCHOOL","address":"3205 SHREVE RD WOOSTER, OH 44691","bldgnbr":"3205","predir":null,"streetname":"SHREVE RD","streettype":null,"suffdir":null,"city":"WOOSTER","state_code":"OH","zip5":"44691","latitude":"40.7611500000000000","longitude":"-81.978340000000000","publicwifi":"U","url":null,"broadband_type_id":6}
{"id":null,"anchorname":"WOOSTER HIGH SCHOOL","address":"515 OLDMAN RD WOOSTER, OH 44691","bldgnbr":"515","predir":null,"streetname":"OLDMAN RD","streettype":null,"suffdir":null,"city":"WOOSTER","state_code":"OH","zip5":"44691","latitude":"40.8360600000000000","longitude":"-81.946380000000000","publicwifi":"U","url":null,"broadband_type_id":6}
{"id":null,"anchorname":"KEAN ELEMENTARY SCHOOL","address":"432 OLDMAN RD WOOSTER, OH 44691","bldgnbr":"432","predir":null,"streetname":"OLDMAN RD","streettype":null,"suffdir":null,"city":"WOOSTER","state_code":"OH","zip5":"44691","latitude":"40.8322500000000000","longitude":"-81.938830000000000","publicwifi":"U","url":null,"broadband_type_id":6}
{"id":null,"anchorname":"IDA SUE SCHOOL","address":"266 OLDMAN RD WOOSTER, OH 44691-8540","bldgnbr":"266","predir":null,"streetname":"OLDMAN RD","streettype":null,"suffdir":null,"city":"WOOSTER","state_code":"OH","zip5":"44691","latitude":"40.8353000000000000","longitude":"-81.943160000000000","publicwifi":"U","url":null,"broadband_type_id":6}
{"id":null,"anchorname":"WEST VIEW MANOR NURSING HOME","address":"1715 MECHANICSBURG RD WOOSTER, OH 44691","bldgnbr":"1715","predir":null,"streetname":"MECHANICSBURG RD","streettype":null,"suffdir":null,"city":"WOOSTER","state_code":"OH","zip5":"44691","latitude":"40.8187000000000000","longitude":"-81.959810000000000","publicwifi":"U","url":null,"broadband_type_id":3}
{"id":null,"anchorname":"CARE 4 KIDS","address":"5025A CLEVELAND RD WOOSTER, OH 44691-1159","bldgnbr":"5025","predir":null,"streetname":"CLEVELAND RD","streettype":null,"suffdir":null,"city":"WOOSTER","state_code":"OH","zip5":"44691","latitude":"40.8582400000000000","longitude":"-81.924370000000000","publicwifi":"U","url":null,"broadband_type_id":3}
{"id":null,"anchorname":"CENTRAL FIRE DISTRICT STATION 2","address":"5277 CLEVELAND ROAD WOOSTER, OH 44691","bldgnbr":"5277","predir":null,"streetname":"CLEVELAND ROAD","streettype":null,"suffdir":null,"city":"WOOSTER","state_code":"OH","zip5":"44691","latitude":"40.8634900000000000","longitude":"-81.922360000000000","publicwifi":"U","url":null,"broadband_type_id":5}
{"id":null,"anchorname":"SMITHVILLE-WESTERN COMMONS NURSING HOME","address":"4110 E SMITHVILLE WESTERN RD WOOSTER, OH 44691","bldgnbr":"4110","predir":null,"streetname":"E SMITHVILLE WESTERN RD","streettype":null,"suffdir":null,"city":"WOOSTER","state_code":"OH","zip5":"44691","latitude":"40.8579700000000000","longitude":"-81.889950000000000","publicwifi":"U","url":null,"broadband_type_id":3}
{"id":null,"anchorname":"MELROSE ELEMENTARY SCHOOL","address":"1641 SUNSET LN WOOSTER, OH 44691","bldgnbr":"1641","predir":null,"streetname":"SUNSET LN","streettype":null,"suffdir":null,"city":"WOOSTER","state_code":"OH","zip5":"44691","latitude":"40.8319700000000000","longitude":"-81.916460000000000","publicwifi":"U","url":null,"broadband_type_id":6}
{"id":null,"anchorname":"GLENDORA HEALTH CARE CENTER","address":"1552 N HONEYTOWN RD WOOSTER, OH 44691","bldgnbr":"1552","predir":null,"streetname":"N HONEYTOWN RD","streettype":null,"suffdir":null,"city":"WOOSTER","state_code":"OH","zip5":"44691","latitude":"40.8185700000000000","longitude":"-81.877530000000000","publicwifi":"U","url":null,"broadband_type_id":3}
{"id":null,"anchorname":"ST WENCESLAUS ELEMENTARY SCH","address":"108 N LINDEN, WAHOO, NE 68066, WAHOO, NE 68066","bldgnbr":"108","predir":"N","streetname":"LINDEN","streettype":null,"suffdir":null,"city":"WAHOO","state_code":"NE","zip5":"68066","latitude":"41.2062087970000000","longitude":"-96.618700656000000","publicwifi":"U","url":null,"broadband_type_id":6}
{"id":null,"anchorname":"SMITHVILLE CHURCH OF GOD","address":"147 N MILTON ST SMITHVILLE, OH 44677-9676","bldgnbr":"147","predir":null,"streetname":"N MILTON ST","streettype":null,"suffdir":null,"city":"SMITHVILLE","state_code":"OH","zip5":"44677","latitude":"40.8647000000000000","longitude":"-81.860900000000000","publicwifi":"U","url":null,"broadband_type_id":null}
{"id":null,"anchorname":"GREEN LOCAL","address":"484  E MAIN ST SMITHVILLE, OH 44677-9555","bldgnbr":"484","predir":null,"streetname":"E MAIN ST","streettype":null,"suffdir":null,"city":"SMITHVILLE","state_code":"OH","zip5":"44677","latitude":"40.8669600000000000","longitude":"-81.853840000000000","publicwifi":"U","url":null,"broadband_type_id":null}
{"id":null,"anchorname":"EDUCATIONAL SERVICE UNIT 06","address":"210 5TH ST, MILFORD, NE 68405, MILFORD, NE 68405","bldgnbr":"210","predir":null,"streetname":"5TH","streettype":"ST","suffdir":null,"city":"MILFORD","state_code":"NE","zip5":"68405","latitude":"40.7705503440000000","longitude":"-97.045667693000000","publicwifi":"U","url":null,"broadband_type_id":6}
{"id":null,"anchorname":"VILLAGE OF LITCHFIELD","address":"219 N MAIN ST, LITCHFIELD, NE 68852, LITCHFIELD, NE 68852","bldgnbr":"219","predir":"N","streetname":"MAIN","streettype":"ST","suffdir":null,"city":"LITCHFIELD","state_code":"NE","zip5":"68852","latitude":"41.1566950000000000","longitude":"-99.155717000000000","publicwifi":"U","url":null,"broadband_type_id":1}
{"id":null,"anchorname":"CHRISTIAN MISSIONARY ALLIANCE","address":"302 S WALNUT ST ORRVILLE, OH 44667-1965","bldgnbr":"302","predir":null,"streetname":"S WALNUT ST","streettype":null,"suffdir":null,"city":"ORRVILLE","state_code":"OH","zip5":"44667","latitude":"40.8388000000000000","longitude":"-81.763060000000000","publicwifi":"U","url":null,"broadband_type_id":6}
{"id":null,"anchorname":"ORR VILLA RETIREMENT COMMUNITY","address":"333 E SASSAFRAS ST ORRVILLE, OH 44667","bldgnbr":"333","predir":null,"streetname":"E SASSAFRAS ST","streettype":null,"suffdir":null,"city":"ORRVILLE","state_code":"OH","zip5":"44667","latitude":"40.8307400000000000","longitude":"-81.761210000000000","publicwifi":"U","url":null,"broadband_type_id":1}
{"id":null,"anchorname":"ORRVILLE AREA UNITED WAY","address":"1801 SMUCKER RD. ORRVILLE, OH 44667","bldgnbr":"1801","predir":null,"streetname":"SMUCKER RD.","streettype":null,"suffdir":null,"city":"ORRVILLE","state_code":"OH","zip5":"44667","latitude":"40.8599020000000000","longitude":"-81.787801000000000","publicwifi":"U","url":null,"broadband_type_id":null}
{"id":null,"anchorname":"OHIO BUREAU OF MOTOR VEHICLES","address":"1430 W HIGH ST ORRVILLE, OH 44667-1408","bldgnbr":"1430","predir":null,"streetname":"W HIGH ST","streettype":null,"suffdir":null,"city":"ORRVILLE","state_code":"OH","zip5":"44667","latitude":"40.8441630000000000","longitude":"-81.781296000000000","publicwifi":"U","url":null,"broadband_type_id":6}
{"id":null,"anchorname":"ORRVILLE","address":"815  N ELLA ST ORRVILLE, OH 44667-1154","bldgnbr":"815","predir":null,"streetname":"N ELLA ST","streettype":null,"suffdir":null,"city":"ORRVILLE","state_code":"OH","zip5":"44667","latitude":"40.8480800000000000","longitude":"-81.769790000000000","publicwifi":"U","url":null,"broadband_type_id":null}
{"id":null,"anchorname":"ORRVILLE EAST H.S. CHILD DEV C","address":"300 S WALNUT ST ORRVILLE, OH 44667-1965","bldgnbr":"300","predir":null,"streetname":"S WALNUT ST","streettype":null,"suffdir":null,"city":"ORRVILLE","state_code":"OH","zip5":"44667","latitude":"40.8388000000000000","longitude":"-81.763060000000000","publicwifi":"U","url":null,"broadband_type_id":null}
{"id":null,"anchorname":"ORRVILLE 2 CDC","address":"1830 W MARKET ST ORRVILLE, OH 44667-1358","bldgnbr":"1830","predir":null,"streetname":"W MARKET ST","streettype":null,"suffdir":null,"city":"ORRVILLE","state_code":"OH","zip5":"44667","latitude":"40.8406800000000000","longitude":"-81.789290000000000","publicwifi":"U","url":null,"broadband_type_id":null}
{"id":null,"anchorname":"ORRVILLE GRACE BRETHREN CHURCH","address":"2200 PARADISE RD ORRVILLE, OH 44667-9408","bldgnbr":"2200","predir":null,"streetname":"PARADISE RD","streettype":null,"suffdir":null,"city":"ORRVILLE","state_code":"OH","zip5":"44667","latitude":"40.8368200000000000","longitude":"-81.802500000000000","publicwifi":"U","url":null,"broadband_type_id":null}
{"id":null,"anchorname":"ORRVILLE HEAD START CHILD D CT","address":"1305 W MARKET ST ORRVILLE, OH 44667-1711","bldgnbr":"1305","predir":null,"streetname":"W MARKET ST","streettype":null,"suffdir":null,"city":"ORRVILLE","state_code":"OH","zip5":"44667","latitude":"40.8408300000000000","longitude":"-81.779090000000000","publicwifi":"U","url":null,"broadband_type_id":null}
{"id":null,"anchorname":"DALTON HEAD START CENTER","address":"11980 LINCOLN WAY E ORRVILLE, OH 44667-9518","bldgnbr":"11980","predir":null,"streetname":"LINCOLN WAY E","streettype":null,"suffdir":null,"city":"ORRVILLE","state_code":"OH","zip5":"44667","latitude":"40.7968700000000000","longitude":"-81.765620000000000","publicwifi":"U","url":null,"broadband_type_id":null}
{"id":null,"anchorname":"LINDA MARTIN ATTENTION CENTER","address":"6807 NON PARIEL RD WOOSTER, OH 44691-8385","bldgnbr":"6807","predir":null,"streetname":"NON PARIEL RD","streettype":null,"suffdir":null,"city":"WOOSTER","state_code":"OH","zip5":"44691","latitude":"40.7191600000000000","longitude":"-81.901750000000000","publicwifi":"U","url":null,"broadband_type_id":null}
{"id":null,"anchorname":"MORELAND CHILD DEV CENTER","address":"138 E MORELAND RD WOOSTER, OH 44691-9428","bldgnbr":"138","predir":null,"streetname":"E MORELAND RD","streettype":null,"suffdir":null,"city":"WOOSTER","state_code":"OH","zip5":"44691","latitude":"40.7117100000000000","longitude":"-81.943790000000000","publicwifi":"U","url":null,"broadband_type_id":null}
{"id":null,"anchorname":"SHREVE CHILD DEVELOP CENTER","address":"343 N MARKET ST SHREVE, OH 44676-9772","bldgnbr":"343","predir":null,"streetname":"N MARKET ST","streettype":null,"suffdir":null,"city":"SHREVE","state_code":"OH","zip5":"44676","latitude":"40.6838300000000000","longitude":"-82.022440000000000","publicwifi":"U","url":null,"broadband_type_id":null}
{"id":null,"anchorname":"SMITHVILLE HIGH SCHOOL","address":"480 E MAIN STREET SMITHVILLE, OH 44677","bldgnbr":"480","predir":null,"streetname":"E MAIN STREET","streettype":null,"suffdir":null,"city":"SMITHVILLE","state_code":"OH","zip5":"44677","latitude":"40.8654200000000000","longitude":"-81.856480000000000","publicwifi":"U","url":null,"broadband_type_id":6}
{"id":null,"anchorname":"SMITHVILLE ELEMENTARY SCHOOL","address":"156 N MILTON STREET SMITHVILLE, OH 44677","bldgnbr":"156","predir":null,"streetname":"N MILTON STREET","streettype":null,"suffdir":null,"city":"SMITHVILLE","state_code":"OH","zip5":"44677","latitude":"40.8640200000000000","longitude":"-81.860510000000000","publicwifi":"U","url":null,"broadband_type_id":6}
{"id":null,"anchorname":"SMITHVILLE POLICE DEPARTMENT","address":"207 WEST MAIN STREET SMITHVILLE, OH 44677-0517","bldgnbr":"207","predir":null,"streetname":"WEST MAIN STREET","streettype":null,"suffdir":null,"city":"SMITHVILLE","state_code":"OH","zip5":"44677","latitude":"40.8626740000000000","longitude":"-81.861300000000000","publicwifi":"U","url":null,"broadband_type_id":4}
{"id":null,"anchorname":"UNIVERSITY OF AKRON WAYNE COLLEGE","address":"1901 SMUCKER RD ORRVILLE, OH 44667","bldgnbr":"1901","predir":null,"streetname":"SMUCKER RD","streettype":null,"suffdir":null,"city":"ORRVILLE","state_code":"OH","zip5":"44667","latitude":"40.8591690000000000","longitude":"-81.785691000000000","publicwifi":"U","url":null,"broadband_type_id":6}
{"id":null,"anchorname":"BRENN-FIELD NURSING CENTER","address":"1980 LYNN DR ORRVILLE, OH 44667","bldgnbr":"1980","predir":null,"streetname":"LYNN DR","streettype":null,"suffdir":null,"city":"ORRVILLE","state_code":"OH","zip5":"44667","latitude":"40.8490400000000000","longitude":"-81.792560000000000","publicwifi":"U","url":null,"broadband_type_id":3}
{"id":null,"anchorname":"AUBLE EMERGENCY MEDICAL SERVICES AND AMBULANCE","address":"512 EAST OAK STREET ORRVILLE, OH 44667","bldgnbr":"512","predir":null,"streetname":"EAST OAK STREET","streettype":null,"suffdir":null,"city":"ORRVILLE","state_code":"OH","zip5":"44667","latitude":"40.8342900000000000","longitude":"-81.758500000000000","publicwifi":"U","url":null,"broadband_type_id":3}
{"id":null,"anchorname":"DUNLAP COMMUNITY HOSPITAL","address":"832 SOUTH MAIN STREET ORRVILLE, OH 44667","bldgnbr":"832","predir":null,"streetname":"SOUTH MAIN STREET","streettype":null,"suffdir":null,"city":"ORRVILLE","state_code":"OH","zip5":"44667","latitude":"40.8324400000000000","longitude":"-81.764460000000000","publicwifi":"U","url":null,"broadband_type_id":3}
{"id":null,"anchorname":"ORRVILLE MIDDLE SCHOOL","address":"801 MINERAL SPRING ST ORRVILLE, OH 44667","bldgnbr":"801","predir":null,"streetname":"MINERAL SPRING ST","streettype":null,"suffdir":null,"city":"ORRVILLE","state_code":"OH","zip5":"44667","latitude":"40.8508730000000000","longitude":"-81.774196000000000","publicwifi":"U","url":null,"broadband_type_id":6}
{"id":null,"anchorname":"ORRVILLE ELEMENTARY SCHOOL","address":"805 MINERAL SPRINGS ST ORRVILLE, OH 44667","bldgnbr":"805","predir":null,"streetname":"MINERAL SPRINGS ST","streettype":null,"suffdir":null,"city":"ORRVILLE","state_code":"OH","zip5":"44667","latitude":"40.8504650000000000","longitude":"-81.770844000000000","publicwifi":"U","url":null,"broadband_type_id":6}
{"id":null,"anchorname":"ORRVILLE POLICE DEPARTMENT","address":"207 NORTH MAIN STREET ORRVILLE, OH 44667","bldgnbr":"207","predir":null,"streetname":"NORTH MAIN STREET","streettype":null,"suffdir":null,"city":"ORRVILLE","state_code":"OH","zip5":"44667","latitude":"40.8417200000000000","longitude":"-81.764360000000000","publicwifi":"U","url":null,"broadband_type_id":4}
{"id":null,"anchorname":"ORRVILLE PUBLIC LIBRARY","address":"230 N MAIN ST ORRVILLE, OH 44667-1601","bldgnbr":"230","predir":null,"streetname":"N MAIN ST","streettype":null,"suffdir":null,"city":"ORRVILLE","state_code":"OH","zip5":"44667","latitude":"40.8421400000000000","longitude":"-81.764110000000000","publicwifi":"Y","url":null,"broadband_type_id":6}
{"id":null,"anchorname":"SAMARITAN CARE INCORPORATED","address":"400 SOUTH CROWN HILL ROAD ORRVILLE, OH 44667","bldgnbr":"400","predir":null,"streetname":"SOUTH CROWN HILL ROAD","streettype":null,"suffdir":null,"city":"ORRVILLE","state_code":"OH","zip5":"44667","latitude":"40.8342000000000000","longitude":"-81.784350000000000","publicwifi":"U","url":null,"broadband_type_id":3}
{"id":null,"anchorname":"REGENCY PARK NURSING AND REHAB CENTER","address":"230 S CROWN HILL RD ORRVILLE, OH 44667","bldgnbr":"230","predir":null,"streetname":"S CROWN HILL RD","streettype":null,"suffdir":null,"city":"ORRVILLE","state_code":"OH","zip5":"44667","latitude":"40.8377000000000000","longitude":"-81.784380000000000","publicwifi":"U","url":null,"broadband_type_id":3}
{"id":null,"anchorname":"FREDERICKSBURG ELEMENTARY SCHOOL","address":"160 W CLAY ST FREDERICKSBURG, OH 44627","bldgnbr":"160","predir":null,"streetname":"W CLAY ST","streettype":null,"suffdir":null,"city":"FREDERICKSBURG","state_code":"OH","zip5":"44627","latitude":"40.6759400000000000","longitude":"-81.871780000000000","publicwifi":"U","url":null,"broadband_type_id":6}
{"id":null,"anchorname":"FREDERICKSBURG FIRE DEPARTMENT","address":"288 NORTH MILL STREET FREDERICKSBURG, OH 44627","bldgnbr":"288","predir":null,"streetname":"NORTH MILL STREET","streettype":null,"suffdir":null,"city":"FREDERICKSBURG","state_code":"OH","zip5":"44627","latitude":"40.6783600000000000","longitude":"-81.871780000000000","publicwifi":"U","url":null,"broadband_type_id":5}
{"id":null,"anchorname":"MOUNT EATON POLICE DEPARTMENT","address":"15985 EAST MAIN STREET MOUNT EATON, OH 44659","bldgnbr":"15985","predir":null,"streetname":"EAST MAIN STREET","streettype":null,"suffdir":null,"city":"MOUNT EATON","state_code":"OH","zip5":"44659","latitude":"40.6944000000000000","longitude":"-81.703300000000000","publicwifi":"U","url":null,"broadband_type_id":4}
{"id":null,"anchorname":"PAINT TOWNSHIP FIRE DEPARTMENT","address":"15987 EAST MAIN STREET MOUNT EATON, OH 44659","bldgnbr":"15987","predir":null,"streetname":"EAST MAIN STREET","streettype":null,"suffdir":null,"city":"MOUNT EATON","state_code":"OH","zip5":"44659","latitude":"40.6944000000000000","longitude":"-81.703300000000000","publicwifi":"U","url":null,"broadband_type_id":5}
{"id":null,"anchorname":"MOUNT EATON ELEMENTARY SCHOOL","address":"8746 MARKET STREET MOUNT EATON, OH 44659","bldgnbr":"8746","predir":null,"streetname":"MARKET STREET","streettype":null,"suffdir":null,"city":"MOUNT EATON","state_code":"OH","zip5":"44659","latitude":"40.6924720000000000","longitude":"-81.703988000000000","publicwifi":"U","url":null,"broadband_type_id":6}
{"id":null,"anchorname":"FRANKLIN TWP ELEMENTARY SCHOOL","address":"2060 E MORELAND RD WOOSTER, OH 44691","bldgnbr":"2060","predir":null,"streetname":"E MORELAND RD","streettype":null,"suffdir":null,"city":"WOOSTER","state_code":"OH","zip5":"44691","latitude":"40.7117900000000000","longitude":"-81.921200000000000","publicwifi":"U","url":null,"broadband_type_id":6}
{"id":null,"anchorname":"EARLY CHILDHOOD LEARNING CENTER","address":"2600 2ND AVE, SCOTTSBLUFF, NE 69361, SCOTTSBLUFF, NE 69361","bldgnbr":"2600","predir":null,"streetname":"2ND","streettype":"AVE","suffdir":null,"city":"SCOTTSBLUFF","state_code":"NE","zip5":"69361","latitude":"41.8725531270000000","longitude":"-103.66007238600000","publicwifi":"U","url":null,"broadband_type_id":6}
{"id":null,"anchorname":"UNITED STATES POSTAL SERVICE","address":"112 E 3RD ST, FORDYCE, NE 68825, FORDYCE, NE 68825","bldgnbr":"112","predir":"E","streetname":"3RD","streettype":"ST","suffdir":null,"city":"FORDYCE","state_code":"NE","zip5":"68825","latitude":"42.8063040000000000","longitude":"-102.20300000000000","publicwifi":"U","url":null,"broadband_type_id":6}
{"id":null,"anchorname":"ST AUSTIN RETIREMNENT VILLAGE","address":"3041 N ELYRIA RD WOOSTER, OH 44691-9379","bldgnbr":"3041","predir":null,"streetname":"N ELYRIA RD","streettype":null,"suffdir":null,"city":"WOOSTER","state_code":"OH","zip5":"44691","latitude":"40.8403200000000000","longitude":"-82.099580000000000","publicwifi":"U","url":null,"broadband_type_id":1}
{"id":null,"anchorname":"WEST SALEM BRANCH","address":"99 EAST BUCKEYE STREET WEST SALEM, OH 44287","bldgnbr":"99","predir":null,"streetname":"EAST BUCKEYE STREET","streettype":null,"suffdir":null,"city":"WEST SALEM","state_code":"OH","zip5":"44287","latitude":"40.9735420000000000","longitude":"-82.108191000000000","publicwifi":"Y","url":null,"broadband_type_id":6}
{"id":null,"anchorname":"CHRISTIAN CHILDREN'S HOME","address":"2685 ARMSTRONG RD WOOSTER, OH 44691-9041","bldgnbr":"2685","predir":null,"streetname":"ARMSTRONG RD","streettype":null,"suffdir":null,"city":"WOOSTER","state_code":"OH","zip5":"44691","latitude":"40.9031800000000000","longitude":"-81.989830000000000","publicwifi":"U","url":null,"broadband_type_id":6}
{"id":null,"anchorname":"APOSTOLIC CHRISTIAN HOME INC","address":"10680 STEINER RD RITTMAN, OH 44270","bldgnbr":"10680","predir":null,"streetname":"STEINER RD","streettype":null,"suffdir":null,"city":"RITTMAN","state_code":"OH","zip5":"44270","latitude":"40.9313000000000000","longitude":"-81.785360000000000","publicwifi":"U","url":null,"broadband_type_id":6}
{"id":null,"anchorname":"AUSTIN REHABILITATION CNTR","address":"3071 N ELYRIA RD WOOSTER, OH 44691-9379","bldgnbr":"3071","predir":null,"streetname":"N ELYRIA RD","streettype":null,"suffdir":null,"city":"WOOSTER","state_code":"OH","zip5":"44691","latitude":"40.8369400000000000","longitude":"-82.100180000000000","publicwifi":"U","url":null,"broadband_type_id":null}
{"id":null,"anchorname":"GRUTER FOUNDATION","address":"3071 N ELYRIA RD WOOSTER, OH 44691-9379","bldgnbr":"3071","predir":null,"streetname":"N ELYRIA RD","streettype":null,"suffdir":null,"city":"WOOSTER","state_code":"OH","zip5":"44691","latitude":"40.8369400000000000","longitude":"-82.100180000000000","publicwifi":"U","url":null,"broadband_type_id":null}
{"id":null,"anchorname":"NORWAYNE LOCAL","address":"350  SOUTH MAIN STREET CRESTON, OH 44217","bldgnbr":"350","predir":null,"streetname":"SOUTH MAIN STREET","streettype":null,"suffdir":null,"city":"CRESTON","state_code":"OH","zip5":"44217","latitude":"40.9666570000000000","longitude":"-81.899304000000000","publicwifi":"U","url":null,"broadband_type_id":null}
{"id":null,"anchorname":"SHREVE BRANCH LIBRARY","address":"189 W MCCONKEY ST SHREVE, OH 44676-9301","bldgnbr":"189","predir":null,"streetname":"W MCCONKEY ST","streettype":null,"suffdir":null,"city":"SHREVE","state_code":"OH","zip5":"44676","latitude":"40.6814700000000000","longitude":"-82.023630000000000","publicwifi":"Y","url":null,"broadband_type_id":6}
{"id":null,"anchorname":"SHREVE ELEMENTARY SCHOOL","address":"598 N MARKET ST SHREVE, OH 44676","bldgnbr":"598","predir":null,"streetname":"N MARKET ST","streettype":null,"suffdir":null,"city":"SHREVE","state_code":"OH","zip5":"44676","latitude":"40.6860300000000000","longitude":"-82.022267000000000","publicwifi":"U","url":null,"broadband_type_id":6}
{"id":null,"anchorname":"CLINTON TOWNSHIP FIRE DEPARTMENT","address":"205 EAST MCCONKEY STREET SHREVE, OH 44676","bldgnbr":"205","predir":null,"streetname":"EAST MCCONKEY STREET","streettype":null,"suffdir":null,"city":"SHREVE","state_code":"OH","zip5":"44676","latitude":"40.6814200000000000","longitude":"-82.021390000000000","publicwifi":"U","url":null,"broadband_type_id":5}
{"id":null,"anchorname":"SHREVE EMERGENCY MEDICAL SERVICES","address":"205 EAST MCCONKEY STREET SHREVE, OH 44676","bldgnbr":"205","predir":null,"streetname":"EAST MCCONKEY STREET","streettype":null,"suffdir":null,"city":"SHREVE","state_code":"OH","zip5":"44676","latitude":"40.6814200000000000","longitude":"-82.021390000000000","publicwifi":"U","url":null,"broadband_type_id":3}
{"id":null,"anchorname":"NORTHWESTERN ELEMENTARY SCHOOL","address":"7334 N ELYRIA RD WEST SALEM, OH 44287","bldgnbr":"7334","predir":null,"streetname":"N ELYRIA RD","streettype":null,"suffdir":null,"city":"WEST SALEM","state_code":"OH","zip5":"44287","latitude":"40.8894200000000000","longitude":"-82.108730000000000","publicwifi":"U","url":null,"broadband_type_id":6}
{"id":null,"anchorname":"NORTHWESTERN HIGH SCHOOL","address":"7473 N ELYRIA RD WEST SALEM, OH 44287","bldgnbr":"7473","predir":null,"streetname":"N ELYRIA RD","streettype":null,"suffdir":null,"city":"WEST SALEM","state_code":"OH","zip5":"44287","latitude":"40.8893800000000000","longitude":"-82.108370000000000","publicwifi":"U","url":null,"broadband_type_id":6}
{"id":null,"anchorname":"NORTHWESTERN MIDDLE SCHOOL","address":"7569 N ELYRIA RD WEST SALEM, OH 44287","bldgnbr":"7569","predir":null,"streetname":"N ELYRIA RD","streettype":null,"suffdir":null,"city":"WEST SALEM","state_code":"OH","zip5":"44287","latitude":"40.8920600000000000","longitude":"-82.108470000000000","publicwifi":"U","url":null,"broadband_type_id":6}
{"id":null,"anchorname":"NEW PITTSBURG FIRE DEPARTMENT","address":"3311 NORTH ELYRIA ROAD WOOSTER, OH 44691","bldgnbr":"3311","predir":null,"streetname":"NORTH ELYRIA ROAD","streettype":null,"suffdir":null,"city":"WOOSTER","state_code":"OH","zip5":"44691","latitude":"40.8398900000000000","longitude":"-82.099510000000000","publicwifi":"U","url":null,"broadband_type_id":5}
{"id":null,"anchorname":"HERITAGE PARK NURSING AND REHAB","address":"3071 N ELYRIA RD WOOSTER, OH 44691","bldgnbr":"3071","predir":null,"streetname":"N ELYRIA RD","streettype":null,"suffdir":null,"city":"WOOSTER","state_code":"OH","zip5":"44691","latitude":"40.8369400000000000","longitude":"-82.100180000000000","publicwifi":"U","url":null,"broadband_type_id":3}
{"id":null,"anchorname":"WEST SALEM POLICE DEPARTMENT","address":"27 SOUTH MAIN STREET WEST SALEM, OH 44287-0256","bldgnbr":"27","predir":null,"streetname":"SOUTH MAIN STREET","streettype":null,"suffdir":null,"city":"WEST SALEM","state_code":"OH","zip5":"44287","latitude":"40.9717770000000000","longitude":"-82.109376000000000","publicwifi":"U","url":null,"broadband_type_id":4}
{"id":null,"anchorname":"CANAAN TOWNSHIP FIRE DEPARTMENT STATION 2","address":"57 SOUTH FRONT STREET BURBANK, OH 44214","bldgnbr":"57","predir":null,"streetname":"SOUTH FRONT STREET","streettype":null,"suffdir":null,"city":"BURBANK","state_code":"OH","zip5":"44214","latitude":"40.9893900000000000","longitude":"-81.994960000000000","publicwifi":"U","url":null,"broadband_type_id":5}
{"id":null,"anchorname":"NORWAYNE ELEMENTARY SCHOOL","address":"286 S. MAIN STREET CRESTON, OH 44217","bldgnbr":"286","predir":null,"streetname":"S. MAIN STREET","streettype":null,"suffdir":null,"city":"CRESTON","state_code":"OH","zip5":"44217","latitude":"40.9713880000000000","longitude":"-81.899405000000000","publicwifi":"U","url":null,"broadband_type_id":6}
{"id":null,"anchorname":"NORWAYNE MIDDLE SCHOOL","address":"350 S MAIN ST CRESTON, OH 44217","bldgnbr":"350","predir":null,"streetname":"S MAIN ST","streettype":null,"suffdir":null,"city":"CRESTON","state_code":"OH","zip5":"44217","latitude":"40.9649870000000000","longitude":"-81.901158000000000","publicwifi":"U","url":null,"broadband_type_id":6}
{"id":null,"anchorname":"NORWAYNE HIGH SCHOOL","address":"350 S MAIN ST CRESTON, OH 44217","bldgnbr":"350","predir":null,"streetname":"S MAIN ST","streettype":null,"suffdir":null,"city":"CRESTON","state_code":"OH","zip5":"44217","latitude":"40.9644600000000000","longitude":"-81.899280000000000","publicwifi":"U","url":null,"broadband_type_id":6}
{"id":null,"anchorname":"CRESTON BRANCH LIBRARY","address":"100 W ERIE ST CRESTON, OH 44217-9640","bldgnbr":"100","predir":null,"streetname":"W ERIE ST","streettype":null,"suffdir":null,"city":"CRESTON","state_code":"OH","zip5":"44217","latitude":"40.9835200000000000","longitude":"-81.894560000000000","publicwifi":"Y","url":null,"broadband_type_id":6}
{"id":null,"anchorname":"CRESTON POLICE DEPARTMENT","address":"120 BROOKLYN AVE CRESTON, OH 44217-9623","bldgnbr":"120","predir":null,"streetname":"BROOKLYN AVE","streettype":null,"suffdir":null,"city":"CRESTON","state_code":"OH","zip5":"44217","latitude":"40.9840700000000000","longitude":"-81.893140000000000","publicwifi":"U","url":null,"broadband_type_id":4}
{"id":null,"anchorname":"CANAAN TOWNSHIP FIRE DEPARTMENT STATION 1 - HEADQUARTERS","address":"209 SOUTH MAIN STREET CRESTON, OH 44217","bldgnbr":"209","predir":null,"streetname":"SOUTH MAIN STREET","streettype":null,"suffdir":null,"city":"CRESTON","state_code":"OH","zip5":"44217","latitude":"40.9773500000000000","longitude":"-81.899450000000000","publicwifi":"U","url":null,"broadband_type_id":5}
{"id":null,"anchorname":"STERLING FIRE DISTRICT","address":"13845 KAUFFMAN AVENUE STERLING, OH 44276","bldgnbr":"13845","predir":null,"streetname":"KAUFFMAN AVENUE","streettype":null,"suffdir":null,"city":"STERLING","state_code":"OH","zip5":"44276","latitude":"40.9685800000000000","longitude":"-81.847820000000000","publicwifi":"U","url":null,"broadband_type_id":5}
{"id":null,"anchorname":"CHIPPEWA TOWNSHIP FIRE DEPARTMENT STATION 1","address":"464 GATES STREET DOYLESTOWN, OH 44230","bldgnbr":"464","predir":null,"streetname":"GATES STREET","streettype":null,"suffdir":null,"city":"DOYLESTOWN","state_code":"OH","zip5":"44230","latitude":"40.9772400000000000","longitude":"-81.698190000000000","publicwifi":"U","url":null,"broadband_type_id":5}
{"id":null,"anchorname":"HAZEL HARVEY ELEMENTARY SCHOOL","address":"165 BROOKLYN AVE DOYLESTOWN, OH 44230","bldgnbr":"165","predir":null,"streetname":"BROOKLYN AVE","streettype":null,"suffdir":null,"city":"DOYLESTOWN","state_code":"OH","zip5":"44230","latitude":"40.9731400000000000","longitude":"-81.699650000000000","publicwifi":"U","url":null,"broadband_type_id":6}
{"id":null,"anchorname":"DOYLESTOWN POLICE DEPARTMENT","address":"24 S PORTAGE ST DOYLESTOWN, OH 44230-1500","bldgnbr":"24","predir":null,"streetname":"S PORTAGE ST","streettype":null,"suffdir":null,"city":"DOYLESTOWN","state_code":"OH","zip5":"44230","latitude":"40.9686900000000000","longitude":"-81.697820000000000","publicwifi":"U","url":null,"broadband_type_id":4}
{"id":null,"anchorname":"CHIPPEWA MIDDLE SCHOOL","address":"257 HIGH ST DOYLESTOWN, OH 44230","bldgnbr":"257","predir":null,"streetname":"HIGH ST","streettype":null,"suffdir":null,"city":"DOYLESTOWN","state_code":"OH","zip5":"44230","latitude":"40.9707300000000000","longitude":"-81.692890000000000","publicwifi":"U","url":null,"broadband_type_id":6}
{"id":null,"anchorname":"DOYLESTOWN BRANCH LIBRARY","address":"169 COUNTY ROAD 5A DOYLESTOWN, OH 44230","bldgnbr":"169","predir":null,"streetname":"COUNTY ROAD 5A","streettype":null,"suffdir":null,"city":"DOYLESTOWN","state_code":"OH","zip5":"44230","latitude":"40.9707030000000000","longitude":"-81.695293000000000","publicwifi":"Y","url":null,"broadband_type_id":6}
{"id":null,"anchorname":"DOYLESTOWN HEALTHCARE CENTER","address":"95 BLACK DR DOYLESTOWN, OH 44230","bldgnbr":"95","predir":null,"streetname":"BLACK DR","streettype":null,"suffdir":null,"city":"DOYLESTOWN","state_code":"OH","zip5":"44230","latitude":"40.9663600000000000","longitude":"-81.696190000000000","publicwifi":"U","url":null,"broadband_type_id":3}
{"id":null,"anchorname":"CHIPPEWA HIGH SCHOOL","address":"100 VALLEY VIEW RD DOYLESTOWN, OH 44230","bldgnbr":"100","predir":null,"streetname":"VALLEY VIEW RD","streettype":null,"suffdir":null,"city":"DOYLESTOWN","state_code":"OH","zip5":"44230","latitude":"40.9611300000000000","longitude":"-81.690810000000000","publicwifi":"U","url":null,"broadband_type_id":6}
{"id":null,"anchorname":"CHIPPEWA TOWNSHIP FIRE DEPARTMENT STATION 2","address":"14312 HATFIELD ROAD RITTMAN, OH 44270","bldgnbr":"14312","predir":null,"streetname":"HATFIELD ROAD","streettype":null,"suffdir":null,"city":"RITTMAN","state_code":"OH","zip5":"44270","latitude":"40.9742900000000000","longitude":"-81.743720000000000","publicwifi":"U","url":null,"broadband_type_id":5}
{"id":null,"anchorname":"MARSHALLVILLE POLICE DEPARTMENT","address":"7 N MAIN ST MARSHALLVILLE, OH 44645-9774","bldgnbr":"7","predir":null,"streetname":"N MAIN ST","streettype":null,"suffdir":null,"city":"MARSHALLVILLE","state_code":"OH","zip5":"44645","latitude":"40.9015900000000000","longitude":"-81.733920000000000","publicwifi":"U","url":null,"broadband_type_id":4}
{"id":null,"anchorname":"ROCKVILLE VILLAGE CLERK","address":"131 S LEY ST, ROCKVILLE, NE 68871, ROCKVILLE, NE 68871","bldgnbr":"131","predir":"S","streetname":"LEY","streettype":"ST","suffdir":null,"city":"ROCKVILLE","state_code":"NE","zip5":"68871","latitude":"41.1173640000000000","longitude":"-98.832055000000000","publicwifi":"U","url":null,"broadband_type_id":1}
{"id":null,"anchorname":"DALTON HEAD START CENTER","address":"100 KURZEN RD N DALTON, OH 44618-9008","bldgnbr":"100","predir":null,"streetname":"KURZEN RD N","streettype":null,"suffdir":null,"city":"DALTON","state_code":"OH","zip5":"44618","latitude":"40.8022100000000000","longitude":"-81.726070000000000","publicwifi":"U","url":null,"broadband_type_id":null}
{"id":null,"anchorname":"CAMP LUZ","address":"152 KIDRON RD ORRVILLE, OH 44667-9699","bldgnbr":"152","predir":null,"streetname":"KIDRON RD","streettype":null,"suffdir":null,"city":"ORRVILLE","state_code":"OH","zip5":"44667","latitude":"40.7960200000000000","longitude":"-81.745380000000000","publicwifi":"U","url":null,"broadband_type_id":null}
{"id":null,"anchorname":"THE OAKS AT SHADY LAWN","address":"15028 OLD LINCOLN WAY EAST DALTON, OH 44618","bldgnbr":"15028","predir":null,"streetname":"OLD LINCOLN WAY EAST","streettype":null,"suffdir":null,"city":"DALTON","state_code":"OH","zip5":"44618","latitude":"40.8008100000000000","longitude":"-81.716070000000000","publicwifi":"U","url":null,"broadband_type_id":null}
{"id":null,"anchorname":"RITTMAN CHILD DEVELOP CENTER","address":"250 NORTH ST RITTMAN, OH 44270-1309","bldgnbr":"250","predir":null,"streetname":"NORTH ST","streettype":null,"suffdir":null,"city":"RITTMAN","state_code":"OH","zip5":"44270","latitude":"40.9825600000000000","longitude":"-81.773200000000000","publicwifi":"U","url":null,"broadband_type_id":null}
{"id":null,"anchorname":"SHADY LAWN HEALTH CARE COMMUNITY","address":"15028 OLD LINCOLN WAY DALTON, OH 44618","bldgnbr":"15028","predir":null,"streetname":"OLD LINCOLN WAY","streettype":null,"suffdir":null,"city":"DALTON","state_code":"OH","zip5":"44618","latitude":"40.8008100000000000","longitude":"-81.716070000000000","publicwifi":"U","url":null,"broadband_type_id":3}
{"id":null,"anchorname":"DALTON VOLUNTEER FIRE DEPARTMENT","address":"146 NORTH CHURCH STREET DALTON, OH 44618","bldgnbr":"146","predir":null,"streetname":"NORTH CHURCH STREET","streettype":null,"suffdir":null,"city":"DALTON","state_code":"OH","zip5":"44618","latitude":"40.8009700000000000","longitude":"-81.697990000000000","publicwifi":"U","url":null,"broadband_type_id":5}
{"id":null,"anchorname":"DALTON HIGH SCHOOL","address":"177 MILL STREET N DALTON, OH 44618","bldgnbr":"177","predir":null,"streetname":"MILL STREET N","streettype":null,"suffdir":null,"city":"DALTON","state_code":"OH","zip5":"44618","latitude":"40.8027100000000000","longitude":"-81.694870000000000","publicwifi":"U","url":null,"broadband_type_id":6}
{"id":null,"anchorname":"DALTON BRANCH LIBRARY","address":"127 S CHURCH ST DALTON, OH 44618","bldgnbr":"127","predir":null,"streetname":"S CHURCH ST","streettype":null,"suffdir":null,"city":"DALTON","state_code":"OH","zip5":"44618","latitude":"40.7984400000000000","longitude":"-81.698500000000000","publicwifi":"Y","url":null,"broadband_type_id":6}
{"id":null,"anchorname":"DALTON ELEMENTARY SCHOOL","address":"151 E MAIN DALTON, OH 44618","bldgnbr":"151","predir":null,"streetname":"E MAIN","streettype":null,"suffdir":null,"city":"DALTON","state_code":"OH","zip5":"44618","latitude":"40.7979800000000000","longitude":"-81.697160000000000","publicwifi":"U","url":null,"broadband_type_id":6}
{"id":null,"anchorname":"DALTON INTERMEDIATE MIDDLE SCHOOL","address":"151 E MAIN DALTON, OH 44618","bldgnbr":"151","predir":null,"streetname":"E MAIN","streettype":null,"suffdir":null,"city":"DALTON","state_code":"OH","zip5":"44618","latitude":"40.7979800000000000","longitude":"-81.697160000000000","publicwifi":"U","url":null,"broadband_type_id":6}
{"id":null,"anchorname":"DALTON POLICE DEPARTMENT","address":"221 E MAIN ST DALTON, OH 44618-9601","bldgnbr":"221","predir":null,"streetname":"E MAIN ST","streettype":null,"suffdir":null,"city":"DALTON","state_code":"OH","zip5":"44618","latitude":"40.7984900000000000","longitude":"-81.689970000000000","publicwifi":"U","url":null,"broadband_type_id":4}
{"id":null,"anchorname":"KIDRON ELEMENTARY SCHOOL","address":"4476 KIDRON ROAD KIDRON, OH 44636","bldgnbr":"4476","predir":null,"streetname":"KIDRON ROAD","streettype":null,"suffdir":null,"city":"KIDRON","state_code":"OH","zip5":"44636","latitude":"40.7450300000000000","longitude":"-81.745030000000000","publicwifi":"U","url":null,"broadband_type_id":6}
{"id":null,"anchorname":"KIDRON VOLUNTEER FIRE DEPARTMENT INCORPORATED","address":"4770 KIDRON ROAD KIDRON, OH 44636","bldgnbr":"4770","predir":null,"streetname":"KIDRON ROAD","streettype":null,"suffdir":null,"city":"KIDRON","state_code":"OH","zip5":"44636","latitude":"40.7408000000000000","longitude":"-81.745000000000000","publicwifi":"U","url":null,"broadband_type_id":5}
{"id":null,"anchorname":"RITTMAN BRANCH LIBRARY","address":"49 W OHIO AVENUE RITTMAN, OH 44270-1431","bldgnbr":"49","predir":null,"streetname":"W OHIO AVENUE","streettype":null,"suffdir":null,"city":"RITTMAN","state_code":"OH","zip5":"44270","latitude":"40.9744600000000000","longitude":"-81.783770000000000","publicwifi":"Y","url":null,"broadband_type_id":6}
{"id":null,"anchorname":"RITTMAN MIDDLE SCHOOL","address":"50 SAURER ST RITTMAN, OH 44270","bldgnbr":"50","predir":null,"streetname":"SAURER ST","streettype":null,"suffdir":null,"city":"RITTMAN","state_code":"OH","zip5":"44270","latitude":"40.9747200000000000","longitude":"-81.781670000000000","publicwifi":"U","url":null,"broadband_type_id":6}
{"id":null,"anchorname":"RITTMAN EMERGENCY MEDICAL SERVICES","address":"25 NORTH STATE STREET RITTMAN, OH 44270","bldgnbr":"25","predir":null,"streetname":"NORTH STATE STREET","streettype":null,"suffdir":null,"city":"RITTMAN","state_code":"OH","zip5":"44270","latitude":"40.9733500000000000","longitude":"-81.780360000000000","publicwifi":"U","url":null,"broadband_type_id":3}
{"id":null,"anchorname":"RITTMAN POLICE DEPARTMENT","address":"33 EAST OHIO AVENUE RITTMAN, OH 44270","bldgnbr":"33","predir":null,"streetname":"EAST OHIO AVENUE","streettype":null,"suffdir":null,"city":"RITTMAN","state_code":"OH","zip5":"44270","latitude":"40.9729000000000000","longitude":"-81.780620000000000","publicwifi":"U","url":null,"broadband_type_id":4}
{"id":null,"anchorname":"AUTUMN WOOD NURSING AND REHAB CENTER","address":"275 E SUNSET DR RITTMAN, OH 44270","bldgnbr":"275","predir":null,"streetname":"E SUNSET DR","streettype":null,"suffdir":null,"city":"RITTMAN","state_code":"OH","zip5":"44270","latitude":"40.9813600000000000","longitude":"-81.770690000000000","publicwifi":"U","url":null,"broadband_type_id":3}
{"id":null,"anchorname":"RITTMAN HIGH SCHOOL","address":"50 SAURER ST RITTMAN, OH 44270","bldgnbr":"50","predir":null,"streetname":"SAURER ST","streettype":null,"suffdir":null,"city":"RITTMAN","state_code":"OH","zip5":"44270","latitude":"40.9761000000000000","longitude":"-81.798190000000000","publicwifi":"U","url":null,"broadband_type_id":6}
{"id":null,"anchorname":"RITTMAN ELEMENTARY SCHOOL","address":"131 N METZGER AVE RITTMAN, OH 44270","bldgnbr":"131","predir":null,"streetname":"N METZGER AVE","streettype":null,"suffdir":null,"city":"RITTMAN","state_code":"OH","zip5":"44270","latitude":"40.9772600000000000","longitude":"-81.793523000000000","publicwifi":"U","url":null,"broadband_type_id":6}
{"id":null,"anchorname":"WAYNEDALE HIGH SCHOOL","address":"9050 DOVER RD APPLE CREEK, OH 44606","bldgnbr":"9050","predir":null,"streetname":"DOVER RD","streettype":null,"suffdir":null,"city":"APPLE CREEK","state_code":"OH","zip5":"44606","latitude":"40.7409200000000000","longitude":"-81.812350000000000","publicwifi":"U","url":null,"broadband_type_id":6}
{"id":null,"anchorname":"JOHN R LEA MIDDLE SCHOOL","address":"9130 DOVER RD APPLE CREEK, OH 44606","bldgnbr":"9130","predir":null,"streetname":"DOVER RD","streettype":null,"suffdir":null,"city":"APPLE CREEK","state_code":"OH","zip5":"44606","latitude":"40.7341900000000000","longitude":"-81.810460000000000","publicwifi":"U","url":null,"broadband_type_id":6}
{"id":null,"anchorname":"APPLE CREEK VOLUNTEER FIRE DEPARTMENT","address":"3400 SOUTH APPLE CREEK ROAD APPLE CREEK, OH 44606","bldgnbr":"3400","predir":null,"streetname":"SOUTH APPLE CREEK ROAD","streettype":null,"suffdir":null,"city":"APPLE CREEK","state_code":"OH","zip5":"44606","latitude":"40.7567200000000000","longitude":"-81.843590000000000","publicwifi":"U","url":null,"broadband_type_id":5}
{"id":null,"anchorname":"APPLE CREEK POLICE DEPARTMENT","address":"63 EAST MAIN STREET APPLE CREEK, OH 44606-0208","bldgnbr":"63","predir":null,"streetname":"EAST MAIN STREET","streettype":null,"suffdir":null,"city":"APPLE CREEK","state_code":"OH","zip5":"44606","latitude":"40.7487360000000000","longitude":"-81.835422000000000","publicwifi":"U","url":null,"broadband_type_id":4}
{"id":null,"anchorname":"APPLE CREEK ELEMENTARY SCHOOL","address":"173 W MAIN ST APPLE CREEK, OH 44606","bldgnbr":"173","predir":null,"streetname":"W MAIN ST","streettype":null,"suffdir":null,"city":"APPLE CREEK","state_code":"OH","zip5":"44606","latitude":"40.7508970000000000","longitude":"-81.838278000000000","publicwifi":"U","url":null,"broadband_type_id":6}
{"id":null,"anchorname":"WOOSTER COLLEGE","address":"1189 BEALL AVE WOOSTER, OH 44691-2393","bldgnbr":"1189","predir":null,"streetname":"BEALL AVE","streettype":null,"suffdir":null,"city":"WOOSTER","state_code":"OH","zip5":"44691","latitude":"40.8113600000000000","longitude":"-81.934220000000000","publicwifi":"U","url":null,"broadband_type_id":6}
{"id":null,"anchorname":"THE COLLEGE OF WOOSTER","address":"1189 BEALL AVENUE WOOSTER, OH 44691","bldgnbr":"1189","predir":null,"streetname":"BEALL AVENUE","streettype":null,"suffdir":null,"city":"WOOSTER","state_code":"OH","zip5":"44691","latitude":"40.8117450000000000","longitude":"-81.934312000000000","publicwifi":"U","url":null,"broadband_type_id":6}
{"id":null,"anchorname":"ALVORDTON-MILLCREEK TOWNSHIP FIRE DEPARTMENT","address":"116 EAST MAIN STREET ALVORDTON, OH 43501","bldgnbr":"116","predir":null,"streetname":"EAST MAIN STREET","streettype":null,"suffdir":null,"city":"ALVORDTON","state_code":"OH","zip5":"43501","latitude":"41.6657000000000000","longitude":"-84.436770000000000","publicwifi":"U","url":null,"broadband_type_id":5}
{"id":null,"anchorname":"PIONEER POLICE DEPARTMENT","address":"205 S STATE ST PIONEER, OH 43554-9657","bldgnbr":"205","predir":null,"streetname":"S STATE ST","streettype":null,"suffdir":null,"city":"PIONEER","state_code":"OH","zip5":"43554","latitude":"41.6783900000000000","longitude":"-84.553310000000000","publicwifi":"U","url":null,"broadband_type_id":4}
{"id":null,"anchorname":"PIONEER FIRE DEPARTMENT","address":"205 SOUTH STATE STREET PIONEER, OH 43554","bldgnbr":"205","predir":null,"streetname":"SOUTH STATE STREET","streettype":null,"suffdir":null,"city":"PIONEER","state_code":"OH","zip5":"43554","latitude":"41.6783900000000000","longitude":"-84.553310000000000","publicwifi":"U","url":null,"broadband_type_id":5}
{"id":null,"anchorname":"WILLIAMS COUNTY EMERGENCY MEDICAL SERVICES - MEDIC 7","address":"205 SOUTH STATE STREET PIONEER, OH 43554","bldgnbr":"205","predir":null,"streetname":"SOUTH STATE STREET","streettype":null,"suffdir":null,"city":"PIONEER","state_code":"OH","zip5":"43554","latitude":"41.6783900000000000","longitude":"-84.553310000000000","publicwifi":"U","url":null,"broadband_type_id":3}
{"id":null,"anchorname":"KUNKLE FIRE DEPARTMENT","address":"106 EAST ANGOLA STREET KUNKLE, OH 43531","bldgnbr":"106","predir":null,"streetname":"EAST ANGOLA STREET","streettype":null,"suffdir":null,"city":"KUNKLE","state_code":"OH","zip5":"43531","latitude":"41.6366000000000000","longitude":"-84.495200000000000","publicwifi":"U","url":null,"broadband_type_id":5}
{"id":null,"anchorname":"PIONEER BRANCH LIBRARY","address":"106 BAUBICE PIONEER, OH 43554","bldgnbr":"106","predir":null,"streetname":"BAUBICE","streettype":null,"suffdir":null,"city":"PIONEER","state_code":"OH","zip5":"43554","latitude":"41.6799700000000000","longitude":"-84.553310000000000","publicwifi":"Y","url":null,"broadband_type_id":6}
{"id":null,"anchorname":"NORTH CENTRAL ELEMENTARY SCHOOL","address":"400 E BAUBICE ST PIONEER, OH 43554","bldgnbr":"400","predir":null,"streetname":"E BAUBICE ST","streettype":null,"suffdir":null,"city":"PIONEER","state_code":"OH","zip5":"43554","latitude":"41.6795100000000000","longitude":"-84.548410000000000","publicwifi":"U","url":null,"broadband_type_id":6}
{"id":null,"anchorname":"NORTHWEST TOWNSHIP FIRE DEPARTMENT","address":"16473 STATE ROUTE 49 EDON, OH 43518","bldgnbr":"16473","predir":null,"streetname":"STATE ROUTE 49","streettype":null,"suffdir":null,"city":"EDON","state_code":"OH","zip5":"43518","latitude":"41.6566300000000000","longitude":"-84.748280000000000","publicwifi":"U","url":null,"broadband_type_id":5}
{"id":null,"anchorname":"EDON ELEMENTARY SCHOOL","address":"802 W INDIANA ST EDON, OH 43518","bldgnbr":"802","predir":null,"streetname":"W INDIANA ST","streettype":null,"suffdir":null,"city":"EDON","state_code":"OH","zip5":"43518","latitude":"41.5581500000000000","longitude":"-84.781090000000000","publicwifi":"U","url":null,"broadband_type_id":6}
{"id":null,"anchorname":"BRUNING-DAVENPORT MIDDLE SCH","address":"106 N JUNIPER AVE, DAVENPORT, NE 68335, DAVENPORT, NE 68335","bldgnbr":"106","predir":"N","streetname":"JUNIPER","streettype":"AVE","suffdir":null,"city":"DAVENPORT","state_code":"NE","zip5":"68335","latitude":"40.3129560220000000","longitude":"-97.810458676000000","publicwifi":"U","url":null,"broadband_type_id":6}
{"id":null,"anchorname":"MEDIC 4","address":"408 EAST INDIANA STREET EDON, OH 43518","bldgnbr":"408","predir":null,"streetname":"EAST INDIANA STREET","streettype":null,"suffdir":null,"city":"EDON","state_code":"OH","zip5":"43518","latitude":"41.5559800000000000","longitude":"-84.763730000000000","publicwifi":"U","url":null,"broadband_type_id":null}
{"id":null,"anchorname":"WILLIAMS COUNTY BOARD OF MR \u0026 DD","address":"11246 STATE ROUTE 15 MONTPELIER, OH 43543-9282","bldgnbr":"11246","predir":null,"streetname":"STATE ROUTE 15","streettype":null,"suffdir":null,"city":"MONTPELIER","state_code":"OH","zip5":"43543","latitude":"41.5759200000000000","longitude":"-84.555450000000000","publicwifi":"U","url":null,"broadband_type_id":6}
{"id":null,"anchorname":"HILLSIDE COUNTRY LIVING-THE VILLAGE","address":"9876 COUNTY ROAD 16 BRYAN, OH 43506","bldgnbr":"9876","predir":null,"streetname":"COUNTY ROAD 16","streettype":null,"suffdir":null,"city":"BRYAN","state_code":"OH","zip5":"43506","latitude":"41.5528800000000000","longitude":"-84.516770000000000","publicwifi":"U","url":null,"broadband_type_id":1}
{"id":null,"anchorname":"SPRINGFIELD TOWNSHIP STRYKER VILLAGE","address":"206 NORTH DEFIANCE STREET STRYKER, OH 43557","bldgnbr":"206","predir":null,"streetname":"NORTH DEFIANCE STREET","streettype":null,"suffdir":null,"city":"STRYKER","state_code":"OH","zip5":"43557","latitude":"41.5050500000000000","longitude":"-84.414190000000000","publicwifi":"U","url":null,"broadband_type_id":1}
{"id":null,"anchorname":"MEDIC 5","address":"110 JONESVILLE STREET MONTPELIER, OH 43543","bldgnbr":"110","predir":null,"streetname":"JONESVILLE STREET","streettype":null,"suffdir":null,"city":"MONTPELIER","state_code":"OH","zip5":"43543","latitude":"41.6101000000000000","longitude":"-84.624400000000000","publicwifi":"U","url":null,"broadband_type_id":null}
{"id":null,"anchorname":"BRYAN MUNICIPAL COURT","address":"1399 EAST HIGH STREET BRYAN, OH 43506-0546","bldgnbr":"1399","predir":null,"streetname":"EAST HIGH STREET","streettype":null,"suffdir":null,"city":"BRYAN","state_code":"OH","zip5":"43506","latitude":"41.4763970000000000","longitude":"-84.530559000000000","publicwifi":"U","url":null,"broadband_type_id":1}
{"id":null,"anchorname":"CORRECTIONS CENTER OF NORTHWEST OHIO","address":"03151 COUNTY RD 2425 STRYKER, OH 43557","bldgnbr":"3151","predir":null,"streetname":"COUNTY RD 2425","streettype":null,"suffdir":null,"city":"STRYKER","state_code":"OH","zip5":"43557","latitude":"41.4613000000000000","longitude":"-84.356570000000000","publicwifi":"U","url":null,"broadband_type_id":6}
{"id":null,"anchorname":"NORTHWEST OHIO","address":"1410 W HIGH ST BRYAN, OH 43506-3510","bldgnbr":"1410","predir":null,"streetname":"W HIGH ST","streettype":null,"suffdir":null,"city":"BRYAN","state_code":"OH","zip5":"43506","latitude":"41.4746700000000000","longitude":"-84.571900000000000","publicwifi":"U","url":null,"broadband_type_id":6}
{"id":null,"anchorname":"WILLIAMS CO YWCA","address":"1 FABER DR BRYAN, OH 43506-9127","bldgnbr":"1","predir":null,"streetname":"FABER DR","streettype":null,"suffdir":null,"city":"BRYAN","state_code":"OH","zip5":"43506","latitude":"41.4647200000000000","longitude":"-84.566680000000000","publicwifi":"U","url":null,"broadband_type_id":6}
{"id":null,"anchorname":"MEDIC 6","address":"120 WEST JACKSON STREET WEST UNITY, OH 43570","bldgnbr":"120","predir":null,"streetname":"WEST JACKSON STREET","streettype":null,"suffdir":null,"city":"WEST UNITY","state_code":"OH","zip5":"43570","latitude":"41.5866200000000000","longitude":"-84.434210000000000","publicwifi":"U","url":null,"broadband_type_id":null}
{"id":null,"anchorname":"HILLSIDE COUNTRY LIVING-THE HEIGHTS","address":"9876 COUNTY ROAD 16 BRYAN, OH 43506","bldgnbr":"9876","predir":null,"streetname":"COUNTY ROAD 16","streettype":null,"suffdir":null,"city":"BRYAN","state_code":"OH","zip5":"43506","latitude":"41.5528800000000000","longitude":"-84.516770000000000","publicwifi":"U","url":null,"broadband_type_id":null}
{"id":null,"anchorname":"MEDIC 3","address":"202 NORTH DEFIANCE STREET STRYKER, OH 43557","bldgnbr":"202","predir":null,"streetname":"NORTH DEFIANCE STREET","streettype":null,"suffdir":null,"city":"STRYKER","state_code":"OH","zip5":"43557","latitude":"41.5050300000000000","longitude":"-84.414190000000000","publicwifi":"U","url":null,"broadband_type_id":null}
{"id":null,"anchorname":"NW OH JUV DET-DEFIANCE ATTN","address":"3389 COUNTY ROAD 2425 STRYKER, OH 43557-9418","bldgnbr":"3389","predir":null,"streetname":"COUNTY ROAD 2425","streettype":null,"suffdir":null,"city":"STRYKER","state_code":"OH","zip5":"43557","latitude":"41.4622900000000000","longitude":"-84.356570000000000","publicwifi":"U","url":null,"broadband_type_id":null}
{"id":null,"anchorname":"NOCAC BRYAN HEAD START","address":"506 OXFORD DR BRYAN, OH 43506-1937","bldgnbr":"506","predir":null,"streetname":"OXFORD DR","streettype":null,"suffdir":null,"city":"BRYAN","state_code":"OH","zip5":"43506","latitude":"41.4682900000000000","longitude":"-84.562010000000000","publicwifi":"U","url":null,"broadband_type_id":null}
{"id":null,"anchorname":"EDON BRANCH LIBRARY","address":"105 S MICHIGAN STREET EDON, OH 43518-8610","bldgnbr":"105","predir":null,"streetname":"S MICHIGAN STREET","streettype":null,"suffdir":null,"city":"EDON","state_code":"OH","zip5":"43518","latitude":"41.5565200000000000","longitude":"-84.769240000000000","publicwifi":"No","url":null,"broadband_type_id":6}
{"id":null,"anchorname":"EDON POLICE DEPARTMENT","address":"108 W INDIANA ST EDON, OH 43518","bldgnbr":"108","predir":null,"streetname":"W INDIANA ST","streettype":null,"suffdir":null,"city":"EDON","state_code":"OH","zip5":"43518","latitude":"41.5564900000000000","longitude":"-84.769300000000000","publicwifi":"U","url":null,"broadband_type_id":4}
{"id":null,"anchorname":"COMMUNITY HOSPITAL OF WILLIAMS COUNTY - MONTPELIER HOSPITAL","address":"909 SNYDER AVENUE MONTPELIER, OH 43543","bldgnbr":"909","predir":null,"streetname":"SNYDER AVENUE","streettype":null,"suffdir":null,"city":"MONTPELIER","state_code":"OH","zip5":"43543","latitude":"41.5906500000000000","longitude":"-84.595190000000000","publicwifi":"U","url":null,"broadband_type_id":3}
{"id":null,"anchorname":"EVERGREEN MANOR NURSING HOME","address":"924 CHARLIES WAY MONTPELIER, OH 43543","bldgnbr":"924","predir":null,"streetname":"CHARLIES WAY","streettype":null,"suffdir":null,"city":"MONTPELIER","state_code":"OH","zip5":"43543","latitude":"41.5763200000000000","longitude":"-84.602550000000000","publicwifi":"U","url":null,"broadband_type_id":3}
{"id":null,"anchorname":"MONTPELIER FIRE DEPARTMENT","address":"107 SOUTH MONROE STREET MONTPELIER, OH 43543","bldgnbr":"107","predir":null,"streetname":"SOUTH MONROE STREET","streettype":null,"suffdir":null,"city":"MONTPELIER","state_code":"OH","zip5":"43543","latitude":"41.5858300000000000","longitude":"-84.612200000000000","publicwifi":"U","url":null,"broadband_type_id":5}
{"id":null,"anchorname":"MONTPELIER POLICE DEPARTMENT","address":"221 EMPIRE ST MONTPELIER, OH 43543-1315","bldgnbr":"221","predir":null,"streetname":"EMPIRE ST","streettype":null,"suffdir":null,"city":"MONTPELIER","state_code":"OH","zip5":"43543","latitude":"41.5852300000000000","longitude":"-84.609750000000000","publicwifi":"U","url":null,"broadband_type_id":4}
{"id":null,"anchorname":"MONTPELIER HIGH SCHOOL","address":"309 E MAIN STREET MONTPELIER, OH 43543","bldgnbr":"309","predir":null,"streetname":"E MAIN STREET","streettype":null,"suffdir":null,"city":"MONTPELIER","state_code":"OH","zip5":"43543","latitude":"41.5871500000000000","longitude":"-84.604100000000000","publicwifi":"U","url":null,"broadband_type_id":6}
{"id":null,"anchorname":"MONTPELIER PUBLIC LIBRARY","address":"216 E MAIN ST MONTPELIER, OH 43543","bldgnbr":"216","predir":null,"streetname":"E MAIN ST","streettype":null,"suffdir":null,"city":"MONTPELIER","state_code":"OH","zip5":"43543","latitude":"41.5863400000000000","longitude":"-84.605170000000000","publicwifi":"Y","url":null,"broadband_type_id":6}
{"id":null,"anchorname":"MONTPELIER ELEMENTARY SCHOOL","address":"1015 EAST BROWN ROAD MONTPELIER, OH 43543","bldgnbr":"1015","predir":null,"streetname":"EAST BROWN ROAD","streettype":null,"suffdir":null,"city":"MONTPELIER","state_code":"OH","zip5":"43543","latitude":"41.5719400000000000","longitude":"-84.619150000000000","publicwifi":"U","url":null,"broadband_type_id":6}
{"id":null,"anchorname":"WEST UNITY BRANCH LIBRARY","address":"109 SOUTH HIGH WEST UNITY, OH 43570","bldgnbr":"109","predir":null,"streetname":"SOUTH HIGH","streettype":null,"suffdir":null,"city":"WEST UNITY","state_code":"OH","zip5":"43570","latitude":"41.5857100000000000","longitude":"-84.434710000000000","publicwifi":"No","url":null,"broadband_type_id":6}
{"id":null,"anchorname":"HILLTOP ELEMENTARY SCHOOL","address":"1401 W JACKSON ST WEST UNITY, OH 43570","bldgnbr":"1401","predir":null,"streetname":"W JACKSON ST","streettype":null,"suffdir":null,"city":"WEST UNITY","state_code":"OH","zip5":"43570","latitude":"41.5863870000000000","longitude":"-84.449102000000000","publicwifi":"U","url":null,"broadband_type_id":6}
{"id":null,"anchorname":"HILLTOP HIGH SCHOOL","address":"1401 W JACKSON ST WEST UNITY, OH 43570","bldgnbr":"1401","predir":null,"streetname":"W JACKSON ST","streettype":null,"suffdir":null,"city":"WEST UNITY","state_code":"OH","zip5":"43570","latitude":"41.5863870000000000","longitude":"-84.449102000000000","publicwifi":"U","url":null,"broadband_type_id":6}
{"id":null,"anchorname":"BRADY TOWNSHIP FIRE DEPARTMENT","address":"300 SOUTH MAIN STREET WEST UNITY, OH 43570","bldgnbr":"300","predir":null,"streetname":"SOUTH MAIN STREET","streettype":null,"suffdir":null,"city":"WEST UNITY","state_code":"OH","zip5":"43570","latitude":"41.5811000000000000","longitude":"-84.434690000000000","publicwifi":"U","url":null,"broadband_type_id":5}
{"id":null,"anchorname":"WEST UNITY POLICE DEPARTMENT","address":"118 WEST JACKSON STREET WEST UNITY, OH 43570-0207","bldgnbr":"118","predir":null,"streetname":"WEST JACKSON STREET","streettype":null,"suffdir":null,"city":"WEST UNITY","state_code":"OH","zip5":"43570","latitude":"41.5865880000000000","longitude":"-84.434704000000000","publicwifi":"U","url":null,"broadband_type_id":4}
{"id":null,"anchorname":"STRYKER POLICE DEPARTMENT","address":"200 NORTH DEFIANCE STREET STRYKER, OH 43557-0404","bldgnbr":"200","predir":null,"streetname":"NORTH DEFIANCE STREET","streettype":null,"suffdir":null,"city":"STRYKER","state_code":"OH","zip5":"43557","latitude":"41.5056500000000000","longitude":"-84.413647000000000","publicwifi":"U","url":null,"broadband_type_id":4}
{"id":null,"anchorname":"STRYKER ELEMENTARY SCHOOL","address":"400 S DEFIANCE ST STRYKER, OH 43557","bldgnbr":"400","predir":null,"streetname":"S DEFIANCE ST","streettype":null,"suffdir":null,"city":"STRYKER","state_code":"OH","zip5":"43557","latitude":"41.5014700000000000","longitude":"-84.414510000000000","publicwifi":"U","url":null,"broadband_type_id":6}
{"id":null,"anchorname":"STRYKER HIGH SCHOOL","address":"400 S DEFIANCE ST STRYKER, OH 43557","bldgnbr":"400","predir":null,"streetname":"S DEFIANCE ST","streettype":null,"suffdir":null,"city":"STRYKER","state_code":"OH","zip5":"43557","latitude":"41.5014700000000000","longitude":"-84.414510000000000","publicwifi":"U","url":null,"broadband_type_id":6}
{"id":null,"anchorname":"WILLIAMS COUNTY PUBLIC LIBRARY","address":"107 E HIGH ST BRYAN, OH 43506-1702","bldgnbr":"107","predir":null,"streetname":"E HIGH ST","streettype":null,"suffdir":null,"city":"BRYAN","state_code":"OH","zip5":"43506","latitude":"41.4747400000000000","longitude":"-84.550200000000000","publicwifi":"Y","url":null,"broadband_type_id":6}
{"id":null,"anchorname":"LINCOLN ELEMENTARY SCHOOL","address":"301 E BUTLER ST BRYAN, OH 43506","bldgnbr":"301","predir":null,"streetname":"E BUTLER ST","streettype":null,"suffdir":null,"city":"BRYAN","state_code":"OH","zip5":"43506","latitude":"41.4734000000000000","longitude":"-84.547650000000000","publicwifi":"U","url":null,"broadband_type_id":6}
{"id":null,"anchorname":"WASHINGTON ELEMENTARY SCHOOL","address":"510 AVENUE A BRYAN, OH 43506","bldgnbr":"510","predir":null,"streetname":"AVENUE A","streettype":null,"suffdir":null,"city":"BRYAN","state_code":"OH","zip5":"43506","latitude":"41.4674500000000000","longitude":"-84.564070000000000","publicwifi":"U","url":null,"broadband_type_id":6}
{"id":null,"anchorname":"BRYAN MIDDLE SCHOOL","address":"1301 CENTER ST BRYAN, OH 43506","bldgnbr":"1301","predir":null,"streetname":"CENTER ST","streettype":null,"suffdir":null,"city":"BRYAN","state_code":"OH","zip5":"43506","latitude":"41.4590000000000000","longitude":"-84.569000000000000","publicwifi":"U","url":null,"broadband_type_id":6}
{"id":null,"anchorname":"Village of Skaneateles","address":"46 East Genesee Street","bldgnbr":"46","predir":"East","streetname":"Genesee","streettype":"Street","suffdir":null,"city":"Skaneateles","state_code":"NY","zip5":"13152","latitude":"42.9454745590000000","longitude":"-76.427732918000000","publicwifi":"U","url":null,"broadband_type_id":6}
{"id":null,"anchorname":"WILLIAMS COUNTY COMMUNICATIONS","address":"210 NORTH BEECH STREET BRYAN, OH 43506","bldgnbr":"210","predir":null,"streetname":"NORTH BEECH STREET","streettype":null,"suffdir":null,"city":"BRYAN","state_code":"OH","zip5":"43506","latitude":"41.4762200000000000","longitude":"-84.553550000000000","publicwifi":"U","url":null,"broadband_type_id":6}
{"id":null,"anchorname":"WILLIAMS COUNTY COURT OF COMMON PLEAS PROBATE AND JUVENILE DIVISIONS","address":"1 COURT HOUSE SQUARE BRYAN, OH 43506-1751","bldgnbr":"1","predir":null,"streetname":"COURT HOUSE SQUARE","streettype":null,"suffdir":null,"city":"BRYAN","state_code":"OH","zip5":"43506","latitude":"41.4744000000000000","longitude":"-84.551200000000000","publicwifi":"U","url":null,"broadband_type_id":6}
{"id":null,"anchorname":"WILLIAMS CO DHS-FDCH","address":"117 W BUTLER ST BRYAN, OH 43506-1650","bldgnbr":"117","predir":null,"streetname":"W BUTLER ST","streettype":null,"suffdir":null,"city":"BRYAN","state_code":"OH","zip5":"43506","latitude":"41.4730300000000000","longitude":"-84.551560000000000","publicwifi":"U","url":null,"broadband_type_id":6}
{"id":null,"anchorname":"WILLIAMS COUNTY ECONOMIC DEVELOPMENT","address":"228 SOUTH MAIN BRYAN, OH 43506","bldgnbr":"228","predir":null,"streetname":"SOUTH MAIN","streettype":null,"suffdir":null,"city":"BRYAN","state_code":"OH","zip5":"43506","latitude":"41.4726530000000000","longitude":"-84.551060000000000","publicwifi":"U","url":null,"broadband_type_id":6}
{"id":null,"anchorname":"EDGERTON METHODIST CHURCH","address":"307 S MICHIGAN AVE EDGERTON, OH 43517-9719","bldgnbr":"307","predir":null,"streetname":"S MICHIGAN AVE","streettype":null,"suffdir":null,"city":"EDGERTON","state_code":"OH","zip5":"43517","latitude":"41.4455300000000000","longitude":"-84.747870000000000","publicwifi":"U","url":null,"broadband_type_id":6}
{"id":null,"anchorname":"MEDIC 2","address":"414 SOUTH EMMET STREET BRYAN, OH 43506","bldgnbr":"414","predir":null,"streetname":"SOUTH EMMET STREET","streettype":null,"suffdir":null,"city":"BRYAN","state_code":"OH","zip5":"43506","latitude":"41.4704000000000000","longitude":"-84.556200000000000","publicwifi":"U","url":null,"broadband_type_id":null}
{"id":null,"anchorname":"ST. PATRICK","address":"610  S PORTLAND ST BRYAN, OH 43506-2057","bldgnbr":"610","predir":null,"streetname":"S PORTLAND ST","streettype":null,"suffdir":null,"city":"BRYAN","state_code":"OH","zip5":"43506","latitude":"41.4675600000000000","longitude":"-84.556700000000000","publicwifi":"U","url":null,"broadband_type_id":null}
{"id":null,"anchorname":"ST. MARY","address":"314  S LOCUST ST EDGERTON, OH 43517-9683","bldgnbr":"314","predir":null,"streetname":"S LOCUST ST","streettype":null,"suffdir":null,"city":"EDGERTON","state_code":"OH","zip5":"43517","latitude":"41.4456700000000000","longitude":"-84.749930000000000","publicwifi":"U","url":null,"broadband_type_id":null}
{"id":null,"anchorname":"MEDIC 1","address":"108 EAST INDIANA STREET EDGERTON, OH 43517","bldgnbr":"108","predir":null,"streetname":"EAST INDIANA STREET","streettype":null,"suffdir":null,"city":"EDGERTON","state_code":"OH","zip5":"43517","latitude":"41.4486200000000000","longitude":"-84.747790000000000","publicwifi":"U","url":null,"broadband_type_id":null}
{"id":null,"anchorname":"THE WRIGHT HARVEY HOUSE","address":"3055 E PLAZA BLVD NORTHWOOD, OH 43619","bldgnbr":"3055","predir":null,"streetname":"E PLAZA BLVD","streettype":null,"suffdir":null,"city":"NORTHWOOD","state_code":"OH","zip5":"43619","latitude":"41.6037800000000000","longitude":"-83.456450000000000","publicwifi":"U","url":null,"broadband_type_id":null}
{"id":null,"anchorname":"WSOS OLNEY","address":"512 LEMOYNE RD NORTHWOOD, OH 43619-1810","bldgnbr":"512","predir":null,"streetname":"LEMOYNE RD","streettype":null,"suffdir":null,"city":"NORTHWOOD","state_code":"OH","zip5":"43619","latitude":"41.6077300000000000","longitude":"-83.474210000000000","publicwifi":"U","url":null,"broadband_type_id":null}
{"id":null,"anchorname":"ROSSFORD","address":"601  SUPERIOR ST ROSSFORD, OH 43460-1247","bldgnbr":"601","predir":null,"streetname":"SUPERIOR ST","streettype":null,"suffdir":null,"city":"ROSSFORD","state_code":"OH","zip5":"43460","latitude":"41.6102800000000000","longitude":"-83.558060000000000","publicwifi":"U","url":null,"broadband_type_id":null}
{"id":null,"anchorname":"BRYAN POLICE DEPARTMENT","address":"103 NORTH BEECH STREET BRYAN, OH 43506","bldgnbr":"103","predir":null,"streetname":"NORTH BEECH STREET","streettype":null,"suffdir":null,"city":"BRYAN","state_code":"OH","zip5":"43506","latitude":"41.4748200000000000","longitude":"-84.553770000000000","publicwifi":"U","url":null,"broadband_type_id":4}
{"id":null,"anchorname":"BRYAN FIRE DEPARTMENT","address":"304 WEST HIGH STREET BRYAN, OH 43506","bldgnbr":"304","predir":null,"streetname":"WEST HIGH STREET","streettype":null,"suffdir":null,"city":"BRYAN","state_code":"OH","zip5":"43506","latitude":"41.4747300000000000","longitude":"-84.554110000000000","publicwifi":"U","url":null,"broadband_type_id":5}
{"id":null,"anchorname":"BRYAN CITY SCHOOLS PRESCHOOL","address":"120 S BEECH ST BRYAN, OH 43506","bldgnbr":"120","predir":null,"streetname":"S BEECH ST","streettype":null,"suffdir":null,"city":"BRYAN","state_code":"OH","zip5":"43506","latitude":"41.4754040000000000","longitude":"-84.553625000000000","publicwifi":"U","url":null,"broadband_type_id":6}
{"id":null,"anchorname":"COMMUNITY HOSPITALS AND WELLNESS CENTERS","address":"433 WEST HIGH STREET BRYAN, OH 43506","bldgnbr":"433","predir":null,"streetname":"WEST HIGH STREET","streettype":null,"suffdir":null,"city":"BRYAN","state_code":"OH","zip5":"43506","latitude":"41.4740900000000000","longitude":"-84.556870000000000","publicwifi":"U","url":null,"broadband_type_id":3}
{"id":null,"anchorname":"BRYAN HIGH SCHOOL","address":"150 S PORTLAND ST BRYAN, OH 43506","bldgnbr":"150","predir":null,"streetname":"S PORTLAND ST","streettype":null,"suffdir":null,"city":"BRYAN","state_code":"OH","zip5":"43506","latitude":"41.4731700000000000","longitude":"-84.557360000000000","publicwifi":"U","url":null,"broadband_type_id":6}
{"id":null,"anchorname":"ASSEM GOD CH-TENDER CARE","address":"1105 ALPINE DR BRYAN, OH 43506-9421","bldgnbr":"1105","predir":null,"streetname":"ALPINE DR","streettype":null,"suffdir":null,"city":"BRYAN","state_code":"OH","zip5":"43506","latitude":"41.4629900000000000","longitude":"-84.565590000000000","publicwifi":"U","url":null,"broadband_type_id":3}
{"id":null,"anchorname":"HARBORSIDE HEALTHCARE OF NW OHIO","address":"1104 WESLEY AVE BRYAN, OH 43506","bldgnbr":"1104","predir":null,"streetname":"WESLEY AVE","streettype":null,"suffdir":null,"city":"BRYAN","state_code":"OH","zip5":"43506","latitude":"41.4622800000000000","longitude":"-84.566790000000000","publicwifi":"U","url":null,"broadband_type_id":3}
{"id":null,"anchorname":"EDGERTON ELEMENTARY SCHOOL","address":"111 E RIVER ST EDGERTON, OH 43517","bldgnbr":"111","predir":null,"streetname":"E RIVER ST","streettype":null,"suffdir":null,"city":"EDGERTON","state_code":"OH","zip5":"43517","latitude":"41.4560640000000000","longitude":"-84.743830000000000","publicwifi":"U","url":null,"broadband_type_id":6}
{"id":null,"anchorname":"EDGERTON HIGH SCHOOL","address":"111 E RIVER ST EDGERTON, OH 43517","bldgnbr":"111","predir":null,"streetname":"E RIVER ST","streettype":null,"suffdir":null,"city":"EDGERTON","state_code":"OH","zip5":"43517","latitude":"41.4555500000000000","longitude":"-84.744870000000000","publicwifi":"U","url":null,"broadband_type_id":6}
{"id":null,"anchorname":"EDGERTON POLICE DEPARTMENT","address":"217 EAST RIVER STREET EDGERTON, OH 43517-0609","bldgnbr":"217","predir":null,"streetname":"EAST RIVER STREET","streettype":null,"suffdir":null,"city":"EDGERTON","state_code":"OH","zip5":"43517","latitude":"41.4551840000000000","longitude":"-84.745175000000000","publicwifi":"U","url":null,"broadband_type_id":4}
{"id":null,"anchorname":"PARK VIEW NURSING CENTER","address":"328 W VINE ST EDGERTON, OH 43517","bldgnbr":"328","predir":null,"streetname":"W VINE ST","streettype":null,"suffdir":null,"city":"EDGERTON","state_code":"OH","zip5":"43517","latitude":"41.4473400000000000","longitude":"-84.755860000000000","publicwifi":"U","url":null,"broadband_type_id":3}
{"id":null,"anchorname":"EDGERTON BRANCH LIBRARY","address":"319 NORTH MICHIGAN AVENUE EDGERTON, OH 43517","bldgnbr":"319","predir":null,"streetname":"NORTH MICHIGAN AVENUE","streettype":null,"suffdir":null,"city":"EDGERTON","state_code":"OH","zip5":"43517","latitude":"41.4518100000000000","longitude":"-84.748280000000000","publicwifi":"No","url":null,"broadband_type_id":6}
{"id":null,"anchorname":"EDGERTON FIRE DEPARTMENT","address":"108 EAST INDIANA STREET EDGERTON, OH 43517","bldgnbr":"108","predir":null,"streetname":"EAST INDIANA STREET","streettype":null,"suffdir":null,"city":"EDGERTON","state_code":"OH","zip5":"43517","latitude":"41.4486200000000000","longitude":"-84.747790000000000","publicwifi":"U","url":null,"broadband_type_id":5}
{"id":null,"anchorname":"NORTHWOOD HIGH SCHOOL","address":"700 LEMOYNE RD NORTHWOOD, OH 43619","bldgnbr":"700","predir":null,"streetname":"LEMOYNE RD","streettype":null,"suffdir":null,"city":"NORTHWOOD","state_code":"OH","zip5":"43619","latitude":"41.6030680000000000","longitude":"-83.475293000000000","publicwifi":"U","url":null,"broadband_type_id":6}
{"id":null,"anchorname":"NORTHWOOD FIRE DEPARTMENT STATION 1","address":"2100 TRACY ROAD NORTHWOOD, OH 43619","bldgnbr":"2100","predir":null,"streetname":"TRACY ROAD","streettype":null,"suffdir":null,"city":"NORTHWOOD","state_code":"OH","zip5":"43619","latitude":"41.6140300000000000","longitude":"-83.529760000000000","publicwifi":"U","url":null,"broadband_type_id":5}
{"id":null,"anchorname":"NORTHWOOD POLICE DEPARTMENT","address":"6000 WALES RD NORTHWOOD, OH 43619-1480","bldgnbr":"6000","predir":null,"streetname":"WALES RD","streettype":null,"suffdir":null,"city":"NORTHWOOD","state_code":"OH","zip5":"43619","latitude":"41.6101800000000000","longitude":"-83.482620000000000","publicwifi":"U","url":null,"broadband_type_id":4}
{"id":null,"anchorname":"NORTHWOOD FIRE DEPARTMENT STATION 2","address":"6000 WALES ROAD NORTHWOOD, OH 43619","bldgnbr":"6000","predir":null,"streetname":"WALES ROAD","streettype":null,"suffdir":null,"city":"NORTHWOOD","state_code":"OH","zip5":"43619","latitude":"41.6101800000000000","longitude":"-83.482620000000000","publicwifi":"U","url":null,"broadband_type_id":5}
{"id":null,"anchorname":"EAGLE POINT ELEMENTARY SCHOOL","address":"203 EAGLE POINT RD ROSSFORD, OH 43460","bldgnbr":"203","predir":null,"streetname":"EAGLE POINT RD","streettype":null,"suffdir":null,"city":"ROSSFORD","state_code":"OH","zip5":"43460","latitude":"41.6058800000000000","longitude":"-83.564780000000000","publicwifi":"U","url":null,"broadband_type_id":6}
{"id":null,"anchorname":"ROSSFORD PUBLIC LIBRARY","address":"720 DIXIE HWY ROSSFORD, OH 43460-1260","bldgnbr":"720","predir":null,"streetname":"DIXIE HWY","streettype":null,"suffdir":null,"city":"ROSSFORD","state_code":"OH","zip5":"43460","latitude":"41.6084100000000000","longitude":"-83.561350000000000","publicwifi":"Y","url":null,"broadband_type_id":6}
{"id":null,"anchorname":"ROSSFORD POLICE DEPARTMENT","address":"99 HILLSDALE AVE ROSSFORD, OH 43460-1261","bldgnbr":"99","predir":null,"streetname":"HILLSDALE AVE","streettype":null,"suffdir":null,"city":"ROSSFORD","state_code":"OH","zip5":"43460","latitude":"41.6112400000000000","longitude":"-83.561950000000000","publicwifi":"U","url":null,"broadband_type_id":4}
{"id":null,"anchorname":"ROSSFORD FIRE AND RESCUE DEPARTMENT","address":"133 OSBORN STREET ROSSFORD, OH 43460","bldgnbr":"133","predir":null,"streetname":"OSBORN STREET","streettype":null,"suffdir":null,"city":"ROSSFORD","state_code":"OH","zip5":"43460","latitude":"41.6090800000000000","longitude":"-83.561280000000000","publicwifi":"U","url":null,"broadband_type_id":5}
{"id":null,"anchorname":"ROSSFORD JUNIOR HIGH SCHOOL","address":"651 SUPERIOR ST ROSSFORD, OH 43460","bldgnbr":"651","predir":null,"streetname":"SUPERIOR ST","streettype":null,"suffdir":null,"city":"ROSSFORD","state_code":"OH","zip5":"43460","latitude":"41.6099300000000000","longitude":"-83.558520000000000","publicwifi":"U","url":null,"broadband_type_id":6}
{"id":null,"anchorname":"ROSSFORD HIGH SCHOOL","address":"701 SUPERIOR ST ROSSFORD, OH 43460","bldgnbr":"701","predir":null,"streetname":"SUPERIOR ST","streettype":null,"suffdir":null,"city":"ROSSFORD","state_code":"OH","zip5":"43460","latitude":"41.6077100000000000","longitude":"-83.558790000000000","publicwifi":"U","url":null,"broadband_type_id":6}
{"id":null,"anchorname":"HEBRON CITY OFFICE","address":"216 LINCOLN AVE., HEBRON, NE 68370, HEBRON, NE 68370","bldgnbr":"216","predir":null,"streetname":"LINCOLN","streettype":"AVE","suffdir":null,"city":"HEBRON","state_code":"NE","zip5":"68370","latitude":"40.1666536970000000","longitude":"-97.593107808000000","publicwifi":"U","url":null,"broadband_type_id":1}
{"id":null,"anchorname":"ALL SAINTS CATHOLIC","address":"630  LIME CITY RD ROSSFORD, OH 43460-1412","bldgnbr":"630","predir":null,"streetname":"LIME CITY RD","streettype":null,"suffdir":null,"city":"ROSSFORD","state_code":"OH","zip5":"43460","latitude":"41.5940800000000000","longitude":"-83.569950000000000","publicwifi":"U","url":null,"broadband_type_id":null}
{"id":null,"anchorname":"Village of Shortsville","address":"5 Sheldon Street","bldgnbr":"5","predir":null,"streetname":"Sheldon","streettype":"Street","suffdir":null,"city":"Shortsville","state_code":"NY","zip5":"14548","latitude":"42.9552285590000000","longitude":"-77.220372917000000","publicwifi":"U","url":null,"broadband_type_id":1}
{"id":null,"anchorname":"PENTA SATELLITE","address":"9301 BUCK RD PERRYSBURG, OH 43551","bldgnbr":"9301","predir":null,"streetname":"BUCK RD","streettype":null,"suffdir":null,"city":"PERRYSBURG","state_code":"OH","zip5":"43551","latitude":"41.5836530000000000","longitude":"-83.572250000000000","publicwifi":"U","url":null,"broadband_type_id":null}
{"id":null,"anchorname":"KINGSTON RESIDENCE OF PERRYSBURG","address":"333 E BOUNDARY ST PERRYSBURG, OH 43551","bldgnbr":"333","predir":null,"streetname":"E BOUNDARY ST","streettype":null,"suffdir":null,"city":"PERRYSBURG","state_code":"OH","zip5":"43551","latitude":"41.5626700000000000","longitude":"-83.615940000000000","publicwifi":"U","url":null,"broadband_type_id":6}
{"id":null,"anchorname":"HEARTLAND OF PERRYSBURG HOME","address":"10540 FREMONT PIKE PERRYSBURG, OH 43551","bldgnbr":"10540","predir":null,"streetname":"FREMONT PIKE","streettype":null,"suffdir":null,"city":"PERRYSBURG","state_code":"OH","zip5":"43551","latitude":"41.5472900000000000","longitude":"-83.595740000000000","publicwifi":"U","url":null,"broadband_type_id":3}
{"id":null,"anchorname":"LUTHERAN CH OF THE MASTER","address":"28744 SIMMONS RD PERRYSBURG, OH 43551-3638","bldgnbr":"28744","predir":null,"streetname":"SIMMONS RD","streettype":null,"suffdir":null,"city":"PERRYSBURG","state_code":"OH","zip5":"43551","latitude":"41.5682100000000000","longitude":"-83.589760000000000","publicwifi":"U","url":null,"broadband_type_id":null}
{"id":null,"anchorname":"OHIO BUREAU OF MOTOR VEHICLES","address":"26611 DIXIE HWY PERRYSBURG, OH 43551-1765","bldgnbr":"26611","predir":null,"streetname":"DIXIE HWY","streettype":null,"suffdir":null,"city":"PERRYSBURG","state_code":"OH","zip5":"43551","latitude":"41.5406110000000000","longitude":"-83.634626000000000","publicwifi":"U","url":null,"broadband_type_id":6}
{"id":null,"anchorname":"HEALING ARTS INSTITUTE","address":"340 THREE MEADOWS DR PERRYSBURG, OH 43551","bldgnbr":"340","predir":null,"streetname":"THREE MEADOWS DR","streettype":null,"suffdir":null,"city":"PERRYSBURG","state_code":"OH","zip5":"43551","latitude":"41.5539630000000000","longitude":"-83.604111000000000","publicwifi":"U","url":null,"broadband_type_id":null}
{"id":null,"anchorname":"PERRYSBURG COMMONS","address":"10542 FREMONT PIKE PERRYSBURG, OH 43551","bldgnbr":"10542","predir":null,"streetname":"FREMONT PIKE","streettype":null,"suffdir":null,"city":"PERRYSBURG","state_code":"OH","zip5":"43551","latitude":"41.5494000000000000","longitude":"-83.595950000000000","publicwifi":"U","url":null,"broadband_type_id":null}
{"id":null,"anchorname":"NORTHWEST OHIO SERRC","address":"10142 DOWLING RD BOWLING GREEN, OH 43402-9684","bldgnbr":"10142","predir":null,"streetname":"DOWLING RD","streettype":null,"suffdir":null,"city":"BOWLING GREEN","state_code":"OH","zip5":"43402","latitude":"41.4783700000000000","longitude":"-83.593140000000000","publicwifi":"U","url":null,"broadband_type_id":6}
{"id":null,"anchorname":"PERRYSBURG MUNICIPAL COURT","address":"300 WALNUT ST PERRYSBURG, OH 43551-1455","bldgnbr":"300","predir":null,"streetname":"WALNUT ST","streettype":null,"suffdir":null,"city":"PERRYSBURG","state_code":"OH","zip5":"43551","latitude":"41.5574100000000000","longitude":"-83.630930000000000","publicwifi":"U","url":null,"broadband_type_id":1}
{"id":null,"anchorname":"MAUMEE VALLEY COMPUTER ASSOCIATION","address":"30095 OREGON RD PERRYSBURG, OH 43551-4533","bldgnbr":"30095","predir":null,"streetname":"OREGON RD","streettype":null,"suffdir":null,"city":"PERRYSBURG","state_code":"OH","zip5":"43551","latitude":"41.5870300000000000","longitude":"-83.540930000000000","publicwifi":"U","url":null,"broadband_type_id":1}
{"id":null,"anchorname":"EAST COMMUNITY BLDG","address":"27695 TRACY RD WALBRIDGE, OH 43465","bldgnbr":"27695","predir":null,"streetname":"TRACY RD","streettype":null,"suffdir":null,"city":"WALBRIDGE","state_code":"OH","zip5":"43465","latitude":"41.5526200000000000","longitude":"-83.530240000000000","publicwifi":"U","url":null,"broadband_type_id":1}
{"id":null,"anchorname":"ST. ROSE","address":"217  E FRONT ST PERRYSBURG, OH 43551-2129","bldgnbr":"217","predir":null,"streetname":"E FRONT ST","streettype":null,"suffdir":null,"city":"PERRYSBURG","state_code":"OH","zip5":"43551","latitude":"41.5621200000000000","longitude":"-83.628300000000000","publicwifi":"U","url":null,"broadband_type_id":null}
{"id":null,"anchorname":"WSOS PERRYSBURG HEAD START","address":"140 E INDIANA AVE PERRYSBURG, OH 43551-2261","bldgnbr":"140","predir":null,"streetname":"E INDIANA AVE","streettype":null,"suffdir":null,"city":"PERRYSBURG","state_code":"OH","zip5":"43551","latitude":"41.5569300000000000","longitude":"-83.627060000000000","publicwifi":"U","url":null,"broadband_type_id":null}
{"id":null,"anchorname":"DIVINE WORD SEMINARY","address":"26581 W RIVER RD PERRYSBURG, OH 43551-1010","bldgnbr":"26581","predir":null,"streetname":"W RIVER RD","streettype":null,"suffdir":null,"city":"PERRYSBURG","state_code":"OH","zip5":"43551","latitude":"41.5400300000000000","longitude":"-83.684520000000000","publicwifi":"U","url":null,"broadband_type_id":null}
{"id":null,"anchorname":"PENTA CAREER CENTER - ON CAMPUS","address":"9301 BUCK RD PERRYSBURG, OH 43551","bldgnbr":"9301","predir":null,"streetname":"BUCK RD","streettype":null,"suffdir":null,"city":"PERRYSBURG","state_code":"OH","zip5":"43551","latitude":"41.5868380000000000","longitude":"-83.568136000000000","publicwifi":"U","url":null,"broadband_type_id":3}
{"id":null,"anchorname":"THE MANOR AT PERRYSBURG NURSING HOME","address":"250 MANOR DR PERRYSBURG, OH 43551","bldgnbr":"250","predir":null,"streetname":"MANOR DR","streettype":null,"suffdir":null,"city":"PERRYSBURG","state_code":"OH","zip5":"43551","latitude":"41.5538700000000000","longitude":"-83.601600000000000","publicwifi":"U","url":null,"broadband_type_id":3}
{"id":null,"anchorname":"WOODLAND ELEMENTARY SCHOOL","address":"27979 WHITE RD PERRYSBURG, OH 43551","bldgnbr":"27979","predir":null,"streetname":"WHITE RD","streettype":null,"suffdir":null,"city":"PERRYSBURG","state_code":"OH","zip5":"43551","latitude":"41.5596200000000000","longitude":"-83.610430000000000","publicwifi":"U","url":null,"broadband_type_id":6}
{"id":null,"anchorname":"PERRYSBURG JUNIOR HIGH SCHOOL","address":"550 E SOUTH BOUNDARY ST PERRYSBURG, OH 43551","bldgnbr":"550","predir":null,"streetname":"E SOUTH BOUNDARY ST","streettype":null,"suffdir":null,"city":"PERRYSBURG","state_code":"OH","zip5":"43551","latitude":"41.5476400000000000","longitude":"-83.610710000000000","publicwifi":"U","url":null,"broadband_type_id":6}
{"id":null,"anchorname":"TOTH ELEMENTARY SCHOOL","address":"200 E 7TH ST PERRYSBURG, OH 43551","bldgnbr":"200","predir":null,"streetname":"E 7TH ST","streettype":null,"suffdir":null,"city":"PERRYSBURG","state_code":"OH","zip5":"43551","latitude":"41.5542800000000000","longitude":"-83.622550000000000","publicwifi":"U","url":null,"broadband_type_id":6}
{"id":null,"anchorname":"PERRYSBURG POLICE DEPARTMENT","address":"201 W INDIANA AVE PERRYSBURG, OH 43551-1525","bldgnbr":"201","predir":null,"streetname":"W INDIANA AVE","streettype":null,"suffdir":null,"city":"PERRYSBURG","state_code":"OH","zip5":"43551","latitude":"41.5564700000000000","longitude":"-83.630730000000000","publicwifi":"U","url":null,"broadband_type_id":4}
{"id":null,"anchorname":"PERRYSBURG CITY POLICE AND FIRE","address":"330 WALNUT STREET PERRYSBURG, OH 43551","bldgnbr":"330","predir":null,"streetname":"WALNUT STREET","streettype":null,"suffdir":null,"city":"PERRYSBURG","state_code":"OH","zip5":"43551","latitude":"41.5567000000000000","longitude":"-83.630390000000000","publicwifi":"U","url":null,"broadband_type_id":4}
{"id":null,"anchorname":"WAY PUBLIC LIBRARY","address":"101 E INDIANA AVE PERRYSBURG, OH 43551-2262","bldgnbr":"101","predir":null,"streetname":"E INDIANA AVE","streettype":null,"suffdir":null,"city":"PERRYSBURG","state_code":"OH","zip5":"43551","latitude":"41.5574700000000000","longitude":"-83.627380000000000","publicwifi":"Y","url":null,"broadband_type_id":6}
